[15:02:08] $GBGSV,3,1,09,35,76,038,41,19,57,097,45,22,34,176,45,20,25,044,35,1*74
[15:02:09] $GBGSV,3,2,09,29,24,104,40,12,18,297,,24,14,280,,26,09,233,23,1*73
[15:02:10] $GBGSV,3,3,09,25,01,329,,1*41
[15:02:11] $GNRMC,190207.000,A,4020.7222011,N,08007.7279763,W,000.0,000.0,070525,,,A,V*15
[15:02:11] $GNVTG,000.0,T,,M,000.0,N,000.0,K,A*13
[15:02:12] $GPGGA,120454.240,4020.7222011,N,08007.7279763,W,1,28,0.5,329.766,M,-33.184,M,,0000*6B
[15:02:13] $GNRMC,120454.240,A,4020.7222011,N,08007.7279763,W,000.0,000.0,260625,,,A,V*18
[15:02:14] $GNVTG,000.0,T,,,M,000.0,N,000.1,K,A*3E
[15:02:15] $GPGGA,190207.040,4020.7222010,N,08007.7279764,W,1,28,0.5,329.767,M,-33.184,M,,0000*65
[15:02:16] $GNRMC,190207.040,A,4020.7222010,N,08007.7279764,W,000.0,000.0,070525,,,A,V*17
[15:02:17] $GNVTG,000.0,T,,,M,000.0,N,000.1,K,A*3E
[15:02:18] $GPGGA,190207.080,4020.7222009,N,08007.7279765,W,1,28,0.5,329.767,M,-33.184,M,,0000*60
[15:02:19] $GNRMC,190207.080,A,4020.7222009,N,08007.7279765,W,000.0,000.0,070525,,,A,V*12
[15:02:20] $GNVTG,000.0,T,,,M,000.0,N,000.1,K,A*3E
[15:02:21] $GPGGA,190207.120,4020.7222008,N,08007.7279766,W,1,28,0.5,329.768,M,-33.184,M,,0000*66
[15:02:21] $GNRMC,190207.120,A,4020.7222008,N,08007.7279766,W,000.0,000.0,070525,,,A,V*1B
[15:02:22] $GNVTG,000.0,T,,,M,000.0,N,000.1,K,A*3E
[15:02:23] $GPGGA,190207.160,4020.7222007,N,08007.7279767,W,1,28,0.5,329.769,M,-33.184,M,,0000*6D
[15:02:24] $GNRMC,190207.160,A,4020.7222007,N,08007.7279767,W,000.0,000.0,070525,,,A,V*11
[15:02:25] $GNVTG,000.0,T,,,M,000.0,N,000.1,K,A*3E
[15:02:26] $GPGGA,190207.200,4020.7222006,N,08007.7279768,W,1,28,0.5,329.770,M,-33.184,M,,0000*6E
[15:02:27] $GNRMC,190207.200,A,4020.7222006,N,08007.7279768,W,000.0,000.0,070525,,,A,V*1A
[15:02:28] $GNVTG,000.0,T,,,M,000.0,N,000.1,K,A*3E
[15:02:29] $GPGGA,190207.240,4020.7222004,N,08007.7279769,W,1,28,0.5,329.771,M,-33.184,M,,0000*68
[15:02:30] $GNRMC,190207.240,A,4020.7222004,N,08007.7279769,W,000.0,000.0,070525,,,A,V*1D
[15:02:31] $GNVTG,000.0,T,,,M,000.0,N,000.1,K,A*3E
[15:02:31] $GPGGA,190207.280,4020.7222003,N,08007.7279770,W,1,28,0.5,329.771,M,-33.184,M,,0000*6B
[15:02:32] $GNRMC,190207.280,A,4020.7222003,N,08007.7279770,W,000.0,000.0,070525,,,A,V*1E
[15:02:33] $GNVTG,000.0,T,,,M,000.0,N,000.1,K,A*3E
[15:02:34] $GPGGA,190207.320,4020.7222002,N,08007.7279771,W,1,28,0.5,329.772,M,-33.184,M,,0000*63
[15:02:35] $GNRMC,190207.320,A,4020.7222002,N,08007.7279771,W,000.0,000.0,070525,,,A,V*15
[15:02:36] $GNVTG,000.0,T,,,M,000.0,N,000.1,K,A*3E
[15:02:37] $GPGGA,190207.360,4020.7222001,N,08007.7279772,W,1,28,0.5,329.773,M,-33.184,M,,0000*66
[15:02:38] $GNRMC,190207.360,A,4020.7222001,N,08007.7279772,W,000.0,000.0,070525,,,A,V*11
[15:02:39] $GNVTG,000.0,T,,,M,000.0,N,000.1,K,A*3E
[15:02:40] $GPGGA,190207.400,4020.7222000,N,08007.7279773,W,1,28,0.5,329.774,M,-33.184,M,,0000*60
[15:02:41] $GNRMC,190207.400,A,4020.7222000,N,08007.7279773,W,000.0,000.0,070525,,,A,V*10
[15:02:41] $GNVTG,000.0,T,,,M,000.0,N,000.1,K,A*3E
[15:02:42] $GPGGA,190207.440,4020.7221999,N,08007.7279774,W,1,28,0.5,329.775,M,-33.184,M,,0000*68
[15:02:43] $GNRMC,190207.440,A,4020.7221999,N,08007.7279774,W,000.0,000.0,070525,,,A,V*19
[15:02:44] $GNVTG,000.0,T,,,M,000.0,N,000.1,K,A*3E
[15:02:45] $GPGGA,190207.480,4020.7221998,N,08007.7279775,W,1,28,0.5,329.775,M,-33.184,M,,0000*64
[15:02:46] $GNRMC,190207.480,A,4020.7221998,N,08007.7279775,W,000.0,000.0,070525,,,A,V*15
[15:02:47] $GNVTG,000.0,T,,,M,000.0,N,000.1,K,A*3E
[15:02:48] $GPGGA,190207.520,4020.7221997,N,08007.7279776,W,1,28,0.5,329.776,M,-33.184,M,,0000*60
[15:02:49] $GNRMC,190207.520,A,4020.7221997,N,08007.7279776,W,000.0,000.0,070525,,,A,V*12
[15:02:50] $GNVTG,000.0,T,,,M,000.0,N,000.1,K,A*3E
[15:02:51] $GPGGA,190207.560,4020.7221996,N,08007.7279777,W,1,28,0.5,329.777,M,-33.184,M,,0000*65
[15:02:51] $GNRMC,190207.560,A,4020.7221996,N,08007.7279777,W,000.0,000.0,070525,,,A,V*16
[15:02:52] $GNVTG,000.0,T,,,M,000.0,N,000.1,K,A*3E
[15:02:53] $GPGGA,190207.600,4020.7221995,N,08007.7279778,W,1,28,0.5,329.778,M,-33.184,M,,0000*63
[15:02:54] $GNRMC,190207.600,A,4020.7221995,N,08007.7279778,W,000.0,000.0,070525,,,A,V*1F
[15:02:55] $GNVTG,000.0,T,,,M,000.0,N,000.1,K,A*3E
[15:02:56] $GPGGA,190207.640,4020.7221993,N,08007.7279780,W,1,28,0.5,329.779,M,-33.184,M,,0000*67
[15:02:57] $GNRMC,190207.640,A,4020.7221993,N,08007.7279780,W,000.0,000.0,070525,,,A,V*1A
[15:02:58] $GNVTG,000.0,T,,,M,000.0,N,000.1,K,A*3E
[15:02:59] $GPGGA,190207.680,4020.7221992,N,08007.7279781,W,1,28,0.5,329.779,M,-33.184,M,,0000*6B
[15:03:00] $GNRMC,190207.680,A,4020.7221992,N,08007.7279781,W,000.0,000.0,070525,,,A,V*16
[15:03:01] $GNVTG,000.0,T,,,M,000.0,N,000.1,K,A*3E
[15:03:01] $GPGGA,190207.720,4020.7221991,N,08007.7279782,W,1,28,0.5,329.780,M,-33.184,M,,0000*66
[15:03:02] $GNRMC,190207.720,A,4020.7221991,N,08007.7279782,W,000.0,000.0,070525,,,A,V*1D
[15:03:03] $GNVTG,000.0,T,,,M,000.0,N,000.1,K,A*3E
[15:03:04] $GPGGA,190207.760,4020.7221990,N,08007.7279783,W,1,28,0.5,329.781,M,-33.184,M,,0000*63
[15:03:05] $GNRMC,190207.760,A,4020.7221990,N,08007.7279783,W,000.0,000.0,070525,,,A,V*19
[15:03:06] $GNVTG,000.0,T,,,M,000.0,N,000.1,K,A*3E
[15:03:07] $GPGGA,190207.800,4020.7221989,N,08007.7279784,W,1,28,0.5,329.782,M,-33.184,M,,0000*66
[15:03:08] $GNRMV*1A
[15:03:09] $GNVTG,000.0,T,,,M,000.0,N,000.0,K,F*38
[15:03:10] $GPGGA,190259.280,4020.7224873,N,08007.7285618,W,5,26,0.5,327.661,M,-33.184,M,,0000*61
[15:03:11] $GNRMC,190259.280,A,4020.7224873,N,08007.7285618,W,000.0,000.0,070525,,,F,V*17
[15:03:11] $GNVTG,000.0,T,,,M,000.0,N,000.0,K,F*38
[15:03:12] $GPGGA,190259.320,4020.7224873,N,08007.7285618,W,5,26,0.5,327.662,M,-33.184,M,,0000*69
[15:03:13] $GNRMC,190259.320,A,4020.7224873,N,08007.7285618,W,000.0,000.0,070525,,,F,V*1C
[15:03:14] $GNVTG,000.0,T,,,M,000.0,N,000.0,K,F*38
[15:03:15] $GPGGA,190259.360,4020.7224873,N,08007.7285618,W,5,26,0.5,327.662,M,-33.184,M,,0000*6D
[15:03:16] $GNRMC,190259.360,A,4020.7224873,N,08007.7285618,W,000.0,000.0,070525,,,F,V*18
[15:03:17] $GNVTG,000.0,T,,,M,000.0,N,000.0,K,F*38
[15:03:18] $GPGGA,190259.400,4020.7224873,N,08007.7285618,W,5,26,0.5,327.663,M,-33.184,M,,0000*6D
[15:03:19] $GNRMC,190259.400,A,4020.7224873,N,08007.7285618,W,000.0,000.0,070525,,,F,V*19
[15:03:20] $GNVTG,000.0,T,,,M,000.0,N,000.0,K,F*38
[15:03:21] $GPGGA,190259.440,4020.7224873,N,08007.7285618,W,5,26,0.5,327.663,M,-33.184,M,,0000*69
[15:03:21] $GNRMC,190259.440,A,4020.7224873,N,08007.7285618,W,000.0,000.0,070525,,,F,V*1D
[15:03:22] $GNVTG,000.0,T,,,M,000.0,N,000.0,K,F*38
[15:03:23] $GPGGA,190259.480,4020.7224873,N,08007.7285618,W,5,26,0.5,327.664,M,-33.184,M,,0000*62
[15:03:24] $GNRMC,190259.480,A,4020.7224873,N,08007.7285618,W,000.0,000.0,070525,,,F,V*11
[15:03:25] $GNVTG,000.0,T,,,M,000.0,N,000.0,K,F*38
[15:03:26] $GPGGA,190259.520,4020.7224874,N,08007.7285619,W,5,26,0.5,327.664,M,-33.184,M,,0000*6F
[15:03:27] $GNRMC,190259.520,A,4020.7224874,N,08007.7285619,W,000.0,000.0,070525,,,F,V*1C
[15:03:28] $GNVTG,000.0,T,,,M,000.0,N,000.0,K,F*38
[15:03:29] $GPGGA,190259.560,4020.7224874,N,08007.7285619,W,5,26,0.5,327.665,M,-33.184,M,,0000*6A
[15:03:30] $GNRMC,190259.560,A,4020.7224874,N,08007.7285619,W,000.0,000.0,070525,,,F,V*18
[15:03:31] $GNVTG,000.0,T,,,M,000.0,N,000.0,K,F*38
[15:03:31] $GPGGA,190259.600,4020.7224874,N,08007.7285619,W,5,26,0.5,327.665,M,-33.184,M,,0000*6F
[15:03:32] $GNRMC,190259.600,A,4020.7224874,N,08007.7285619,W,000.0,000.0,070525,,,F,V*1D
[15:03:33] $GNVTG,000.0,T,,,M,000.0,N,000.0,K,F*38
[15:03:34] $GPGGA,190259.640,4020.7224874,N,08007.7285619,W,5,26,0.5,327.665,M,-33.184,M,,0000*6B
[15:03:35] $GNRMC,190259.640,A,4020.7224874,N,08007.7285619,W,000.0,000.0,070525,,,F,V*19
[15:03:36] $GNVTG,000.0,T,,,M,000.0,N,000.0,K,F*38
[15:03:37] $GPGGA,190259.680,4020.7224874,N,08007.7285619,W,5,26,0.5,327.666,M,-33.184,M,,0000*64
[15:03:38] $GNRMC,190259.680,A,4020.7224874,N,08007.7285619,W,000.0,000.0,070525,,,F,V*15
[15:03:39] $GNVTG,000.0,T,,,M,000.0,N,000.0,K,F*38
[15:03:40] $GPGGA,190259.720,4020.7224874,N,08007.7285619,W,5,26,0.5,327.666,M,-33.184,M,,0000*6F
[15:03:41] $GNRMC,190259.720,A,4020.7224874,N,08007.7285619,W,000.0,000.0,070525,,,F,V*1E
[15:03:41] $GNVTG,000.0,T,,,M,000.0,N,000.0,K,F*38
[15:03:42] $GPGGA,190259.760,4020.7224875,N,08007.7285619,W,5,26,0.5,327.667,M,-33.184,M,,0000*6B
[15:03:43] $GNRMC,190259.760,A,4020.7224875,N,08007.7285619,W,000.0,000.0,070525,,,F,V*1B
[15:03:44] $GNVTG,000.0,T,,,M,000.0,N,000.0,K,F*38
[15:03:45] $GPGGA,190259.800,4020.7224875,N,08007.7285619,W,5,26,0.5,327.667,M,-33.184,M,,0000*62
[15:03:46] $GNRMC,190259.800,A,4020.7224875,N,08007.7285619,W,000.0,000.0,070525,,,F,V*12
[15:03:47] $GNVTG,000.0,T,,,M,000.0,N,000.0,K,F*38
[15:03:48] $GPGGA,190259.840,4020.7224875,N,08007.7285619,W,5,26,0.5,327.668,M,-33.184,M,,0000*69
[15:03:49] $GNRMC,190259.840,A,4020.7224875,N,08007.7285619,W,000.0,000.0,070525,,,F,V*16
[15:03:50] $GNVTG,000.0,T,,,M,000.0,N,000.0,K,F*38
[15:03:51] $GPGGA,190259.880,4020.7224875,N,08007.7285619,W,5,26,0.5,327.668,M,-33.184,M,,0000*65
[15:03:51] $GNRMC,190259.880,A,4020.7224875,N,08007.7285619,W,000.0,000.0,070525,,,F,V*1A
[15:03:52] $GNVTG,000.0,T,,,M,000.0,N,000.0,K,F*38
[15:03:53] $GPGGA,190259.920,4020.7224875,N,08007.7285619,W,5,26,0.5,327.669,M,-33.184,M,,0000*6F
[15:03:54] $GNRMC,190259.920,A,4020.7224875,N,08007.7285619,W,000.0,000.0,070525,,,F,V*11
[15:03:55] $GNVTG,000.0,T,,,M,000.0,N,000.0,K,F*38
[15:03:56] $GPGGA,190259.960,4020.7224875,N,08007.7285619,W,5,26,0.5,327.669,M,-33.184,M,,0000*6B
[15:03:57] $GNRMC,190259.960,A,4020.7224875,N,08007.7285619,W,000.0,000.0,070525,,,F,V*15
[15:03:58] $GNVTG,000.0,T,,,M,000.0,N,000.0,K,F*38
[15:03:59] $GPGGA,190300.000,4020.7225036,N,08007.7285459,W,5,26,0.5,327.595,M,-33.100,M,1.000,0000*42
[15:04:00] $GNGSA,A,3,05,06,09,11,12,19,20,25,29,,,,1.0,0.$GPGGA,190351.520,4020.7225346,N,08007.7282592,W,5,26,0.5,326.990,M,-33.184,M,,0000*6F
[15:04:01] $GNRMC,190351.520,A,4020.7225346,N,08007.7282592,W,000.0,000.0,070525,,,F,V*19
[15:04:01] $GNVTG,000.0,T,,,M,000.0,N,000.1,K,F*39
[15:04:02] $GPGGA,190351.560,4020.7225345,N,08007.7282592,W,5,26,0.5,326.991,M,-33.184,M,,0000*69
[15:04:03] $GNRMC,190351.560,A,4020.7225345,N,08007.7282592,W,000.0,000.0,070525,,,F,V*1E
[15:04:04] $GNVTG,000.0,T,,,M,000.0,N,000.1,K,F*39
[15:04:05] $GPGGA,190351.600,4020.7225344,N,08007.7282592,W,5,26,0.5,326.991,M,-33.184,M,,0000*6D
[15:04:06] $GNRMC,190351.600,A,4020.7225344,N,08007.7282592,W,000.0,000.0,070525,,,F,V*1A
[15:04:07] $GNVTG,000.0,T,,,M,000.0,N,000.1,K,F*39
[15:04:08] $GPGGA,190351.640,4020.7225343,N,08007.7282592,W,5,26,0.5,326.992,M,-33.184,M,,0000*6D
[15:04:09] $GNRMC,190351.640,A,4020.7225343,N,08007.7282592,W,000.0,000.0,070525,,,F,V*19
[15:04:10] $GNVTG,000.0,T,,,M,000.0,N,000.1,K,F*39
[15:04:11] $GPGGA,190351.680,4020.7225342,N,08007.7282592,W,5,26,0.5,326.993,M,-33.184,M,,0000*61
[15:04:11] $GNRMC,190351.680,A,4020.7225342,N,08007.7282592,W,000.0,000.0,070525,,,F,V*14
[15:04:12] $GNVTG,000.0,T,,,M,000.0,N,000.1,K,F*39
[15:04:13] $GPGGA,190351.720,4020.7225341,N,08007.7282592,W,5,26,0.5,326.994,M,-33.184,M,,0000*6E
[15:04:14] $GNRMC,190351.720,A,4020.7225341,N,08007.7282592,W,000.0,000.0,070525,,,F,V*1C
[15:04:15] $GNVTG,000.0,T,,,M,000.0,N,000.1,K,F*39
[15:04:16] $GPGGA,190351.760,4020.7225340,N,08007.7282592,W,5,26,0.5,326.994,M,-33.184,M,,0000*6B
[15:04:17] $GNRMC,190351.760,A,4020.7225340,N,08007.7282592,W,000.0,000.0,070525,,,F,V*19
[15:04:18] $GNVTG,000.0,T,,,M,000.0,N,000.1,K,F*39
[15:04:19] $GPGGA,190351.800,4020.7225339,N,08007.7282592,W,5,26,0.5,326.995,M,-33.184,M,,0000*6D
[15:04:20] $GNRMC,190351.800,A,4020.7225339,N,08007.7282592,W,000.0,000.0,070525,,,F,V*1E
[15:04:21] $GNVTG,000.0,T,,,M,000.0,N,000.1,K,F*39
[15:04:21] $GPGGA,190351.840,4020.7225338,N,08007.7282592,W,5,26,0.5,326.996,M,-33.184,M,,0000*6B
[15:04:22] $GNRMC,190351.840,A,4020.7225338,N,08007.7282592,W,000.0,000.0,070525,,,F,V*1B
[15:04:23] $GNVTG,000.0,T,,,M,000.0,N,000.1,K,F*39
[15:04:24] $GPGGA,190351.880,4020.7225337,N,08007.7282592,W,5,26,0.5,326.996,M,-33.184,M,,0000*68
[15:04:25] $GNRMC,190351.880,A,4020.7225337,N,08007.7282592,W,000.0,000.0,070525,,,F,V*18
[15:04:26] $GNVTG,000.0,T,,,M,000.0,N,000.1,K,F*39
[15:04:27] $GPGGA,190351.920,4020.7225336,N,08007.7282592,W,5,26,0.5,326.997,M,-33.184,M,,0000*63
[15:04:28] $GNRMC,190351.920,A,4020.7225336,N,08007.7282592,W,000.0,000.0,070525,,,F,V*12
[15:04:29] $GNVTG,000.0,T,,,M,000.0,N,000.1,K,F*39
[15:04:30] $GPGGA,190352.000,4020.7225381,N,08007.7282616,W,5,26,0.5,326.903,M,-33.100,M,1.000,0000*46
[15:04:31] $GNGSA,A,3,05,06,09,11,12,19,20,25,29,,,,1.0,0.5,0.9,1*33
[15:04:31] $GNGSA,A,3,71,72,76,85,86,87,,,,,,,1.0,0.5,0.9,2*31
[15:04:32] $GNGSA,A,3,02,05,09,27,30,34,,,,,,,1.0,0.5,0.9,3*31
[15:04:33] $GNGSA,A,3,19,20,22,29,35,,,,,,,,1.0,0.5,0.9,4*3E
[15:04:34] $GPGSV,3,1,10,20,80,225,45,11,67,028,42,12,43,241,47,05,40,218,48,1*62
[15:04:35] $GPGSV,3,2,10,06,38,066,33,25,33,285,27,44,30,229,34,09,21,055,32,1*62
[15:04:36] $GPGSV,3,3,10,19,21,127,33,29,14,311,20,1*65
[15:04:37] $GPGSV,2,1,07,11,67,028,40,12,43,241,39,05,40,218,44,06,38,066,38,6*6D
[15:04:38] $GPGSV,2,2,07,25,33,285,32,09,21,055,34,29,14,311,23,6*5C
[15:04:39] $GLGSV,3,1,09,86,59,002,48,71,51,129,47,70,43,053,,87,29,307,31,1*70
[15:04:40] $GLGSV,3,2,09,85,28,081,41,77,25,294,,76,21,244,25,72,15,174,43,1*70
[15:04:41] $GLGSV,3,3,09,78,03,346,,1*4C
[15:04:41] $GLGSV,2,1,05,86,59,002,42,71,51,129,47,85,28,081,43,76,21,244,29,3*73
[15:04:42] $GLGSV,2,2,05,72,15,174,38,3*47
[15:04:43] $GAGSV,3,1,10,34,69,348,47,30,46,244,50,18,43,132,46,36,33,064,,7*79
[15:04:44] $GAGSV,3,2,10,15,31,280,,27,28,307,29,05,26,119,33,09,22,062,34,7*7D
[15:04:45] $GAGSV,3,3,10,02,20,187,39,06,11,041,,7*75
[15:04:46] $GAGSV,2,1,07,34,69,348,47,30,46,244,49,18,43,132,48,27,28,307,34,2*76
[15:04:47] $GAGSV,2,2,07,05,26,119,43,09,22,062,39,02,20,187,33,2*47
[15:04:48] $GBGSV,3,1,09,35,76,041,45,19,57,096,46,22,35,176,45,20,24,044,38,1*71
[15:04:49] $GBGSV,3,2,09,29,23,105,31,12,18,298,,24,14,279,,26,09,232,,1*7A
[15:04:50] $GBGSV,3,3,09,25,01,328,,1*40
[15:04:51] $GNRMC,190352.000,A,4020.7225381,N,08007.7282616,W,000.0,000.0,070525,,,F,V*19
[15:04:51] $GNVTG,000.0,T,,M,000.0,N,000.0,K,D*16
[15:04:52] $GPGGA,120639.240,4020.7225381,N,08007.7282616,W,5,26,0.5,326.988,M,-33.184,M,,0000*63
[15:04:53] $GNRMC,120639.240,A,4020.7225381,N,08007.7282616,W,000.0,000.0,260625,,,F,V*1C
[15:04:54] $GNVTG,000.0,T,,,6.643,M,-33.184,M,,0000*64
[15:04:55] $GNRMC,190444.280,A,4020.7226807,N,08007.7283036,W,000.0,000.0,070525,,,F,V*10
[15:04:56] $GNVTG,000.0,T,,,M,000.0,N,000.0,K,F*38
[15:04:57] $GPGGA,190444.320,4020.7226809,N,08007.7283038,W,5,25,0.5,326.643,M,-33.184,M,,0000*6F
[15:04:58] $GNRMC,190444.320,A,4020.7226809,N,08007.7283038,W,000.0,000.0,070525,,,F,V*1B
[15:04:59] $GNVTG,000.0,T,,,M,000.0,N,000.0,K,F*38
[15:05:00] $GPGGA,190444.360,4020.7226810,N,08007.7283039,W,5,25,0.5,326.643,M,-33.184,M,,0000*62
[15:05:01] $GNRMC,190444.360,A,4020.7226810,N,08007.7283039,W,000.0,000.0,070525,,,F,V*16
[15:05:01] $GNVTG,000.0,T,,,M,000.0,N,000.0,K,F*38
[15:05:02] $GPGGA,190444.400,4020.7226811,N,08007.7283041,W,5,25,0.5,326.643,M,-33.184,M,,0000*6D
[15:05:03] $GNRMC,190444.400,A,4020.7226811,N,08007.7283041,W,000.0,000.0,070525,,,F,V*19
[15:05:04] $GNVTG,000.0,T,,,M,000.0,N,000.0,K,F*38
[15:05:05] $GPGGA,190444.440,4020.7226813,N,08007.7283042,W,5,25,0.5,326.643,M,-33.184,M,,0000*68
[15:05:06] $GNRMC,190444.440,A,4020.7226813,N,08007.7283042,W,000.0,000.0,070525,,,F,V*1C
[15:05:07] $GNVTG,000.0,T,,,M,000.0,N,000.0,K,F*38
[15:05:08] $GPGGA,190444.480,4020.7226814,N,08007.7283043,W,5,25,0.5,326.643,M,-33.184,M,,0000*62
[15:05:09] $GNRMC,190444.480,A,4020.7226814,N,08007.7283043,W,000.0,000.0,070525,,,F,V*16
[15:05:10] $GNVTG,000.0,T,,,M,000.0,N,000.0,K,F*38
[15:05:11] $GPGGA,190444.520,4020.7226815,N,08007.7283045,W,5,25,0.5,326.644,M,-33.184,M,,0000*69
[15:05:11] $GNRMC,190444.520,A,4020.7226815,N,08007.7283045,W,000.0,000.0,070525,,,F,V*1A
[15:05:12] $GNVTG,000.0,T,,,M,000.0,N,000.0,K,F*38
[15:05:13] $GPGGA,190444.560,4020.7226817,N,08007.7283046,W,5,25,0.5,326.644,M,-33.184,M,,0000*6C
[15:05:14] $GNRMC,190444.560,A,4020.7226817,N,08007.7283046,W,000.0,000.0,070525,,,F,V*1F
[15:05:15] $GNVTG,000.0,T,,,M,000.0,N,000.0,K,F*38
[15:05:16] $GPGGA,190444.600,4020.7226818,N,08007.7283048,W,5,25,0.5,326.644,M,-33.184,M,,0000*68
[15:05:17] $GNRMC,190444.600,A,4020.7226818,N,08007.7283048,W,000.0,000.0,070525,,,F,V*1B
[15:05:18] $GNVTG,000.0,T,,,M,000.0,N,000.0,K,F*38
[15:05:19] $GPGGA,190444.640,4020.7226819,N,08007.7283049,W,5,25,0.5,326.644,M,-33.184,M,,0000*6C
[15:05:20] $GNRMC,190444.640,A,4020.7226819,N,08007.7283049,W,000.0,000.0,070525,,,F,V*1F
[15:05:21] $GNVTG,000.0,T,,,M,000.0,N,000.0,K,F*38
[15:05:21] $GPGGA,190444.680,4020.7226821,N,08007.7283051,W,5,25,0.5,326.644,M,-33.184,M,,0000*62
[15:05:22] $GNRMC,190444.680,A,4020.7226821,N,08007.7283051,W,000.0,000.0,070525,,,F,V*11
[15:05:23] $GNVTG,000.0,T,,,M,000.0,N,000.0,K,F*38
[15:05:24] $GPGGA,190444.720,4020.7226822,N,08007.7283052,W,5,25,0.5,326.644,M,-33.184,M,,0000*69
[15:05:25] $GNRMC,190444.720,A,4020.7226822,N,08007.7283052,W,000.0,000.0,070525,,,F,V*1A
[15:05:26] $GNVTG,000.0,T,,,M,000.0,N,000.0,K,F*38
[15:05:27] $GPGGA,190444.760,4020.7226824,N,08007.7283053,W,5,25,0.5,326.644,M,-33.184,M,,0000*6A
[15:05:28] $GNRMC,190444.760,A,4020.7226824,N,08007.7283053,W,000.0,000.0,070525,,,F,V*19
[15:05:29] $GNVTG,000.0,T,,,M,000.0,N,000.0,K,F*38
[15:05:30] $GPGGA,190444.800,4020.7226825,N,08007.7283055,W,5,25,0.5,326.644,M,-33.184,M,,0000*64
[15:05:31] $GNRMC,190444.800,A,4020.7226825,N,08007.7283055,W,000.0,000.0,070525,,,F,V*17
[15:05:31] $GNVTG,000.0,T,,,M,000.0,N,000.0,K,F*38
[15:05:32] $GPGGA,190444.840,4020.7226826,N,08007.7283056,W,5,25,0.5,326.644,M,-33.184,M,,0000*60
[15:05:33] $GNRMC,190444.840,A,4020.7226826,N,08007.7283056,W,000.0,000.0,070525,,,F,V*13
[15:05:34] $GNVTG,000.0,T,,,M,000.0,N,000.0,K,F*38
[15:05:35] $GPGGA,190444.880,4020.7226828,N,08007.7283058,W,5,25,0.5,326.645,M,-33.184,M,,0000*6D
[15:05:36] $GNRMC,190444.880,A,4020.7226828,N,08007.7283058,W,000.0,000.0,070525,,,F,V*1F
[15:05:37] $GNVTG,000.0,T,,,M,000.0,N,000.0,K,F*38
[15:05:38] $GPGGA,190444.920,4020.7226829,N,08007.7283059,W,5,25,0.5,326.645,M,-33.184,M,,0000*66
[15:05:39] $GNRMC,190444.920,A,4020.7226829,N,08007.7283059,W,000.0,000.0,070525,,,F,V*14
[15:05:40] $GNVTG,000.0,T,,,M,000.0,N,000.0,K,F*38
[15:05:41] $GPGGA,190444.960,4020.7226830,N,08007.7283061,W,5,25,0.5,326.645,M,-33.184,M,,0000*61
[15:05:41] $GNRMC,190444.960,A,4020.7226830,N,08007.7283061,W,000.0,000.0,070525,,,F,V*13
[15:05:42] $GNVTG,000.0,T,,,M,000.0,N,000.0,K,F*38
[15:05:43] $GPGGA,190445.000,4020.7226836,N,08007.7283156,W,5,25,0.5,326.533,M,-33.100,M,1.000,0000*4D
[15:05:44] $GNGSA,A,3,05,06,09,11,12,19,20,25,29,,,,1.0,0.5,0.9,1*33
[15:05:45] $GNGSA,A,3,71,72,76,85,86,87,,,,,,,1.0,0.5,0.9,2*31
[15:05:46] $GNGSA,A,3,02,05,09,27,30,34,,,,,,,1.0,0.5,0.9,3*31
[15:05:47] $GNGSA,A,3,19,22,29,35,,,,,,,,,1.0,0.5,0.9,4*3C
[15:05:48] $GPGSV,3,1,10,20,81,227,45,11,67,030,41,12,42,240,46,05,41,3899,W,000.0,000.0,070525,,,F,V*19
[15:05:49] $GNVTG,000.0,T,,,M,000.0,N,000.1,K,F*39
[15:05:50] $GPGGA,190538.360,4020.7229757,N,08007.7283897,W,5,27,0.5,326.043,M,-33.184,M,,0000*63
[15:05:51] $GNRMC,190538.360,A,4020.7229757,N,08007.7283897,W,000.0,000.0,070525,,,F,V*13
[15:05:51] $GNVTG,000.0,T,,,M,000.0,N,000.1,K,F*39
[15:05:52] $GPGGA,190538.400,4020.7229756,N,08007.7283896,W,5,27,0.5,326.043,M,-33.184,M,,0000*62
[15:05:53] $GNRMC,190538.400,A,4020.7229756,N,08007.7283896,W,000.0,000.0,070525,,,F,V*12
[15:05:54] $GNVTG,000.0,T,,,M,000.0,N,000.1,K,F*39
[15:05:55] $GPGGA,190538.440,4020.7229755,N,08007.7283895,W,5,27,0.5,326.044,M,-33.184,M,,0000*61
[15:05:56] $GNRMC,190538.440,A,4020.7229755,N,08007.7283895,W,000.0,000.0,070525,,,F,V*16
[15:05:57] $GNVTG,000.0,T,,,M,000.0,N,000.1,K,F*39
[15:05:58] $GPGGA,190538.480,4020.7229755,N,08007.7283894,W,5,27,0.5,326.045,M,-33.184,M,,0000*6D
[15:05:59] $GNRMC,190538.480,A,4020.7229755,N,08007.7283894,W,000.0,000.0,070525,,,F,V*1B
[15:06:00] $GNVTG,000.0,T,,,M,000.0,N,000.1,K,F*39
[15:06:01] $GPGGA,190538.520,4020.7229754,N,08007.7283892,W,5,27,0.5,326.046,M,-33.184,M,,0000*62
[15:06:01] $GNRMC,190538.520,A,4020.7229754,N,08007.7283892,W,000.0,000.0,070525,,,F,V*17
[15:06:02] $GNVTG,000.0,T,,,M,000.0,N,000.1,K,F*39
[15:06:03] $GPGGA,190538.560,4020.7229753,N,08007.7283891,W,5,27,0.5,326.046,M,-33.184,M,,0000*62
[15:06:04] $GNRMC,190538.560,A,4020.7229753,N,08007.7283891,W,000.0,000.0,070525,,,F,V*17
[15:06:05] $GNVTG,000.0,T,,,M,000.0,N,000.1,K,F*39
[15:06:06] $GPGGA,190538.600,4020.7229752,N,08007.7283890,W,5,27,0.5,326.047,M,-33.184,M,,0000*66
[15:06:07] $GNRMC,190538.600,A,4020.7229752,N,08007.7283890,W,000.0,000.0,070525,,,F,V*12
[15:06:08] $GNVTG,000.0,T,,,M,000.0,N,000.1,K,F*39
[15:06:09] $GPGGA,190538.640,4020.7229752,N,08007.7283889,W,5,27,0.5,326.048,M,-33.184,M,,0000*65
[15:06:10] $GNRMC,190538.640,A,4020.7229752,N,08007.7283889,W,000.0,000.0,070525,,,F,V*1E
[15:06:11] $GNVTG,000.0,T,,,M,000.0,N,000.1,K,F*39
[15:06:11] $GPGGA,190538.680,4020.7229751,N,08007.7283887,W,5,27,0.5,326.048,M,-33.184,M,,0000*64
[15:06:12] $GNRMC,190538.680,A,4020.7229751,N,08007.7283887,W,000.0,000.0,070525,,,F,V*1F
[15:06:13] $GNVTG,000.0,T,,,M,000.0,N,000.1,K,F*39
[15:06:14] $GPGGA,190538.720,4020.7229750,N,08007.7283886,W,5,27,0.5,326.049,M,-33.184,M,,0000*6E
[15:06:15] $GNRMC,190538.720,A,4020.7229750,N,08007.7283886,W,000.0,000.0,070525,,,F,V*14
[15:06:16] $GNVTG,000.0,T,,,M,000.0,N,000.1,K,F*39
[15:06:17] $GPGGA,190538.760,4020.7229749,N,08007.7283885,W,5,27,0.5,326.050,M,-33.184,M,,0000*69
[15:06:18] $GNRMC,190538.760,A,4020.7229749,N,08007.7283885,W,000.0,000.0,070525,,,F,V*1B
[15:06:19] $GNVTG,000.0,T,,,M,000.0,N,000.1,K,F*39
[15:06:20] $GPGGA,190538.800,4020.7229749,N,08007.7283884,W,5,27,0.5,326.051,M,-33.184,M,,0000*60
[15:06:21] $GNRMC,190538.800,A,4020.7229749,N,08007.7283884,W,000.0,000.0,070525,,,F,V*13
[15:06:21] $GNVTG,000.0,T,,,M,000.0,N,000.1,K,F*39
[15:06:22] $GPGGA,190538.840,4020.7229748,N,08007.7283882,W,5,27,0.5,326.051,M,-33.184,M,,0000*63
[15:06:23] $GNRMC,190538.840,A,4020.7229748,N,08007.7283882,W,000.0,000.0,070525,,,F,V*10
[15:06:24] $GNVTG,000.0,T,,,M,000.0,N,000.1,K,F*39
[15:06:25] $GPGGA,190538.880,4020.7229747,N,08007.7283881,W,5,27,0.5,326.052,M,-33.184,M,,0000*60
[15:06:26] $GNRMC,190538.880,A,4020.7229747,N,08007.7283881,W,000.0,000.0,070525,,,F,V*10
[15:06:27] $GNVTG,000.0,T,,,M,000.0,N,000.1,K,F*39
[15:06:28] $GPGGA,190538.920,4020.7229746,N,08007.7283880,W,5,27,0.5,326.053,M,-33.184,M,,0000*6A
[15:06:29] $GNRMC,190538.920,A,4020.7229746,N,08007.7283880,W,000.0,000.0,070525,,,F,V*1B
[15:06:30] $GNVTG,000.0,T,,,M,000.0,N,000.1,K,F*39
[15:06:31] $GPGGA,190538.960,4020.7229746,N,08007.7283879,W,5,27,0.5,326.054,M,-33.184,M,,0000*6F
[15:06:31] $GNRMC,190538.960,A,4020.7229746,N,08007.7283879,W,000.0,000.0,070525,,,F,V*19
[15:06:32] $GNVTG,000.0,T,,,M,000.0,N,000.1,K,F*39
[15:06:33] $GPGGA,190539.000,4020.7229778,N,08007.7283929,W,5,27,0.5,325.947,M,-33.100,M,1.000,0000*43
[15:06:34] $GNGSA,A,3,05,06,09,11,12,19,20,25,29,,,,1.0,0.5,0.9,1*33
[15:06:35] $GNGSA,A,3,71,72,76,85,86,87,,,,,,,1.0,0.5,0.9,2*31
[15:06:36] $GNGSA,A,3,02,05,09,27,30,34,36,,,,,,1.0,0.5,0.9,3*34
[15:06:37] $GNGSA,A,3,19,20,22,29,35,,,,,,,,1.0,0.5,0.9,4*3E
[15:06:38] $GPGSV,3,1,10,20,81,227,46,11,67,030,41,12,42,240,46,05,41,219,48,1*69
[15:06:39] $GPGSV,3,2,10,06,37,066,36,25,33,284,25,44,30,229,34,09,21,054,35,1*6D
[15:06:40] $GPGSV,3,3,10,19,20,127,32,29,15,311,17$GPGGA,190631.440,4020.7230670,N,08007.7284093,W,5,24,0.6,325.571,M,-33.184,M,,0000*6C
[15:06:41] $GNRMC,190631.440,A,4020.7230670,N,08007.7284093,W,000.0,000.0,070525,,,F,V*1B
[15:06:41] $GNVTG,000.0,T,,,M,000.0,N,000.1,K,F*39
[15:06:42] $GPGGA,190631.480,4020.7230669,N,08007.7284092,W,5,24,0.6,325.572,M,-33.184,M,,0000*6A
[15:06:43] $GNRMC,190631.480,A,4020.7230669,N,08007.7284092,W,000.0,000.0,070525,,,F,V*1E
[15:06:44] $GNVTG,000.0,T,,,M,000.0,N,000.1,K,F*39
[15:06:45] $GPGGA,190631.520,4020.7230668,N,08007.7284091,W,5,24,0.6,325.572,M,-33.184,M,,0000*63
[15:06:46] $GNRMC,190631.520,A,4020.7230668,N,08007.7284091,W,000.0,000.0,070525,,,F,V*17
[15:06:47] $GNVTG,000.0,T,,,M,000.0,N,000.1,K,F*39
[15:06:48] $GPGGA,190631.560,4020.7230667,N,08007.7284090,W,5,24,0.6,325.573,M,-33.184,M,,0000*68
[15:06:49] $GNRMC,190631.560,A,4020.7230667,N,08007.7284090,W,000.0,000.0,070525,,,F,V*1D
[15:06:50] $GNVTG,000.0,T,,,M,000.0,N,000.1,K,F*39
[15:06:51] $GPGGA,190631.600,4020.7230666,N,08007.7284089,W,5,24,0.6,325.574,M,-33.184,M,,0000*63
[15:06:51] $GNRMC,190631.600,A,4020.7230666,N,08007.7284089,W,000.0,000.0,070525,,,F,V*11
[15:06:52] $GNVTG,000.0,T,,,M,000.0,N,000.1,K,F*39
[15:06:53] $GPGGA,190631.640,4020.7230664,N,08007.7284089,W,5,24,0.6,325.575,M,-33.184,M,,0000*64
[15:06:54] $GNRMC,190631.640,A,4020.7230664,N,08007.7284089,W,000.0,000.0,070525,,,F,V*17
[15:06:55] $GNVTG,000.0,T,,,M,000.0,N,000.1,K,F*39
[15:06:56] $GPGGA,190631.680,4020.7230663,N,08007.7284088,W,5,24,0.6,325.575,M,-33.184,M,,0000*6E
[15:06:57] $GNRMC,190631.680,A,4020.7230663,N,08007.7284088,W,000.0,000.0,070525,,,F,V*1D
[15:06:58] $GNVTG,000.0,T,,,M,000.0,N,000.1,K,F*39
[15:06:59] $GPGGA,190631.720,4020.7230662,N,08007.7284087,W,5,24,0.6,325.576,M,-33.184,M,,0000*68
[15:07:00] $GNRMC,190631.720,A,4020.7230662,N,08007.7284087,W,000.0,000.0,070525,,,F,V*18
[15:07:01] $GNVTG,000.0,T,,,M,000.0,N,000.1,K,F*39
[15:07:01] $GPGGA,190631.760,4020.7230661,N,08007.7284086,W,5,24,0.6,325.577,M,-33.184,M,,0000*6F
[15:07:02] $GNRMC,190631.760,A,4020.7230661,N,08007.7284086,W,000.0,000.0,070525,,,F,V*1E
[15:07:03] $GNVTG,000.0,T,,,M,000.0,N,000.1,K,F*39
[15:07:04] $GPGGA,190631.800,4020.7230660,N,08007.7284086,W,5,24,0.6,325.578,M,-33.184,M,,0000*68
[15:07:05] $GNRMC,190631.800,A,4020.7230660,N,08007.7284086,W,000.0,000.0,070525,,,F,V*16
[15:07:06] $GNVTG,000.0,T,,,M,000.0,N,000.1,K,F*39
[15:07:07] $GPGGA,190631.840,4020.7230659,N,08007.7284085,W,5,24,0.6,325.578,M,-33.184,M,,0000*65
[15:07:08] $GNRMC,190631.840,A,4020.7230659,N,08007.7284085,W,000.0,000.0,070525,,,F,V*1B
[15:07:09] $GNVTG,000.0,T,,,M,000.0,N,000.1,K,F*39
[15:07:10] $GPGGA,190631.880,4020.7230657,N,08007.7284084,W,5,24,0.6,325.579,M,-33.184,M,,0000*67
[15:07:11] $GNRMC,190631.880,A,4020.7230657,N,08007.7284084,W,000.0,000.0,070525,,,F,V*18
[15:07:11] $GNVTG,000.0,T,,,M,000.0,N,000.1,K,F*39
[15:07:12] $GPGGA,190631.920,4020.7230656,N,08007.7284083,W,5,24,0.6,325.580,M,-33.184,M,,0000*6C
[15:07:13] $GNRMC,190631.920,A,4020.7230656,N,08007.7284083,W,000.0,000.0,070525,,,F,V*15
[15:07:14] $GNVTG,000.0,T,,,M,000.0,N,000.1,K,F*39
[15:07:15] $GPGGA,190631.960,4020.7230655,N,08007.7284082,W,5,24,0.6,325.581,M,-33.184,M,,0000*6B
[15:07:16] $GNRMC,190631.960,A,4020.7230655,N,08007.7284082,W,000.0,000.0,070525,,,F,V*13
[15:07:17] $GNVTG,000.0,T,,,M,000.0,N,000.1,K,F*39
[15:07:18] $GPGGA,190632.000,4020.7230726,N,08007.7284141,W,5,24,0.6,325.477,M,-33.100,M,1.000,0000*47
[15:07:19] $GNGSA,A,3,05,06,09,11,12,19,20,25,29,,,,1.1,0.6,0.9,1*31
[15:07:20] $GNGSA,A,3,71,72,76,85,86,87,,,,,,,1.1,0.6,0.9,2*33
[15:07:21] $GNGSA,A,3,02,05,09,30,34,36,,,,,,,1.1,0.6,0.9,3*33
[15:07:21] $GNGSA,A,3,19,22,35,,,,,,,,,,1.1,0.6,0.9,4*35
[15:07:22] $GPGSV,3,1,10,20,82,229,47,11,66,032,42,05,42,219,48,12,41,239,45,1*68
[15:07:23] $GPGSV,3,2,10,06,37,067,37,25,33,283,19,44,30,229,33,09,20,053,37,1*66
[15:07:24] $GPGSV,3,3,10,19,20,128,32,29,16,311,21,1*69
[15:07:25] $GPGSV,2,1,07,11,66,032,38,05,42,219,44,12,41,239,37,06,37,067,25,6*6A
[15:07:26] $GPGSV,2,2,07,25,33,283,26,09,20,053,35,29,16,311,07,6*5D
[15:07:27] $GLGSV,3,1,09,86,59,004,50,71,52,128,50,70,42,052,,87,30,308,31,1*7C
[15:07:28] $GLGSV,3,2,09,85,28,082,44,77,25,293,,76,21,243,24,72,16,174,45,1*72
[15:07:29] $GLGSV,3,3,09,78,03,345,,1*4F
[15:07:30] $GLGSV,2,1,05,86,59,004,44,71,52,128,48,85,28,082,40,76,21,243,28,3*78
[15:07:31] $GLGSV,2,2,05,72,16,174,40,3*4B
[15:07:31] $GAGSV,3,1,10,34,69,352,48,30,46,243,46,18,42,132,46,36,32,065,40,7*78
[15:07:32] $GAGSV,3,2,10,15,31,281,,27,28,306,,05,26,119,29,09,22,062,34,7*7D
[15:07:33] $GAGSV,3,3,10,02,20,187,40,06,11,041,,7*7B
[15:07:34] $GAGSV,2,1,07,34,69,352,49,30,46,1434,N,08007.7284171,W,000.0,000.0,070525,,,F,V*1D
[15:07:35] $GNVTG,000.0,T,,,M,000.0,N,000.1,K,F*39
[15:07:36] $GPGGA,190723.320,4020.7231433,N,08007.7284169,W,5,26,0.5,325.412,M,-33.184,M,,0000*6A
[15:07:37] $GNRMC,190723.320,A,4020.7231433,N,08007.7284169,W,000.0,000.0,070525,,,F,V*18
[15:07:38] $GNVTG,000.0,T,,,M,000.0,N,000.1,K,F*39
[15:07:39] $GPGGA,190723.360,4020.7231432,N,08007.7284167,W,5,26,0.5,325.412,M,-33.184,M,,0000*61
[15:07:40] $GNRMC,190723.360,A,4020.7231432,N,08007.7284167,W,000.0,000.0,070525,,,F,V*13
[15:07:41] $GNVTG,000.0,T,,,M,000.0,N,000.1,K,F*39
[15:07:41] $GPGGA,190723.400,4020.7231431,N,08007.7284166,W,5,26,0.5,325.413,M,-33.184,M,,0000*63
[15:07:42] $GNRMC,190723.400,A,4020.7231431,N,08007.7284166,W,000.0,000.0,070525,,,F,V*10
[15:07:43] $GNVTG,000.0,T,,,M,000.0,N,000.1,K,F*39
[15:07:44] $GPGGA,190723.440,4020.7231430,N,08007.7284164,W,5,26,0.5,325.414,M,-33.184,M,,0000*63
[15:07:45] $GNRMC,190723.440,A,4020.7231430,N,08007.7284164,W,000.0,000.0,070525,,,F,V*17
[15:07:46] $GNVTG,000.0,T,,,M,000.0,N,000.1,K,F*39
[15:07:47] $GPGGA,190723.480,4020.7231430,N,08007.7284163,W,5,26,0.5,325.415,M,-33.184,M,,0000*69
[15:07:48] $GNRMC,190723.480,A,4020.7231430,N,08007.7284163,W,000.0,000.0,070525,,,F,V*1C
[15:07:49] $GNVTG,000.0,T,,,M,000.0,N,000.1,K,F*39
[15:07:50] $GPGGA,190723.520,4020.7231429,N,08007.7284161,W,5,26,0.5,325.416,M,-33.184,M,,0000*6B
[15:07:51] $GNRMC,190723.520,A,4020.7231429,N,08007.7284161,W,000.0,000.0,070525,,,F,V*1D
[15:07:51] $GNVTG,000.0,T,,,M,000.0,N,000.1,K,F*39
[15:07:52] $GPGGA,190723.560,4020.7231428,N,08007.7284160,W,5,26,0.5,325.417,M,-33.184,M,,0000*6E
[15:07:53] $GNRMC,190723.560,A,4020.7231428,N,08007.7284160,W,000.0,000.0,070525,,,F,V*19
[15:07:54] $GNVTG,000.0,T,,,M,000.0,N,000.1,K,F*39
[15:07:55] $GPGGA,190723.600,4020.7231427,N,08007.7284158,W,5,26,0.5,325.417,M,-33.184,M,,0000*6F
[15:07:56] $GNRMC,190723.600,A,4020.7231427,N,08007.7284158,W,000.0,000.0,070525,,,F,V*18
[15:07:57] $GNVTG,000.0,T,,,M,000.0,N,000.1,K,F*39
[15:07:58] $GPGGA,190723.640,4020.7231426,N,08007.7284156,W,5,26,0.5,325.418,M,-33.184,M,,0000*6B
[15:07:59] $GNRMC,190723.640,A,4020.7231426,N,08007.7284156,W,000.0,000.0,070525,,,F,V*13
[15:08:00] $GNVTG,000.0,T,,,M,000.0,N,000.1,K,F*39
[15:08:01] $GPGGA,190723.680,4020.7231425,N,08007.7284155,W,5,26,0.5,325.419,M,-33.184,M,,0000*66
[15:08:01] $GNRMC,190723.680,A,4020.7231425,N,08007.7284155,W,000.0,000.0,070525,,,F,V*1F
[15:08:02] $GNVTG,000.0,T,,,M,000.0,N,000.1,K,F*39
[15:08:03] $GPGGA,190723.720,4020.7231424,N,08007.7284153,W,5,26,0.5,325.420,M,-33.184,M,,0000*60
[15:08:04] $GNRMC,190723.720,A,4020.7231424,N,08007.7284153,W,000.0,000.0,070525,,,F,V*13
[15:08:05] $GNVTG,000.0,T,,,M,000.0,N,000.1,K,F*39
[15:08:06] $GPGGA,190723.760,4020.7231423,N,08007.7284152,W,5,26,0.5,325.421,M,-33.184,M,,0000*63
[15:08:07] $GNRMC,190723.760,A,4020.7231423,N,08007.7284152,W,000.0,000.0,070525,,,F,V*11
[15:08:08] $GNVTG,000.0,T,,,M,000.0,N,000.1,K,F*39
[15:08:09] $GPGGA,190723.800,4020.7231422,N,08007.7284150,W,5,26,0.5,325.422,M,-33.184,M,,0000*6A
[15:08:10] $GNRMC,190723.800,A,4020.7231422,N,08007.7284150,W,000.0,000.0,070525,,,F,V*1B
[15:08:11] $GNVTG,000.0,T,,,M,000.0,N,000.1,K,F*39
[15:08:11] $GPGGA,190723.840,4020.7231422,N,08007.7284149,W,5,26,0.5,325.422,M,-33.184,M,,0000*66
[15:08:12] $GNRMC,190723.840,A,4020.7231422,N,08007.7284149,W,000.0,000.0,070525,,,F,V*17
[15:08:13] $GNVTG,000.0,T,,,M,000.0,N,000.1,K,F*39
[15:08:14] $GPGGA,190723.880,4020.7231421,N,08007.7284147,W,5,26,0.5,325.423,M,-33.184,M,,0000*66
[15:08:15] $GNRMC,190723.880,A,4020.7231421,N,08007.7284147,W,000.0,000.0,070525,,,F,V*16
[15:08:16] $GNVTG,000.0,T,,,M,000.0,N,000.1,K,F*39
[15:08:17] $GPGGA,190723.920,4020.7231420,N,08007.7284146,W,5,26,0.5,325.424,M,-33.184,M,,0000*6A
[15:08:18] $GNRMC,190723.920,A,4020.7231420,N,08007.7284146,W,000.0,000.0,070525,,,F,V*1D
[15:08:19] $GNVTG,000.0,T,,,M,000.0,N,000.1,K,F*39
[15:08:20] $GPGGA,190723.960,4020.7231419,N,08007.7284144,W,5,26,0.5,325.425,M,-33.184,M,,0000*67
[15:08:21] $GNRMC,190723.960,A,4020.7231419,N,08007.7284144,W,000.0,000.0,070525,,,F,V*11
[15:08:21] $GNVTG,000.0,T,,,M,000.0,N,000.1,K,F*39
[15:08:22] $GPGGA,190724.000,4020.7231456,N,08007.7284218,W,5,26,0.5,325.322,M,-33.100,M,1.000,0000*4D
[15:08:23] $GNGSA,A,3,05,06,09,11,12,19,20,25,29,,,,1.0,0.5,0.9,1*33
[15:08:24] $GNGSA,A,3,71,72,76,85,86,87,,,,,,,1.0,0.5,0.9,2*31
[15:08:25] $GNGSA,A,3,02,05,09,30,34,36,,,,,,,1.0,0.5,0.9,3*31
[15:08:26] $GNGSA,A,3,19,20,22,29,35,,$GPGGA,190817.360,4020.7231561,N,08007.7284868,W,5,26,0.5,325.242,M,-33.184,M,,0000*6B
[15:08:27] $GNRMC,190817.360,A,4020.7231561,N,08007.7284868,W,000.0,000.0,070525,,,F,V*1A
[15:08:28] $GNVTG,000.0,T,,,M,000.0,N,000.0,K,F*38
[15:08:29] $GPGGA,190817.400,4020.7231561,N,08007.7284870,W,5,26,0.5,325.242,M,-33.184,M,,0000*63
[15:08:30] $GNRMC,190817.400,A,4020.7231561,N,08007.7284870,W,000.0,000.0,070525,,,F,V*12
[15:08:31] $GNVTG,000.0,T,,,M,000.0,N,000.0,K,F*38
[15:08:31] $GPGGA,190817.440,4020.7231561,N,08007.7284872,W,5,26,0.5,325.243,M,-33.184,M,,0000*64
[15:08:32] $GNRMC,190817.440,A,4020.7231561,N,08007.7284872,W,000.0,000.0,070525,,,F,V*14
[15:08:33] $GNVTG,000.0,T,,,M,000.0,N,000.0,K,F*38
[15:08:34] $GPGGA,190817.480,4020.7231561,N,08007.7284874,W,5,26,0.5,325.243,M,-33.184,M,,0000*6E
[15:08:35] $GNRMC,190817.480,A,4020.7231561,N,08007.7284874,W,000.0,000.0,070525,,,F,V*1E
[15:08:36] $GNVTG,000.0,T,,,M,000.0,N,000.0,K,F*38
[15:08:37] $GPGGA,190817.520,4020.7231562,N,08007.7284876,W,5,26,0.5,325.244,M,-33.184,M,,0000*63
[15:08:38] $GNRMC,190817.520,A,4020.7231562,N,08007.7284876,W,000.0,000.0,070525,,,F,V*14
[15:08:39] $GNVTG,000.0,T,,,M,000.0,N,000.0,K,F*38
[15:08:40] $GPGGA,190817.560,4020.7231562,N,08007.7284878,W,5,26,0.5,325.244,M,-33.184,M,,0000*69
[15:08:41] $GNRMC,190817.560,A,4020.7231562,N,08007.7284878,W,000.0,000.0,070525,,,F,V*1E
[15:08:41] $GNVTG,000.0,T,,,M,000.0,N,000.0,K,F*38
[15:08:42] $GPGGA,190817.600,4020.7231562,N,08007.7284880,W,5,26,0.5,325.244,M,-33.184,M,,0000*6B
[15:08:43] $GNRMC,190817.600,A,4020.7231562,N,08007.7284880,W,000.0,000.0,070525,,,F,V*1C
[15:08:44] $GNVTG,000.0,T,,,M,000.0,N,000.0,K,F*38
[15:08:45] $GPGGA,190817.640,4020.7231563,N,08007.7284882,W,5,26,0.5,325.245,M,-33.184,M,,0000*6D
[15:08:46] $GNRMC,190817.640,A,4020.7231563,N,08007.7284882,W,000.0,000.0,070525,,,F,V*1B
[15:08:47] $GNVTG,000.0,T,,,M,000.0,N,000.0,K,F*38
[15:08:48] $GPGGA,190817.680,4020.7231563,N,08007.7284884,W,5,26,0.5,325.245,M,-33.184,M,,0000*67
[15:08:49] $GNRMC,190817.680,A,4020.7231563,N,08007.7284884,W,000.0,000.0,070525,,,F,V*11
[15:08:50] $GNVTG,000.0,T,,,M,000.0,N,000.0,K,F*38
[15:08:51] $GPGGA,190817.720,4020.7231563,N,08007.7284885,W,5,26,0.5,325.245,M,-33.184,M,,0000*6D
[15:08:51] $GNRMC,190817.720,A,4020.7231563,N,08007.7284885,W,000.0,000.0,070525,,,F,V*1B
[15:08:52] $GNVTG,000.0,T,,,M,000.0,N,000.0,K,F*38
[15:08:53] $GPGGA,190817.760,4020.7231564,N,08007.7284887,W,5,26,0.5,325.246,M,-33.184,M,,0000*6F
[15:08:54] $GNRMC,190817.760,A,4020.7231564,N,08007.7284887,W,000.0,000.0,070525,,,F,V*1A
[15:08:55] $GNVTG,000.0,T,,,M,000.0,N,000.0,K,F*38
[15:08:56] $GPGGA,190817.800,4020.7231564,N,08007.7284889,W,5,26,0.5,325.246,M,-33.184,M,,0000*68
[15:08:57] $GNRMC,190817.800,A,4020.7231564,N,08007.7284889,W,000.0,000.0,070525,,,F,V*1D
[15:08:58] $GNVTG,000.0,T,,,M,000.0,N,000.0,K,F*38
[15:08:59] $GPGGA,190817.840,4020.7231564,N,08007.7284891,W,5,26,0.5,325.247,M,-33.184,M,,0000*64
[15:09:00] $GNRMC,190817.840,A,4020.7231564,N,08007.7284891,W,000.0,000.0,070525,,,F,V*10
[15:09:01] $GNVTG,000.0,T,,,M,000.0,N,000.0,K,F*38
[15:09:01] $GPGGA,190817.880,4020.7231565,N,08007.7284893,W,5,26,0.5,325.247,M,-33.184,M,,0000*6B
[15:09:02] $GNRMC,190817.880,A,4020.7231565,N,08007.7284893,W,000.0,000.0,070525,,,F,V*1F
[15:09:03] $GNVTG,000.0,T,,,M,000.0,N,000.0,K,F*38
[15:09:04] $GPGGA,190817.920,4020.7231565,N,08007.7284895,W,5,26,0.5,325.247,M,-33.184,M,,0000*66
[15:09:05] $GNRMC,190817.920,A,4020.7231565,N,08007.7284895,W,000.0,000.0,070525,,,F,V*12
[15:09:06] $GNVTG,000.0,T,,,M,000.0,N,000.0,K,F*38
[15:09:07] $GPGGA,190818.000,4020.7231557,N,08007.7284857,W,5,26,0.5,325.161,M,-33.100,M,1.000,0000*49
[15:09:08] $GNGSA,A,3,05,06,09,11,12,19,20,25,29,,,,1.0,0.5,0.8,1*32
[15:09:09] $GNGSA,A,3,71,72,76,85,86,87,,,,,,,1.0,0.5,0.8,2*30
[15:09:10] $GNGSA,A,3,02,05,06,09,30,34,36,,,,,,1.0,0.5,0.8,3*36
[15:09:11] $GNGSA,A,3,19,20,22,35,,,,,,,,,1.0,0.5,0.8,4*34
[15:09:11] $GPGSV,3,1,10,20,83,232,45,11,66,033,43,05,43,220,47,12,41,238,44,1*65
[15:09:12] $GPGSV,3,2,10,06,36,068,40,25,33,283,27,44,30,229,34,09,20,052,37,1*63
[15:09:13] $GPGSV,3,3,10,19,19,129,33,29,16,311,23,1*61
[15:09:14] $GPGSV,2,1,06,11,66,033,32,05,43,220,43,12,41,238,36,06,36,068,32,6*64
[15:09:15] $GPGSV,2,2,06,25,33,283,29,09,20,052,35,6*6A
[15:09:16] $GLGSV,3,1,09,86,60,006,50,71,53,127,51,70,42,050,,87,30,309,25,1*7D
[15:09:17] $GLGSV,3,2,09,85,27,083,44,77,25,291,,76,20,242,25,72,17,174,47,1*7C
[15:09:18] $GLGSV,3,3,09,78,04,344,,1*49
[15:09:19] $GLGSV,2,1,05,86,60,006,43,71,53,127,47,85,5,325.228,M,-33.184,M,,0000*6B
[15:09:20] $GNRMC,190909.360,A,4020.7231548,N,08007.7284691,W,000.0,000.0,070525,,,F,V*17
[15:09:21] $GNVTG,000.0,T,,,M,000.0,N,000.1,K,F*39
[15:09:21] $GPGGA,190909.400,4020.7231548,N,08007.7284692,W,5,27,0.5,325.229,M,-33.184,M,,0000*68
[15:09:22] $GNRMC,190909.400,A,4020.7231548,N,08007.7284692,W,000.0,000.0,070525,,,F,V*15
[15:09:23] $GNVTG,000.0,T,,,M,000.0,N,000.1,K,F*39
[15:09:24] $GPGGA,190909.440,4020.7231549,N,08007.7284693,W,5,27,0.5,325.230,M,-33.184,M,,0000*64
[15:09:25] $GNRMC,190909.440,A,4020.7231549,N,08007.7284693,W,000.0,000.0,070525,,,F,V*11
[15:09:26] $GNVTG,000.0,T,,,M,000.0,N,000.1,K,F*39
[15:09:27] $GPGGA,190909.480,4020.7231550,N,08007.7284694,W,5,27,0.5,325.230,M,-33.184,M,,0000*67
[15:09:28] $GNRMC,190909.480,A,4020.7231550,N,08007.7284694,W,000.0,000.0,070525,,,F,V*12
[15:09:29] $GNVTG,000.0,T,,,M,000.0,N,000.1,K,F*39
[15:09:30] $GPGGA,190909.520,4020.7231550,N,08007.7284695,W,5,27,0.5,325.231,M,-33.184,M,,0000*6C
[15:09:31] $GNRMC,190909.520,A,4020.7231550,N,08007.7284695,W,000.0,000.0,070525,,,F,V*18
[15:09:31] $GNVTG,000.0,T,,,M,000.0,N,000.1,K,F*39
[15:09:32] $GPGGA,190909.560,4020.7231551,N,08007.7284696,W,5,27,0.5,325.232,M,-33.184,M,,0000*69
[15:09:33] $GNRMC,190909.560,A,4020.7231551,N,08007.7284696,W,000.0,000.0,070525,,,F,V*1E
[15:09:34] $GNVTG,000.0,T,,,M,000.0,N,000.1,K,F*39
[15:09:35] $GPGGA,190909.600,4020.7231551,N,08007.7284697,W,5,27,0.5,325.232,M,-33.184,M,,0000*6D
[15:09:36] $GNRMC,190909.600,A,4020.7231551,N,08007.7284697,W,000.0,000.0,070525,,,F,V*1A
[15:09:37] $GNVTG,000.0,T,,,M,000.0,N,000.1,K,F*39
[15:09:38] $GPGGA,190909.640,4020.7231552,N,08007.7284697,W,5,27,0.5,325.233,M,-33.184,M,,0000*6B
[15:09:39] $GNRMC,190909.640,A,4020.7231552,N,08007.7284697,W,000.0,000.0,070525,,,F,V*1D
[15:09:40] $GNVTG,000.0,T,,,M,000.0,N,000.1,K,F*39
[15:09:41] $GPGGA,190909.680,4020.7231552,N,08007.7284698,W,5,27,0.5,325.233,M,-33.184,M,,0000*68
[15:09:41] $GNRMC,190909.680,A,4020.7231552,N,08007.7284698,W,000.0,000.0,070525,,,F,V*1E
[15:09:42] $GNVTG,000.0,T,,,M,000.0,N,000.1,K,F*39
[15:09:43] $GPGGA,190909.720,4020.7231553,N,08007.7284699,W,5,27,0.5,325.234,M,-33.184,M,,0000*64
[15:09:44] $GNRMC,190909.720,A,4020.7231553,N,08007.7284699,W,000.0,000.0,070525,,,F,V*15
[15:09:45] $GNVTG,000.0,T,,,M,000.0,N,000.1,K,F*39
[15:09:46] $GPGGA,190909.760,4020.7231553,N,08007.7284700,W,5,27,0.5,325.235,M,-33.184,M,,0000*60
[15:09:47] $GNRMC,190909.760,A,4020.7231553,N,08007.7284700,W,000.0,000.0,070525,,,F,V*10
[15:09:48] $GNVTG,000.0,T,,,M,000.0,N,000.1,K,F*39
[15:09:49] $GPGGA,190909.800,4020.7231554,N,08007.7284701,W,5,27,0.5,325.235,M,-33.184,M,,0000*6F
[15:09:50] $GNRMC,190909.800,A,4020.7231554,N,08007.7284701,W,000.0,000.0,070525,,,F,V*1F
[15:09:51] $GNVTG,000.0,T,,,M,000.0,N,000.1,K,F*39
[15:09:51] $GPGGA,190909.840,4020.7231554,N,08007.7284702,W,5,27,0.5,325.236,M,-33.184,M,,0000*6B
[15:09:52] $GNRMC,190909.840,A,4020.7231554,N,08007.7284702,W,000.0,000.0,070525,,,F,V*18
[15:09:53] $GNVTG,000.0,T,,,M,000.0,N,000.1,K,F*39
[15:09:54] $GPGGA,190909.880,4020.7231555,N,08007.7284703,W,5,27,0.5,325.237,M,-33.184,M,,0000*66
[15:09:55] $GNRMC,190909.880,A,4020.7231555,N,08007.7284703,W,000.0,000.0,070525,,,F,V*14
[15:09:56] $GNVTG,000.0,T,,,M,000.0,N,000.1,K,F*39
[15:09:57] $GPGGA,190909.920,4020.7231555,N,08007.7284704,W,5,27,0.5,325.237,M,-33.184,M,,0000*6A
[15:09:58] $GNRMC,190909.920,A,4020.7231555,N,08007.7284704,W,000.0,000.0,070525,,,F,V*18
[15:09:59] $GNVTG,000.0,T,,,M,000.0,N,000.1,K,F*39
[15:10:00] $GPGGA,190909.960,4020.7231556,N,08007.7284705,W,5,27,0.5,325.238,M,-33.184,M,,0000*63
[15:10:01] $GNRMC,190909.960,A,4020.7231556,N,08007.7284705,W,000.0,000.0,070525,,,F,V*1E
[15:10:01] $GNVTG,000.0,T,,,M,000.0,N,000.1,K,F*39
[15:10:02] $GPGGA,190910.000,4020.7231525,N,08007.7284690,W,5,27,0.5,325.133,M,-33.100,M,1.000,0000*46
[15:10:03] $GNGSA,A,3,05,06,09,11,12,19,20,25,29,,,,1.0,0.5,0.8,1*32
[15:10:04] $GNGSA,A,3,71,72,76,85,86,87,,,,,,,1.0,0.5,0.8,2*30
[15:10:05] $GNGSA,A,3,02,05,06,09,30,34,36,,,,,,1.0,0.5,0.8,3*36
[15:10:06] $GNGSA,A,3,19,20,22,29,35,,,,,,,,1.0,0.5,0.8,4*3F
[15:10:07] $GPGSV,3,1,10,20,83,232,43,11,66,033,44,05,43,220,45,12,41,238,43,1*61
[15:10:08] $GPGSV,3,2,10,06,36,068,39,25,33,282,31,44,30,229,34,09,20,052,35,1*69
[15:10:09] $GPGSV,3,3,10,19,19,129,37,29,17,311,25,1*62
[15:10:10] $GPGSV,2,1,07,11,66,033,29,05,43,220,43,12,41,238,37,06,36,068,38,6*64
[15:10:11] $GPGSV,2,2,07,25,33,282,25,09,20,052,35,29,17,311,24,6*5E
[15:10:11] $GLGSV,3,1,09,86,60,009,52,71,53,126,51,70,41,049,,87,31,309,27,1*79
[15:10:12] $000*6F
[15:10:13] $GNRMC,191002.360,A,4020.7230883,N,08007.7285344,W,000.1,000.0,070525,,,F,V*12
[15:10:14] $GNVTG,000.0,T,,,M,000.1,N,000.1,K,F*38
[15:10:15] $GPGGA,191002.400,4020.7230882,N,08007.7285343,W,5,27,0.5,325.229,M,-33.184,M,,0000*69
[15:10:16] $GNRMC,191002.400,A,4020.7230882,N,08007.7285343,W,000.1,000.0,070525,,,F,V*15
[15:10:17] $GNVTG,000.0,T,,,M,000.1,N,000.1,K,F*38
[15:10:18] $GPGGA,191002.440,4020.7230881,N,08007.7285341,W,5,27,0.5,325.230,M,-33.184,M,,0000*64
[15:10:19] $GNRMC,191002.440,A,4020.7230881,N,08007.7285341,W,000.1,000.0,070525,,,F,V*10
[15:10:20] $GNVTG,000.0,T,,,M,000.1,N,000.1,K,F*38
[15:10:21] $GPGGA,191002.480,4020.7230880,N,08007.7285340,W,5,27,0.5,325.232,M,-33.184,M,,0000*6A
[15:10:21] $GNRMC,191002.480,A,4020.7230880,N,08007.7285340,W,000.1,000.0,070525,,,F,V*1C
[15:10:22] $GNVTG,000.0,T,,,M,000.1,N,000.1,K,F*38
[15:10:23] $GPGGA,191002.520,4020.7230880,N,08007.7285338,W,5,27,0.5,325.233,M,-33.184,M,,0000*6F
[15:10:24] $GNRMC,191002.520,A,4020.7230880,N,08007.7285338,W,000.1,000.0,070525,,,F,V*18
[15:10:25] $GNVTG,000.0,T,,,M,000.1,N,000.1,K,F*38
[15:10:26] $GPGGA,191002.560,4020.7230879,N,08007.7285337,W,5,27,0.5,325.234,M,-33.184,M,,0000*65
[15:10:27] $GNRMC,191002.560,A,4020.7230879,N,08007.7285337,W,000.1,000.0,070525,,,F,V*15
[15:10:28] $GNVTG,000.0,T,,,M,000.1,N,000.1,K,F*38
[15:10:29] $GPGGA,191002.600,4020.7230878,N,08007.7285335,W,5,27,0.5,325.235,M,-33.184,M,,0000*62
[15:10:30] $GNRMC,191002.600,A,4020.7230878,N,08007.7285335,W,000.1,000.0,070525,,,F,V*13
[15:10:31] $GNVTG,000.0,T,,,M,000.1,N,000.1,K,F*38
[15:10:31] $GPGGA,191002.640,4020.7230877,N,08007.7285334,W,5,27,0.5,325.236,M,-33.184,M,,0000*6B
[15:10:32] $GNRMC,191002.640,A,4020.7230877,N,08007.7285334,W,000.1,000.0,070525,,,F,V*19
[15:10:33] $GNVTG,000.0,T,,,M,000.1,N,000.1,K,F*38
[15:10:34] $GPGGA,191002.680,4020.7230877,N,08007.7285332,W,5,27,0.5,325.237,M,-33.184,M,,0000*60
[15:10:35] $GNRMC,191002.680,A,4020.7230877,N,08007.7285332,W,000.1,000.0,070525,,,F,V*13
[15:10:36] $GNVTG,000.0,T,,,M,000.1,N,000.1,K,F*38
[15:10:37] $GPGGA,191002.720,4020.7230876,N,08007.7285331,W,5,27,0.5,325.238,M,-33.184,M,,0000*66
[15:10:38] $GNRMC,191002.720,A,4020.7230876,N,08007.7285331,W,000.1,000.0,070525,,,F,V*1A
[15:10:39] $GNVTG,000.0,T,,,M,000.1,N,000.1,K,F*38
[15:10:40] $GPGGA,191002.760,4020.7230875,N,08007.7285329,W,5,27,0.5,325.239,M,-33.184,M,,0000*69
[15:10:41] $GNRMC,191002.760,A,4020.7230875,N,08007.7285329,W,000.1,000.0,070525,,,F,V*14
[15:10:41] $GNVTG,000.0,T,,,M,000.1,N,000.1,K,F*38
[15:10:42] $GPGGA,191002.800,4020.7230874,N,08007.7285328,W,5,27,0.5,325.240,M,-33.184,M,,0000*6E
[15:10:43] $GNRMC,191002.800,A,4020.7230874,N,08007.7285328,W,000.1,000.0,070525,,,F,V*1D
[15:10:44] $GNVTG,000.0,T,,,M,000.1,N,000.1,K,F*38
[15:10:45] $GPGGA,191002.840,4020.7230873,N,08007.7285327,W,5,27,0.5,325.241,M,-33.184,M,,0000*63
[15:10:46] $GNRMC,191002.840,A,4020.7230873,N,08007.7285327,W,000.1,000.0,070525,,,F,V*11
[15:10:47] $GNVTG,000.0,T,,,M,000.1,N,000.1,K,F*38
[15:10:48] $GPGGA,191002.880,4020.7230873,N,08007.7285325,W,5,27,0.5,325.242,M,-33.184,M,,0000*6E
[15:10:49] $GNRMC,191002.880,A,4020.7230873,N,08007.7285325,W,000.1,000.0,070525,,,F,V*1F
[15:10:50] $GNVTG,000.0,T,,,M,000.1,N,000.1,K,F*38
[15:10:51] $GPGGA,191002.920,4020.7230872,N,08007.7285324,W,5,27,0.5,325.243,M,-33.184,M,,0000*64
[15:10:51] $GNRMC,191002.920,A,4020.7230872,N,08007.7285324,W,000.1,000.0,070525,,,F,V*14
[15:10:52] $GNVTG,000.0,T,,,M,000.1,N,000.1,K,F*38
[15:10:53] $GPGGA,191002.960,4020.7230871,N,08007.7285322,W,5,27,0.5,325.244,M,-33.184,M,,0000*62
[15:10:54] $GNRMC,191002.960,A,4020.7230871,N,08007.7285322,W,000.1,000.0,070525,,,F,V*15
[15:10:55] $GNVTG,000.0,T,,,M,000.1,N,000.1,K,F*38
[15:10:56] $GPGGA,191003.000,4020.7230890,N,08007.7285373,W,5,27,0.5,325.136,M,-33.100,M,1.000,0000*42
[15:10:57] $GNGSA,A,3,05,06,09,11,12,19,20,25,29,,,,1.0,0.5,0.9,1*33
[15:10:58] $GNGSA,A,3,71,72,76,85,86,87,,,,,,,1.0,0.5,0.9,2*31
[15:10:59] $GNGSA,A,3,02,05,06,09,30,34,36,,,,,,1.0,0.5,0.9,3*37
[15:11:00] $GNGSA,A,3,19,20,22,29,35,,,,,,,,1.0,0.5,0.9,4*3E
[15:11:01] $GPGSV,3,1,10,20,83,232,43,11,66,033,44,05,44,220,47,12,41,238,41,1*66
[15:11:01] $GPGSV,3,2,10,06,35,069,41,25,33,282,30,44,30,229,34,09,20,052,34,1*64
[15:11:02] $GPGSV,3,3,10,19,19,129,38,29,17,311,24,1*6C
[15:11:03] $GPGSV,2,1,07,11,66,033,34,05,44,220,44,12,41,238,37,06,35,069,40,6*65
[15:11:04] $GPGSV,2,2,07,25,33,282,20,09,20,052,35,29,17,311,27,6*58
[15:11:05] $GLGSV,3,1,09,86,60,009,50,71,53,126,50,70,41,049,,87,31,309,33,1*7F
[15:11:06] $.7230738,N,08007.7284076,W,000.0,000.0,070525,,,F,V*1A
[15:11:07] $GNVTG,000.0,T,,,M,000.0,N,000.1,K,F*39
[15:11:08] $GPGGA,191056.360,4020.7230738,N,08007.7284076,W,5,27,0.5,325.370,M,-33.184,M,,0000*6E
[15:11:09] $GNRMC,191056.360,A,4020.7230738,N,08007.7284076,W,000.0,000.0,070525,,,F,V*1E
[15:11:10] $GNVTG,000.0,T,,,M,000.0,N,000.1,K,F*39
[15:11:11] $GPGGA,191056.400,4020.7230737,N,08007.7284077,W,5,27,0.5,325.371,M,-33.184,M,,0000*60
[15:11:11] $GNRMC,191056.400,A,4020.7230737,N,08007.7284077,W,000.0,000.0,070525,,,F,V*11
[15:11:12] $GNVTG,000.0,T,,,M,000.0,N,000.1,K,F*39
[15:11:13] $GPGGA,191056.440,4020.7230737,N,08007.7284077,W,5,27,0.5,325.372,M,-33.184,M,,0000*67
[15:11:14] $GNRMC,191056.440,A,4020.7230737,N,08007.7284077,W,000.0,000.0,070525,,,F,V*15
[15:11:15] $GNVTG,000.0,T,,,M,000.0,N,000.1,K,F*39
[15:11:16] $GPGGA,191056.480,4020.7230736,N,08007.7284077,W,5,27,0.5,325.373,M,-33.184,M,,0000*6B
[15:11:17] $GNRMC,191056.480,A,4020.7230736,N,08007.7284077,W,000.0,000.0,070525,,,F,V*18
[15:11:18] $GNVTG,000.0,T,,,M,000.0,N,000.1,K,F*39
[15:11:19] $GPGGA,191056.520,4020.7230736,N,08007.7284077,W,5,27,0.5,325.373,M,-33.184,M,,0000*60
[15:11:20] $GNRMC,191056.520,A,4020.7230736,N,08007.7284077,W,000.0,000.0,070525,,,F,V*13
[15:11:21] $GNVTG,000.0,T,,,M,000.0,N,000.1,K,F*39
[15:11:21] $GPGGA,191056.560,4020.7230735,N,08007.7284077,W,5,27,0.5,325.374,M,-33.184,M,,0000*60
[15:11:22] $GNRMC,191056.560,A,4020.7230735,N,08007.7284077,W,000.0,000.0,070525,,,F,V*14
[15:11:23] $GNVTG,000.0,T,,,M,000.0,N,000.1,K,F*39
[15:11:24] $GPGGA,191056.600,4020.7230735,N,08007.7284078,W,5,27,0.5,325.375,M,-33.184,M,,0000*6B
[15:11:25] $GNRMC,191056.600,A,4020.7230735,N,08007.7284078,W,000.0,000.0,070525,,,F,V*1E
[15:11:26] $GNVTG,000.0,T,,,M,000.0,N,000.1,K,F*39
[15:11:27] $GPGGA,191056.640,4020.7230734,N,08007.7284078,W,5,27,0.5,325.376,M,-33.184,M,,0000*6D
[15:11:28] $GNRMC,191056.640,A,4020.7230734,N,08007.7284078,W,000.0,000.0,070525,,,F,V*1B
[15:11:29] $GNVTG,000.0,T,,,M,000.0,N,000.1,K,F*39
[15:11:30] $GPGGA,191056.680,4020.7230734,N,08007.7284078,W,5,27,0.5,325.377,M,-33.184,M,,0000*60
[15:11:31] $GNRMC,191056.680,A,4020.7230734,N,08007.7284078,W,000.0,000.0,070525,,,F,V*17
[15:11:31] $GNVTG,000.0,T,,,M,000.0,N,000.1,K,F*39
[15:11:32] $GPGGA,191056.720,4020.7230733,N,08007.7284078,W,5,27,0.5,325.377,M,-33.184,M,,0000*6C
[15:11:33] $GNRMC,191056.720,A,4020.7230733,N,08007.7284078,W,000.0,000.0,070525,,,F,V*1B
[15:11:34] $GNVTG,000.0,T,,,M,000.0,N,000.1,K,F*39
[15:11:35] $GPGGA,191056.760,4020.7230733,N,08007.7284078,W,5,27,0.5,325.378,M,-33.184,M,,0000*67
[15:11:36] $GNRMC,191056.760,A,4020.7230733,N,08007.7284078,W,000.0,000.0,070525,,,F,V*1F
[15:11:37] $GNVTG,000.0,T,,,M,000.0,N,000.1,K,F*39
[15:11:38] $GPGGA,191056.800,4020.7230732,N,08007.7284079,W,5,27,0.5,325.379,M,-33.184,M,,0000*6F
[15:11:39] $GNRMC,191056.800,A,4020.7230732,N,08007.7284079,W,000.0,000.0,070525,,,F,V*16
[15:11:40] $GNVTG,000.0,T,,,M,000.0,N,000.1,K,F*39
[15:11:41] $GPGGA,191056.840,4020.7230732,N,08007.7284079,W,5,27,0.5,325.380,M,-33.184,M,,0000*6D
[15:11:41] $GNRMC,191056.840,A,4020.7230732,N,08007.7284079,W,000.0,000.0,070525,,,F,V*12
[15:11:42] $GNVTG,000.0,T,,,M,000.0,N,000.1,K,F*39
[15:11:43] $GPGGA,191056.880,4020.7230731,N,08007.7284079,W,5,27,0.5,325.380,M,-33.184,M,,0000*62
[15:11:44] $GNRMC,191056.880,A,4020.7230731,N,08007.7284079,W,000.0,000.0,070525,,,F,V*1D
[15:11:45] $GNVTG,000.0,T,,,M,000.0,N,000.1,K,F*39
[15:11:46] $GPGGA,191056.920,4020.7230731,N,08007.7284079,W,5,27,0.5,325.381,M,-33.184,M,,0000*68
[15:11:47] $GNRMC,191056.920,A,4020.7230731,N,08007.7284079,W,000.0,000.0,070525,,,F,V*16
[15:11:48] $GNVTG,000.0,T,,,M,000.0,N,000.1,K,F*39
[15:11:49] $GPGGA,191056.960,4020.7230730,N,08007.7284079,W,5,27,0.5,325.382,M,-33.184,M,,0000*6E
[15:11:50] $GNRMC,191056.960,A,4020.7230730,N,08007.7284079,W,000.0,000.0,070525,,,F,V*13
[15:11:51] $GNVTG,000.0,T,,,M,000.0,N,000.1,K,F*39
[15:11:51] $GPGGA,191057.000,4020.7230746,N,08007.7283994,W,5,27,0.5,325.272,M,-33.100,M,1.000,0000*41
[15:11:52] $GNGSA,A,3,05,06,09,11,12,19,20,25,29,,,,1.0,0.5,0.8,1*32
[15:11:53] $GNGSA,A,3,71,72,76,85,86,87,,,,,,,1.0,0.5,0.8,2*30
[15:11:54] $GNGSA,A,3,02,05,06,09,30,34,36,,,,,,1.0,0.5,0.8,3*36
[15:11:55] $GNGSA,A,3,19,20,22,29,35,,,,,,,,1.0,0.5,0.8,4*3F
[15:11:56] $GPGSV,3,1,10,20,84,236,42,11,65,035,43,05,44,220,46,12,40,237,39,1*66
[15:11:57] $GPGSV,3,2,10,06,35,069,38,25,33,281,28,44,30,229,33,09,20,052,34,1*67
[15:11:58] $GPGSV,3,3,10,19,18,129,38,29,17,311,23,1*6A
[15:11:59] $GPGSV,2,1,07,11,65,035,35,05,44,220,43,12,40,237,37,06,35,069,39,6*66
[15:12:00] $GPGSV,2,2,07,25,33,281,23,09,20,052,36,29,17,311,24,6*58
[15:12:01] $GLGSV,3,1,09,86,60,011,51,71,54,124,50000.0,T,,,M,000.0,N,000.1,K,F*39
[15:12:01] $GPGGA,191151.400,4020.7230904,N,08007.7282557,W,5,26,0.5,325.411,M,-33.184,M,,0000*69
[15:12:02] $GNRMC,191151.400,A,4020.7230904,N,08007.7282557,W,000.0,000.0,070525,,,F,V*18
[15:12:03] $GNVTG,000.0,T,,,M,000.0,N,000.1,K,F*39
[15:12:04] $GPGGA,191151.440,4020.7230904,N,08007.7282556,W,5,26,0.5,325.412,M,-33.184,M,,0000*6F
[15:12:05] $GNRMC,191151.440,A,4020.7230904,N,08007.7282556,W,000.0,000.0,070525,,,F,V*1D
[15:12:06] $GNVTG,000.0,T,,,M,000.0,N,000.1,K,F*39
[15:12:07] $GPGGA,191151.480,4020.7230904,N,08007.7282556,W,5,26,0.5,325.412,M,-33.184,M,,0000*63
[15:12:08] $GNRMC,191151.480,A,4020.7230904,N,08007.7282556,W,000.0,000.0,070525,,,F,V*11
[15:12:09] $GNVTG,000.0,T,,,M,000.0,N,000.1,K,F*39
[15:12:10] $GPGGA,191151.520,4020.7230903,N,08007.7282555,W,5,26,0.5,325.413,M,-33.184,M,,0000*6D
[15:12:11] $GNRMC,191151.520,A,4020.7230903,N,08007.7282555,W,000.0,000.0,070525,,,F,V*1E
[15:12:12] $GNVTG,000.0,T,,,M,000.0,N,000.1,K,F*39
[15:12:13] $GPGGA,191151.560,4020.7230903,N,08007.7282555,W,5,26,0.5,325.414,M,-33.184,M,,0000*6E
[15:12:14] $GNRMC,191151.560,A,4020.7230903,N,08007.7282555,W,000.0,000.0,070525,,,F,V*1A
[15:12:15] $GNVTG,000.0,T,,,M,000.0,N,000.1,K,F*39
[15:12:16] $GPGGA,191151.600,4020.7230903,N,08007.7282554,W,5,26,0.5,325.414,M,-33.184,M,,0000*6A
[15:12:17] $GNRMC,191151.600,A,4020.7230903,N,08007.7282554,W,000.0,000.0,070525,,,F,V*1E
[15:12:18] $GNVTG,000.0,T,,,M,000.0,N,000.1,K,F*39
[15:12:19] $GPGGA,191151.640,4020.7230902,N,08007.7282554,W,5,26,0.5,325.415,M,-33.184,M,,0000*6E
[15:12:20] $GNRMC,191151.640,A,4020.7230902,N,08007.7282554,W,000.0,000.0,070525,,,F,V*1B
[15:12:21] $GNVTG,000.0,T,,,M,000.0,N,000.1,K,F*39
[15:12:21] $GPGGA,191151.680,4020.7230902,N,08007.7282553,W,5,26,0.5,325.416,M,-33.184,M,,0000*66
[15:12:22] $GNRMC,191151.680,A,4020.7230902,N,08007.7282553,W,000.0,000.0,070525,,,F,V*10
[15:12:23] $GNVTG,000.0,T,,,M,000.0,N,000.1,K,F*39
[15:12:24] $GPGGA,191151.720,4020.7230902,N,08007.7282553,W,5,26,0.5,325.417,M,-33.184,M,,0000*6C
[15:12:25] $GNRMC,191151.720,A,4020.7230902,N,08007.7282553,W,000.0,000.0,070525,,,F,V*1B
[15:12:26] $GNVTG,000.0,T,,,M,000.0,N,000.1,K,F*39
[15:12:27] $GPGGA,191151.760,4020.7230902,N,08007.7282552,W,5,26,0.5,325.417,M,-33.184,M,,0000*69
[15:12:28] $GNRMC,191151.760,A,4020.7230902,N,08007.7282552,W,000.0,000.0,070525,,,F,V*1E
[15:12:29] $GNVTG,000.0,T,,,M,000.0,N,000.1,K,F*39
[15:12:30] $GPGGA,191151.800,4020.7230901,N,08007.7282552,W,5,26,0.5,325.418,M,-33.184,M,,0000*6C
[15:12:31] $GNRMC,191151.800,A,4020.7230901,N,08007.7282552,W,000.0,000.0,070525,,,F,V*14
[15:12:31] $GNVTG,000.0,T,,,M,000.0,N,000.1,K,F*39
[15:12:32] $GPGGA,191151.840,4020.7230901,N,08007.7282551,W,5,26,0.5,325.419,M,-33.184,M,,0000*6A
[15:12:33] $GNRMC,191151.840,A,4020.7230901,N,08007.7282551,W,000.0,000.0,070525,,,F,V*13
[15:12:34] $GNVTG,000.0,T,,,M,000.0,N,000.1,K,F*39
[15:12:35] $GPGGA,191151.880,4020.7230901,N,08007.7282551,W,5,26,0.5,325.419,M,-33.184,M,,0000*66
[15:12:36] $GNRMC,191151.880,A,4020.7230901,N,08007.7282551,W,000.0,000.0,070525,,,F,V*1F
[15:12:37] $GNVTG,000.0,T,,,M,000.0,N,000.1,K,F*39
[15:12:38] $GPGGA,191151.920,4020.7230901,N,08007.7282551,W,5,26,0.5,325.420,M,-33.184,M,,0000*67
[15:12:39] $GNRMC,191151.920,A,4020.7230901,N,08007.7282551,W,000.0,000.0,070525,,,F,V*14
[15:12:40] $GNVTG,000.0,T,,,M,000.0,N,000.1,K,F*39
[15:12:41] $GPGGA,191151.960,4020.7230900,N,08007.7282550,W,5,26,0.5,325.421,M,-33.184,M,,0000*62
[15:12:41] $GNRMC,191151.960,A,4020.7230900,N,08007.7282550,W,000.0,000.0,070525,,,F,V*10
[15:12:42] $GNVTG,000.0,T,,,M,000.0,N,000.1,K,F*39
[15:12:43] $GPGGA,191152.000,4020.7230901,N,08007.7282587,W,5,26,0.5,325.319,M,-33.100,M,1.000,0000*4A
[15:12:44] $GNGSA,A,3,05,06,09,11,12,19,20,25,29,,,,1.0,0.5,0.8,1*32
[15:12:45] $GNGSA,A,3,71,72,76,85,86,87,,,,,,,1.0,0.5,0.8,2*30
[15:12:46] $GNGSA,A,3,02,05,06,30,34,36,,,,,,,1.0,0.5,0.8,3*3F
[15:12:47] $GNGSA,A,3,19,20,22,29,35,,,,,,,,1.0,0.5,0.8,4*3F
[15:12:48] $GPGSV,3,1,10,20,84,236,42,11,65,035,42,05,44,220,46,12,40,237,37,1*69
[15:12:49] $GPGSV,3,2,10,06,35,069,35,25,33,281,29,44,30,229,33,09,20,052,35,1*6A
[15:12:50] $GPGSV,3,3,10,19,18,129,34,29,17,311,26,1*63
[15:12:51] $GPGSV,2,1,07,11,65,035,35,05,44,220,43,12,40,237,38,06,35,069,38,6*68
[15:12:51] $GPGSV,2,2,07,25,33,281,22,09,20,052,35,29,17,311,25,6*5B
[15:12:52] $GLGSV,3,1,09,86,60,011,51,71,54,124,50,70,41,048,,87,32,310,39,1*72
[15:12:53] $GLGSV,3,2,09,85,26,085,38,77,24,289,,72,19,174,44,76,18,241,25,1*7D
[15:12:54] $GLGSV,3,3,09,78,05,343,,1*4F
[15:12:55] $GLGSV,2,1,05,86,60,011,38,71,54,124,46,85,26,085,38,72,19,174,39,3*77
[15:12:56] $GLGSV,2,2,05,76,18,241,23,3*41
[15:12:57] $GAGSV,3,1,10,34,69,356,50,30,44,240,48,18,38,133,39,,A,4020.7230468,N,08007.7283004,W,000.0,000.0,070525,,,F,V*1C
[15:12:58] $GNVTG,000.0,T,,,M,000.0,N,000.1,K,F*39
[15:12:59] $GPGGA,191247.360,4020.7230468,N,08007.7283003,W,5,26,0.5,325.529,M,-33.184,M,,0000*64
[15:13:00] $GNRMC,191247.360,A,4020.7230468,N,08007.7283003,W,000.0,000.0,070525,,,F,V*1F
[15:13:01] $GNVTG,000.0,T,,,M,000.0,N,000.1,K,F*39
[15:13:01] $GPGGA,191247.400,4020.7230467,N,08007.7283003,W,5,26,0.5,325.529,M,-33.184,M,,0000*6A
[15:13:02] $GNRMC,191247.400,A,4020.7230467,N,08007.7283003,W,000.0,000.0,070525,,,F,V*11
[15:13:03] $GNVTG,000.0,T,,,M,000.0,N,000.1,K,F*39
[15:13:04] $GPGGA,191247.440,4020.7230467,N,08007.7283002,W,5,26,0.5,325.530,M,-33.184,M,,0000*67
[15:13:05] $GNRMC,191247.440,A,4020.7230467,N,08007.7283002,W,000.0,000.0,070525,,,F,V*14
[15:13:06] $GNVTG,000.0,T,,,M,000.0,N,000.1,K,F*39
[15:13:07] $GPGGA,191247.480,4020.7230466,N,08007.7283001,W,5,26,0.5,325.531,M,-33.184,M,,0000*68
[15:13:08] $GNRMC,191247.480,A,4020.7230466,N,08007.7283001,W,000.0,000.0,070525,,,F,V*1A
[15:13:09] $GNVTG,000.0,T,,,M,000.0,N,000.1,K,F*39
[15:13:10] $GPGGA,191247.520,4020.7230466,N,08007.7283000,W,5,26,0.5,325.531,M,-33.184,M,,0000*62
[15:13:11] $GNRMC,191247.520,A,4020.7230466,N,08007.7283000,W,000.0,000.0,070525,,,F,V*10
[15:13:11] $GNVTG,000.0,T,,,M,000.0,N,000.1,K,F*39
[15:13:12] $GPGGA,191247.560,4020.7230465,N,08007.7282999,W,5,26,0.5,325.532,M,-33.184,M,,0000*6E
[15:13:13] $GNRMC,191247.560,A,4020.7230465,N,08007.7282999,W,000.0,000.0,070525,,,F,V*1F
[15:13:14] $GNVTG,000.0,T,,,M,000.0,N,000.1,K,F*39
[15:13:15] $GPGGA,191247.600,4020.7230465,N,08007.7282998,W,5,26,0.5,325.533,M,-33.184,M,,0000*6B
[15:13:16] $GNRMC,191247.600,A,4020.7230465,N,08007.7282998,W,000.0,000.0,070525,,,F,V*1B
[15:13:17] $GNVTG,000.0,T,,,M,000.0,N,000.1,K,F*39
[15:13:18] $GPGGA,191247.640,4020.7230464,N,08007.7282997,W,5,26,0.5,325.533,M,-33.184,M,,0000*61
[15:13:19] $GNRMC,191247.640,A,4020.7230464,N,08007.7282997,W,000.0,000.0,070525,,,F,V*11
[15:13:20] $GNVTG,000.0,T,,,M,000.0,N,000.1,K,F*39
[15:13:21] $GPGGA,191247.680,4020.7230463,N,08007.7282996,W,5,26,0.5,325.534,M,-33.184,M,,0000*6C
[15:13:21] $GNRMC,191247.680,A,4020.7230463,N,08007.7282996,W,000.0,000.0,070525,,,F,V*1B
[15:13:22] $GNVTG,000.0,T,,,M,000.0,N,000.1,K,F*39
[15:13:23] $GPGGA,191247.720,4020.7230463,N,08007.7282995,W,5,26,0.5,325.535,M,-33.184,M,,0000*65
[15:13:24] $GNRMC,191247.720,A,4020.7230463,N,08007.7282995,W,000.0,000.0,070525,,,F,V*13
[15:13:25] $GNVTG,000.0,T,,,M,000.0,N,000.1,K,F*39
[15:13:26] $GPGGA,191247.760,4020.7230462,N,08007.7282994,W,5,26,0.5,325.535,M,-33.184,M,,0000*61
[15:13:27] $GNRMC,191247.760,A,4020.7230462,N,08007.7282994,W,000.0,000.0,070525,,,F,V*17
[15:13:28] $GNVTG,000.0,T,,,M,000.0,N,000.1,K,F*39
[15:13:29] $GPGGA,191247.800,4020.7230462,N,08007.7282993,W,5,26,0.5,325.536,M,-33.184,M,,0000*6C
[15:13:30] $GNRMC,191247.800,A,4020.7230462,N,08007.7282993,W,000.0,000.0,070525,,,F,V*19
[15:13:31] $GNVTG,000.0,T,,,M,000.0,N,000.1,K,F*39
[15:13:31] $GPGGA,191247.840,4020.7230461,N,08007.7282993,W,5,26,0.5,325.537,M,-33.184,M,,0000*6A
[15:13:32] $GNRMC,191247.840,A,4020.7230461,N,08007.7282993,W,000.0,000.0,070525,,,F,V*1E
[15:13:33] $GNVTG,000.0,T,,,M,000.0,N,000.1,K,F*39
[15:13:34] $GPGGA,191247.880,4020.7230461,N,08007.7282992,W,5,26,0.5,325.537,M,-33.184,M,,0000*67
[15:13:35] $GNRMC,191247.880,A,4020.7230461,N,08007.7282992,W,000.0,000.0,070525,,,F,V*13
[15:13:36] $GNVTG,000.0,T,,,M,000.0,N,000.1,K,F*39
[15:13:37] $GPGGA,191247.920,4020.7230460,N,08007.7282991,W,5,26,0.5,325.538,M,-33.184,M,,0000*61
[15:13:38] $GNRMC,191247.920,A,4020.7230460,N,08007.7282991,W,000.0,000.0,070525,,,F,V*1A
[15:13:39] $GNVTG,000.0,T,,,M,000.0,N,000.1,K,F*39
[15:13:40] $GPGGA,191247.960,4020.7230460,N,08007.7282990,W,5,26,0.5,325.539,M,-33.184,M,,0000*65
[15:13:41] $GNRMC,191247.960,A,4020.7230460,N,08007.7282990,W,000.0,000.0,070525,,,F,V*1F
[15:13:41] $GNVTG,000.0,T,,,M,000.0,N,000.1,K,F*39
[15:13:42] $GPGGA,191248.000,4020.7230461,N,08007.7283005,W,5,26,0.5,325.434,M,-33.100,M,1.000,0000*4F
[15:13:43] $GNGSA,A,3,05,06,09,11,12,19,20,25,29,,,,1.0,0.5,0.8,1*32
[15:13:44] $GNGSA,A,3,71,72,76,85,86,87,,,,,,,1.0,0.5,0.8,2*30
