2025-05-10 08:28:02,194 - INFO - Verifying mountpoint availability...
2025-05-10 08:28:02,194 - INFO - Connecting to rtk2go.com:2101 for source table...
2025-05-10 08:28:02,241 - INFO - Connected to rtk2go.com:2101
2025-05-10 08:28:02,241 - INFO - Sent source table request
2025-05-10 08:28:02,878 - INFO - Mountpoint 'cmuairlab01' found in source table!
2025-05-10 08:28:02,878 - INFO - Waiting 2 seconds before connecting...
2025-05-10 08:28:04,878 - INFO - Connecting to rtk2go.com:2101...
2025-05-10 08:28:04,915 - INFO - Connected to rtk2go.com:2101
2025-05-10 08:28:04,915 - INFO - Sending NTRIP request headers...
2025-05-10 08:28:08,826 - INFO - Server response: ICY 200 OK
2025-05-10 08:28:08,826 - INFO - NTRIP server connected successfully
2025-05-10 08:28:08,843 - INFO - Opened serial port /dev/ttyUSB0 at 115200 baud
2025-05-10 08:28:08,844 - INFO - Sent initial GPGGA position: $GPGGA,092750.000,4020.7212606,N,08007.7235976,W,1,8,1.03,362.0,M,-33.184,M,,*52
2025-05-10 08:28:08,874 - INFO - RTK Status: GPS Fix (Standard) | Satellites: 26 | Position: 4020.7219968,N 08007.7302139,W | Altitude: 328.861m
2025-05-10 08:28:08,874 - INFO - Last GGA Message: $GPGGA,122808.840,4020.7219968,N,08007.7302139,W,1,26,0.6,328.861,M,-33.184,M,,0000*69
2025-05-10 08:28:13,884 - INFO - RTK Status: GPS Fix (Standard) | Satellites: 26 | Position: 4020.7219737,N 08007.7303847,W | Altitude: 328.062m
2025-05-10 08:28:13,884 - INFO - Last GGA Message: $GPGGA,122813.840,4020.7219737,N,08007.7303847,W,1,26,0.6,328.062,M,-33.184,M,,0000*6D
2025-05-10 08:28:14,664 - INFO - RTCM data received: 1024 bytes (Total: 9255 bytes)
2025-05-10 08:28:16,125 - INFO - First RTK Float achieved after 13.9s
2025-05-10 08:28:18,926 - INFO - RTK Status: RTK Float | Satellites: 27 | Position: 4020.7226204,N 08007.7271407,W | Altitude: 328.942m
2025-05-10 08:28:18,926 - INFO - Last GGA Message: $GPGGA,122818.880,4020.7226204,N,08007.7271407,W,5,27,0.6,328.942,M,-33.184,M,,0000*61
2025-05-10 08:28:19,648 - INFO - Sent GPGGA update: $GPGGA,092750.000,4020.7212606,N,08007.7235976,W,1,8,1.03,362.0,M,-33.184,M,,*52
2025-05-10 08:28:19,670 - INFO - RTCM data received: 263 bytes (Total: 17628 bytes)
2025-05-10 08:28:23,933 - INFO - RTK Status: RTK Float | Satellites: 26 | Position: 4020.7227305,N 08007.7270511,W | Altitude: 328.942m
2025-05-10 08:28:23,933 - INFO - Last GGA Message: $GPGGA,122823.880,4020.7227305,N,08007.7270511,W,5,26,0.6,328.942,M,-33.184,M,,0000*6E
2025-05-10 08:28:25,614 - INFO - RTCM data received: 1024 bytes (Total: 25037 bytes)
2025-05-10 08:28:28,933 - INFO - RTK Status: RTK Float | Satellites: 27 | Position: 4020.7227642,N 08007.7271004,W | Altitude: 328.611m
2025-05-10 08:28:28,933 - INFO - Last GGA Message: $GPGGA,122828.880,4020.7227642,N,08007.7271004,W,5,27,0.6,328.611,M,-33.184,M,,0000*6B
2025-05-10 08:28:30,129 - INFO - Sent GPGGA update: $GPGGA,092750.000,4020.7212606,N,08007.7235976,W,1,8,1.03,362.0,M,-33.184,M,,*52
2025-05-10 08:28:31,751 - INFO - RTCM data received: 1024 bytes (Total: 33501 bytes)
2025-05-10 08:28:33,973 - INFO - RTK Status: RTK Float | Satellites: 27 | Position: 4020.7226623,N 08007.7272062,W | Altitude: 328.727m
2025-05-10 08:28:33,973 - INFO - Last GGA Message: $GPGGA,122833.920,4020.7226623,N,08007.7272062,W,5,27,0.6,328.727,M,-33.184,M,,0000*6B
2025-05-10 08:28:36,752 - INFO - RTCM data received: 253 bytes (Total: 40251 bytes)
2025-05-10 08:28:38,973 - INFO - RTK Status: RTK Float | Satellites: 27 | Position: 4020.7226437,N 08007.7273062,W | Altitude: 328.341m
2025-05-10 08:28:38,973 - INFO - Last GGA Message: $GPGGA,122838.920,4020.7226437,N,08007.7273062,W,5,27,0.6,328.341,M,-33.184,M,,0000*62
2025-05-10 08:28:40,661 - INFO - Sent GPGGA update: $GPGGA,092750.000,4020.7212606,N,08007.7235976,W,1,8,1.03,362.0,M,-33.184,M,,*52
2025-05-10 08:28:41,126 - INFO - First RTK Fixed achieved after 38.9s
2025-05-10 08:28:42,145 - INFO - RTCM data received: 263 bytes (Total: 49516 bytes)
2025-05-10 08:28:44,003 - INFO - RTK Status: RTK Fixed | Satellites: 27 | Position: 4020.7225329,N 08007.7265161,W | Altitude: 329.106m
2025-05-10 08:28:44,003 - INFO - Last GGA Message: $GPGGA,122843.960,4020.7225329,N,08007.7265161,W,4,27,0.6,329.106,M,-33.184,M,,0000*65
2025-05-10 08:28:47,658 - INFO - RTCM data received: 253 bytes (Total: 56758 bytes)
2025-05-10 08:28:49,013 - INFO - RTK Status: RTK Fixed | Satellites: 27 | Position: 4020.7225315,N 08007.7265162,W | Altitude: 329.100m
2025-05-10 08:28:49,013 - INFO - Last GGA Message: $GPGGA,122848.960,4020.7225315,N,08007.7265162,W,4,27,0.6,329.100,M,-33.184,M,,0000*64
2025-05-10 08:28:51,547 - INFO - Sent GPGGA update: $GPGGA,092750.000,4020.7212606,N,08007.7235976,W,1,8,1.03,362.0,M,-33.184,M,,*52
2025-05-10 08:28:53,589 - INFO - RTCM data received: 1024 bytes (Total: 64995 bytes)
2025-05-10 08:28:54,105 - INFO - RTK Status: RTK Fixed | Satellites: 26 | Position: 4020.7225342,N 08007.7265056,W | Altitude: 328.998m
2025-05-10 08:28:54,105 - INFO - Last GGA Message: $GPGGA,122854.000,4020.7225342,N,08007.7265056,W,4,26,0.6,328.998,M,-33.100,M,1.000,0000*48
2025-05-10 08:28:58,662 - INFO - RTCM data received: 1024 bytes (Total: 71492 bytes)
2025-05-10 08:28:59,110 - INFO - RTK Status: RTK Fixed | Satellites: 27 | Position: 4020.7225332,N 08007.7265024,W | Altitude: 329.006m
2025-05-10 08:28:59,110 - INFO - Last GGA Message: $GPGGA,122859.000,4020.7225332,N,08007.7265024,W,4,27,0.6,329.006,M,-33.100,M,1.000,0000*49
2025-05-10 08:29:02,536 - INFO - Sent GPGGA update: $GPGGA,092750.000,4020.7212606,N,08007.7235976,W,1,8,1.03,362.0,M,-33.184,M,,*52
2025-05-10 08:29:03,671 - INFO - RTCM data received: 263 bytes (Total: 78810 bytes)
2025-05-10 08:29:04,117 - INFO - RTK Status: RTK Fixed | Satellites: 26 | Position: 4020.7225348,N 08007.7265024,W | Altitude: 328.998m
2025-05-10 08:29:04,117 - INFO - Last GGA Message: $GPGGA,122904.000,4020.7225348,N,08007.7265024,W,4,26,0.6,328.998,M,-33.100,M,1.000,0000*43
2025-05-10 08:29:08,785 - INFO - RTCM data received: 1024 bytes (Total: 85064 bytes)
2025-05-10 08:29:09,118 - INFO - RTK Status: RTK Fixed | Satellites: 27 | Position: 4020.7225356,N 08007.7265023,W | Altitude: 328.986m
2025-05-10 08:29:09,118 - INFO - Last GGA Message: $GPGGA,122909.000,4020.7225356,N,08007.7265023,W,4,27,0.6,328.986,M,-33.100,M,1.000,0000*48
2025-05-10 08:29:12,661 - INFO - Sent GPGGA update: $GPGGA,092750.000,4020.7212606,N,08007.7235976,W,1,8,1.03,362.0,M,-33.184,M,,*52
2025-05-10 08:29:14,130 - INFO - RTK Status: RTK Fixed | Satellites: 27 | Position: 4020.7225350,N 08007.7265003,W | Altitude: 328.984m
2025-05-10 08:29:14,130 - INFO - Last GGA Message: $GPGGA,122914.000,4020.7225350,N,08007.7265003,W,4,27,0.6,328.984,M,-33.100,M,1.000,0000*42
2025-05-10 08:29:14,734 - INFO - RTCM data received: 1024 bytes (Total: 94329 bytes)
2025-05-10 08:29:19,260 - INFO - RTK Status: RTK Fixed | Satellites: 27 | Position: 4020.7225354,N 08007.7264987,W | Altitude: 329.078m
2025-05-10 08:29:19,260 - INFO - Last GGA Message: $GPGGA,122919.040,4020.7225354,N,08007.7264987,W,4,27,0.6,329.078,M,-33.184,M,,0000*63
2025-05-10 08:29:19,749 - INFO - RTCM data received: 253 bytes (Total: 102682 bytes)
2025-05-10 08:29:23,134 - INFO - Sent GPGGA update: $GPGGA,092750.000,4020.7212606,N,08007.7235976,W,1,8,1.03,362.0,M,-33.184,M,,*52
2025-05-10 08:29:24,262 - INFO - RTK Status: RTK Fixed | Satellites: 27 | Position: 4020.7225349,N 08007.7264982,W | Altitude: 329.072m
2025-05-10 08:29:24,262 - INFO - Last GGA Message: $GPGGA,122924.040,4020.7225349,N,08007.7264982,W,4,27,0.6,329.072,M,-33.184,M,,0000*6E
2025-05-10 08:29:25,728 - INFO - RTCM data received: 1024 bytes (Total: 110111 bytes)
2025-05-10 08:29:29,269 - INFO - RTK Status: RTK Fixed | Satellites: 27 | Position: 4020.7225344,N 08007.7264975,W | Altitude: 329.069m
2025-05-10 08:29:29,269 - INFO - Last GGA Message: $GPGGA,053216.240,4020.7225344,N,08007.7264975,W,4,27,0.6,329.069,M,-33.184,M,,0000*6E
2025-05-10 08:29:30,628 - INFO - RTCM data received: 1024 bytes (Total: 116618 bytes)
2025-05-10 08:29:33,141 - INFO - Sent GPGGA update: $GPGGA,092750.000,4020.7212606,N,08007.7235976,W,1,8,1.03,362.0,M,-33.184,M,,*52
2025-05-10 08:29:34,278 - INFO - RTK Status: RTK Fixed | Satellites: 26 | Position: 4020.7225315,N 08007.7264962,W | Altitude: 329.076m
2025-05-10 08:29:34,278 - INFO - Last GGA Message: $GPGGA,122934.040,4020.7225315,N,08007.7264962,W,4,26,0.6,329.076,M,-33.184,M,,0000*6D
2025-05-10 08:29:35,750 - INFO - RTCM data received: 1024 bytes (Total: 123723 bytes)
2025-05-10 08:29:39,280 - INFO - RTK Status: RTK Fixed | Satellites: 27 | Position: 4020.7225344,N 08007.7265008,W | Altitude: 329.049m
2025-05-10 08:29:39,280 - INFO - Last GGA Message: $GPGGA,122939.040,4020.7225344,N,08007.7265008,W,4,27,0.6,329.049,M,-33.184,M,,0000*6D
2025-05-10 08:29:40,657 - INFO - RTCM data received: 946 bytes (Total: 132096 bytes)
2025-05-10 08:29:43,683 - INFO - Sent GPGGA update: $GPGGA,092750.000,4020.7212606,N,08007.7235976,W,1,8,1.03,362.0,M,-33.184,M,,*52
2025-05-10 08:29:44,287 - INFO - RTK Status: RTK Fixed | Satellites: 27 | Position: 4020.7225341,N 08007.7264964,W | Altitude: 329.065m
2025-05-10 08:29:44,287 - INFO - Last GGA Message: $GPGGA,122944.040,4020.7225341,N,08007.7264964,W,4,27,0.6,329.065,M,-33.184,M,,0000*6E
2025-05-10 08:29:46,560 - INFO - RTCM data received: 1024 bytes (Total: 140250 bytes)
2025-05-10 08:29:49,297 - INFO - RTK Status: RTK Fixed | Satellites: 28 | Position: 4020.7225318,N 08007.7264929,W | Altitude: 329.070m
2025-05-10 08:29:49,297 - INFO - Last GGA Message: $GPGGA,122949.080,4020.7225318,N,08007.7264929,W,4,28,0.5,329.070,M,-33.184,M,,0000*62
2025-05-10 08:29:51,605 - INFO - RTCM data received: 253 bytes (Total: 147838 bytes)
2025-05-10 08:29:54,298 - INFO - RTK Status: RTK Float | Satellites: 28 | Position: 4020.7225312,N 08007.7264919,W | Altitude: 329.073m
2025-05-10 08:29:54,298 - INFO - Last GGA Message: $GPGGA,122954.120,4020.7225312,N,08007.7264919,W,5,28,0.5,329.073,M,-33.184,M,,0000*6E
2025-05-10 08:29:54,641 - INFO - Sent GPGGA update: $GPGGA,092750.000,4020.7212606,N,08007.7235976,W,1,8,1.03,362.0,M,-33.184,M,,*52
2025-05-10 08:29:57,118 - INFO - RTCM data received: 491 bytes (Total: 155622 bytes)
2025-05-10 08:29:59,321 - INFO - RTK Status: RTK Fixed | Satellites: 28 | Position: 4020.7225312,N 08007.7264894,W | Altitude: 329.075m
2025-05-10 08:29:59,321 - INFO - Last GGA Message: $GPGGA,122959.160,4020.7225312,N,08007.7264894,W,4,28,0.5,329.075,M,-33.184,M,,0000*64
2025-05-10 08:30:02,119 - INFO - RTCM data received: 253 bytes (Total: 162677 bytes)
2025-05-10 08:30:04,333 - INFO - RTK Status: RTK Float | Satellites: 28 | Position: 4020.7225304,N 08007.7264888,W | Altitude: 329.077m
2025-05-10 08:30:04,333 - INFO - Last GGA Message: $GPGGA,123004.200,4020.7225304,N,08007.7264888,W,5,28,0.5,329.077,M,-33.184,M,,0000*68
2025-05-10 08:30:05,094 - INFO - Sent GPGGA update: $GPGGA,092750.000,4020.7212606,N,08007.7235976,W,1,8,1.03,362.0,M,-33.184,M,,*52
2025-05-10 08:30:07,636 - INFO - RTCM data received: 253 bytes (Total: 169174 bytes)
2025-05-10 08:30:09,337 - INFO - RTK Status: RTK Float | Satellites: 28 | Position: 4020.7225308,N 08007.7264894,W | Altitude: 329.069m
2025-05-10 08:30:09,337 - INFO - Last GGA Message: $GPGGA,123009.160,4020.7225308,N,08007.7264894,W,5,28,0.5,329.069,M,-33.184,M,,0000*6E
2025-05-10 08:30:12,720 - INFO - RTCM data received: 491 bytes (Total: 177162 bytes)
2025-05-10 08:30:14,362 - INFO - RTK Status: RTK Float | Satellites: 28 | Position: 4020.7225310,N 08007.7264877,W | Altitude: 329.073m
2025-05-10 08:30:14,362 - INFO - Last GGA Message: $GPGGA,123014.200,4020.7225310,N,08007.7264877,W,5,28,0.5,329.073,M,-33.184,M,,0000*68
2025-05-10 08:30:15,868 - INFO - Sent GPGGA update: $GPGGA,092750.000,4020.7212606,N,08007.7235976,W,1,8,1.03,362.0,M,-33.184,M,,*52
2025-05-10 08:30:18,719 - INFO - RTCM data received: 1024 bytes (Total: 185428 bytes)
2025-05-10 08:30:19,362 - INFO - RTK Status: RTK Float | Satellites: 27 | Position: 4020.7225305,N 08007.7264838,W | Altitude: 329.068m
2025-05-10 08:30:19,362 - INFO - Last GGA Message: $GPGGA,123019.200,4020.7225305,N,08007.7264838,W,5,27,0.6,329.068,M,-33.184,M,,0000*6C
2025-05-10 08:30:24,103 - INFO - RTCM data received: 395 bytes (Total: 193470 bytes)
2025-05-10 08:30:24,364 - INFO - RTK Status: RTK Float | Satellites: 28 | Position: 4020.7225300,N 08007.7264828,W | Altitude: 329.072m
2025-05-10 08:30:24,364 - INFO - Last GGA Message: $GPGGA,123024.280,4020.7225300,N,08007.7264828,W,5,28,0.5,329.072,M,-33.184,M,,0000*69
2025-05-10 08:30:26,117 - INFO - Sent GPGGA update: $GPGGA,092750.000,4020.7212606,N,08007.7235976,W,1,8,1.03,362.0,M,-33.184,M,,*52
2025-05-10 08:30:29,370 - INFO - RTK Status: RTK Float | Satellites: 28 | Position: 4020.7225323,N 08007.7264790,W | Altitude: 329.080m
2025-05-10 08:30:29,370 - INFO - Last GGA Message: $GPGGA,123029.280,4020.7225323,N,08007.7264790,W,5,28,0.5,329.080,M,-33.184,M,,0000*64
2025-05-10 08:30:29,734 - INFO - RTCM data received: 1024 bytes (Total: 200445 bytes)
2025-05-10 08:30:34,393 - INFO - RTK Status: RTK Float | Satellites: 27 | Position: 4020.7225358,N 08007.7264917,W | Altitude: 329.029m
2025-05-10 08:30:34,393 - INFO - Last GGA Message: $GPGGA,123034.320,4020.7225358,N,08007.7264917,W,5,27,0.6,329.029,M,-33.184,M,,0000*61
2025-05-10 08:30:35,709 - INFO - RTCM data received: 1024 bytes (Total: 208787 bytes)
2025-05-10 08:30:36,738 - INFO - Sent GPGGA update: $GPGGA,092750.000,4020.7212606,N,08007.7235976,W,1,8,1.03,362.0,M,-33.184,M,,*52
2025-05-10 08:30:39,401 - INFO - RTK Status: RTK Float | Satellites: 25 | Position: 4020.7225333,N 08007.7264904,W | Altitude: 329.024m
2025-05-10 08:30:39,401 - INFO - Last GGA Message: $GPGGA,123039.320,4020.7225333,N,08007.7264904,W,5,25,0.6,329.024,M,-33.184,M,,0000*6C
2025-05-10 08:30:41,072 - INFO - RTCM data received: 331 bytes (Total: 217471 bytes)
2025-05-10 08:30:44,417 - INFO - RTK Status: RTK Float | Satellites: 27 | Position: 4020.7225349,N 08007.7264916,W | Altitude: 329.022m
2025-05-10 08:30:44,417 - INFO - Last GGA Message: $GPGGA,123044.320,4020.7225349,N,08007.7264916,W,5,27,0.6,329.022,M,-33.184,M,,0000*6C
2025-05-10 08:30:45,708 - INFO - RTCM data received: 87 bytes (Total: 224069 bytes)
2025-05-10 08:30:47,718 - INFO - Sent GPGGA update: $GPGGA,092750.000,4020.7212606,N,08007.7235976,W,1,8,1.03,362.0,M,-33.184,M,,*52
2025-05-10 08:30:49,421 - INFO - RTK Status: RTK Float | Satellites: 27 | Position: 4020.7225343,N 08007.7264913,W | Altitude: 329.011m
2025-05-10 08:30:49,421 - INFO - Last GGA Message: $GPGGA,123049.320,4020.7225343,N,08007.7264913,W,5,27,0.5,329.011,M,-33.184,M,,0000*6D
2025-05-10 08:30:51,675 - INFO - RTCM data received: 1024 bytes (Total: 232649 bytes)
2025-05-10 08:30:54,423 - INFO - RTK Status: RTK Float | Satellites: 28 | Position: 4020.7225359,N 08007.7264932,W | Altitude: 328.998m
2025-05-10 08:30:54,423 - INFO - Last GGA Message: $GPGGA,123054.360,4020.7225359,N,08007.7264932,W,5,28,0.5,328.998,M,-33.184,M,,0000*6B
2025-05-10 08:30:57,117 - INFO - RTCM data received: 1024 bytes (Total: 240331 bytes)
2025-05-10 08:30:58,102 - INFO - Sent GPGGA update: $GPGGA,092750.000,4020.7212606,N,08007.7235976,W,1,8,1.03,362.0,M,-33.184,M,,*52
2025-05-10 08:30:59,423 - INFO - RTK Status: RTK Float | Satellites: 28 | Position: 4020.7225382,N 08007.7264958,W | Altitude: 328.992m
2025-05-10 08:30:59,423 - INFO - Last GGA Message: $GPGGA,123059.360,4020.7225382,N,08007.7264958,W,5,28,0.5,328.992,M,-33.184,M,,0000*66
2025-05-10 08:31:01,613 - INFO - RTCM data received: 253 bytes (Total: 246484 bytes)
2025-05-10 08:31:04,423 - INFO - RTK Status: RTK Float | Satellites: 28 | Position: 4020.7225366,N 08007.7264892,W | Altitude: 328.994m
2025-05-10 08:31:04,423 - INFO - Last GGA Message: $GPGGA,123104.360,4020.7225366,N,08007.7264892,W,5,28,0.5,328.994,M,-33.184,M,,0000*64
2025-05-10 08:31:06,715 - INFO - RTCM data received: 956 bytes (Total: 252889 bytes)
2025-05-10 08:31:08,643 - INFO - Sent GPGGA update: $GPGGA,092750.000,4020.7212606,N,08007.7235976,W,1,8,1.03,362.0,M,-33.184,M,,*52
2025-05-10 08:31:09,463 - INFO - RTK Status: RTK Float | Satellites: 28 | Position: 4020.7225386,N 08007.7264929,W | Altitude: 328.982m
2025-05-10 08:31:09,463 - INFO - Last GGA Message: $GPGGA,123109.400,4020.7225386,N,08007.7264929,W,5,28,0.5,328.982,M,-33.184,M,,0000*60
2025-05-10 08:31:12,589 - INFO - RTCM data received: 253 bytes (Total: 262235 bytes)
2025-05-10 08:31:14,473 - INFO - RTK Status: RTK Float | Satellites: 27 | Position: 4020.7225383,N 08007.7264861,W | Altitude: 328.981m
2025-05-10 08:31:14,474 - INFO - Last GGA Message: $GPGGA,123114.440,4020.7225383,N,08007.7264861,W,5,27,0.6,328.981,M,-33.184,M,,0000*6F
2025-05-10 08:31:17,681 - INFO - RTCM data received: 253 bytes (Total: 269365 bytes)
2025-05-10 08:31:18,644 - INFO - Sent GPGGA update: $GPGGA,092750.000,4020.7212606,N,08007.7235976,W,1,8,1.03,362.0,M,-33.184,M,,*52
2025-05-10 08:31:19,484 - INFO - RTK Status: RTK Float | Satellites: 27 | Position: 4020.7225380,N 08007.7264863,W | Altitude: 328.979m
2025-05-10 08:31:19,484 - INFO - Last GGA Message: $GPGGA,123119.440,4020.7225380,N,08007.7264863,W,5,27,0.6,328.979,M,-33.184,M,,0000*64
2025-05-10 08:31:23,653 - INFO - RTCM data received: 253 bytes (Total: 277967 bytes)
2025-05-10 08:31:24,516 - INFO - RTK Status: RTK Float | Satellites: 26 | Position: 4020.7225368,N 08007.7264866,W | Altitude: 328.975m
2025-05-10 08:31:24,516 - INFO - Last GGA Message: $GPGGA,123124.480,4020.7225368,N,08007.7264866,W,5,26,0.6,328.975,M,-33.184,M,,0000*68
2025-05-10 08:31:28,657 - INFO - Sent GPGGA update: $GPGGA,092750.000,4020.7212606,N,08007.7235976,W,1,8,1.03,362.0,M,-33.184,M,,*52
2025-05-10 08:31:29,111 - INFO - RTCM data received: 1024 bytes (Total: 285488 bytes)
2025-05-10 08:31:29,573 - INFO - RTK Status: RTK Float | Satellites: 27 | Position: 4020.7225416,N 08007.7264836,W | Altitude: 328.979m
2025-05-10 08:31:29,573 - INFO - Last GGA Message: $GPGGA,123129.520,4020.7225416,N,08007.7264836,W,5,27,0.6,328.979,M,-33.184,M,,0000*68
2025-05-10 08:31:34,614 - INFO - RTK Status: RTK Float | Satellites: 28 | Position: 4020.7225431,N 08007.7264850,W | Altitude: 328.970m
2025-05-10 08:31:34,614 - INFO - Last GGA Message: $GPGGA,123134.560,4020.7225431,N,08007.7264850,W,5,28,0.5,328.970,M,-33.184,M,,0000*60
2025-05-10 08:31:34,720 - INFO - RTCM data received: 331 bytes (Total: 291880 bytes)
2025-05-10 08:31:38,927 - INFO - Sent GPGGA update: $GPGGA,092750.000,4020.7212606,N,08007.7235976,W,1,8,1.03,362.0,M,-33.184,M,,*52
2025-05-10 08:31:39,663 - INFO - RTK Status: RTK Float | Satellites: 28 | Position: 4020.7225438,N 08007.7264857,W | Altitude: 328.970m
2025-05-10 08:31:39,664 - INFO - Last GGA Message: $GPGGA,123139.600,4020.7225438,N,08007.7264857,W,5,28,0.5,328.970,M,-33.184,M,,0000*66
2025-05-10 08:31:39,980 - INFO - RTCM data received: 1024 bytes (Total: 300869 bytes)
2025-05-10 08:31:44,704 - INFO - RTK Status: RTK Float | Satellites: 28 | Position: 4020.7225422,N 08007.7264833,W | Altitude: 328.962m
2025-05-10 08:31:44,704 - INFO - Last GGA Message: $GPGGA,123144.640,4020.7225422,N,08007.7264833,W,5,28,0.5,328.962,M,-33.184,M,,0000*62
2025-05-10 08:31:45,118 - INFO - RTCM data received: 1024 bytes (Total: 309035 bytes)
2025-05-10 08:31:49,700 - INFO - Sent GPGGA update: $GPGGA,092750.000,4020.7212606,N,08007.7235976,W,1,8,1.03,362.0,M,-33.184,M,,*52
2025-05-10 08:31:49,713 - INFO - RTK Status: RTK Float | Satellites: 28 | Position: 4020.7225414,N 08007.7264808,W | Altitude: 328.959m
2025-05-10 08:31:49,713 - INFO - Last GGA Message: $GPGGA,123149.680,4020.7225414,N,08007.7264808,W,5,28,0.5,328.959,M,-33.184,M,,0000*66
2025-05-10 08:31:50,122 - INFO - RTCM data received: 253 bytes (Total: 316668 bytes)
2025-05-10 08:31:54,722 - INFO - RTK Status: RTK Float | Satellites: 28 | Position: 4020.7225421,N 08007.7264802,W | Altitude: 328.963m
2025-05-10 08:31:54,723 - INFO - Last GGA Message: $GPGGA,123154.680,4020.7225421,N,08007.7264802,W,5,28,0.5,328.963,M,-33.184,M,,0000*6F
2025-05-10 08:31:55,559 - INFO - RTCM data received: 253 bytes (Total: 323073 bytes)
2025-05-10 08:31:59,728 - INFO - Sent GPGGA update: $GPGGA,092750.000,4020.7212606,N,08007.7235976,W,1,8,1.03,362.0,M,-33.184,M,,*52
2025-05-10 08:31:59,763 - INFO - RTK Status: RTK Float | Satellites: 28 | Position: 4020.7225430,N 08007.7264769,W | Altitude: 328.963m
2025-05-10 08:31:59,771 - INFO - Last GGA Message: $GPGGA,123159.720,4020.7225430,N,08007.7264769,W,5,28,0.5,328.963,M,-33.184,M,,0000*6B
2025-05-10 08:32:00,805 - INFO - RTCM data received: 1024 bytes (Total: 329317 bytes)
2025-05-10 08:32:04,773 - INFO - RTK Status: RTK Float | Satellites: 27 | Position: 4020.7225435,N 08007.7264740,W | Altitude: 328.945m
2025-05-10 08:32:04,773 - INFO - Last GGA Message: $GPGGA,123204.720,4020.7225435,N,08007.7264740,W,5,27,0.6,328.945,M,-33.184,M,,0000*66
2025-05-10 08:32:06,619 - INFO - RTCM data received: 331 bytes (Total: 336956 bytes)
2025-05-10 08:32:09,774 - INFO - RTK Status: RTK Float | Satellites: 27 | Position: 4020.7225444,N 08007.7264749,W | Altitude: 328.953m
2025-05-10 08:32:09,774 - INFO - Last GGA Message: $GPGGA,123209.720,4020.7225444,N,08007.7264749,W,5,27,0.6,328.953,M,-33.184,M,,0000*63
2025-05-10 08:32:09,788 - INFO - Sent GPGGA update: $GPGGA,092750.000,4020.7212606,N,08007.7235976,W,1,8,1.03,362.0,M,-33.184,M,,*52
2025-05-10 08:32:12,699 - INFO - RTCM data received: 1024 bytes (Total: 346965 bytes)
2025-05-10 08:32:14,813 - INFO - RTK Status: RTK Float | Satellites: 26 | Position: 4020.7225433,N 08007.7264750,W | Altitude: 328.949m
2025-05-10 08:32:14,813 - INFO - Last GGA Message: $GPGGA,123214.760,4020.7225433,N,08007.7264750,W,5,26,0.5,328.949,M,-33.184,M,,0000*6A
2025-05-10 08:32:17,118 - INFO - RTCM data received: 253 bytes (Total: 354348 bytes)
2025-05-10 08:32:19,797 - INFO - Sent GPGGA update: $GPGGA,092750.000,4020.7212606,N,08007.7235976,W,1,8,1.03,362.0,M,-33.184,M,,*52
2025-05-10 08:32:19,814 - INFO - RTK Status: RTK Float | Satellites: 26 | Position: 4020.7225465,N 08007.7264777,W | Altitude: 328.942m
2025-05-10 08:32:19,814 - INFO - Last GGA Message: $GPGGA,123219.760,4020.7225465,N,08007.7264777,W,5,26,0.6,328.942,M,-33.184,M,,0000*69
2025-05-10 08:32:22,118 - INFO - RTCM data received: 253 bytes (Total: 361673 bytes)
2025-05-10 08:32:24,863 - INFO - RTK Status: RTK Float | Satellites: 26 | Position: 4020.7225480,N 08007.7264747,W | Altitude: 328.942m
2025-05-10 08:32:24,863 - INFO - Last GGA Message: $GPGGA,123224.800,4020.7225480,N,08007.7264747,W,5,26,0.6,328.942,M,-33.184,M,,0000*66
2025-05-10 08:32:27,688 - INFO - RTCM data received: 1024 bytes (Total: 367815 bytes)
2025-05-10 08:32:29,864 - INFO - RTK Status: RTK Float | Satellites: 27 | Position: 4020.7225470,N 08007.7264722,W | Altitude: 328.937m
2025-05-10 08:32:29,864 - INFO - Last GGA Message: $GPGGA,123229.800,4020.7225470,N,08007.7264722,W,5,27,0.6,328.937,M,-33.184,M,,0000*64
2025-05-10 08:32:30,094 - INFO - Sent GPGGA update: $GPGGA,092750.000,4020.7212606,N,08007.7235976,W,1,8,1.03,362.0,M,-33.184,M,,*52
2025-05-10 08:32:33,635 - INFO - RTCM data received: 566 bytes (Total: 375801 bytes)
2025-05-10 08:32:34,873 - INFO - RTK Status: RTK Float | Satellites: 27 | Position: 4020.7225454,N 08007.7264700,W | Altitude: 328.938m
2025-05-10 08:32:34,874 - INFO - Last GGA Message: $GPGGA,123234.840,4020.7225454,N,08007.7264700,W,5,27,0.6,328.938,M,-33.184,M,,0000*65
2025-05-10 08:32:38,749 - INFO - RTCM data received: 1024 bytes (Total: 382664 bytes)
2025-05-10 08:32:39,924 - INFO - RTK Status: RTK Float | Satellites: 28 | Position: 4020.7225451,N 08007.7264717,W | Altitude: 328.936m
2025-05-10 08:32:39,924 - INFO - Last GGA Message: $GPGGA,123239.880,4020.7225451,N,08007.7264717,W,5,28,0.5,328.936,M,-33.184,M,,0000*65
2025-05-10 08:32:40,494 - INFO - Sent GPGGA update: $GPGGA,092750.000,4020.7212606,N,08007.7235976,W,1,8,1.03,362.0,M,-33.184,M,,*52
2025-05-10 08:32:43,776 - INFO - RTCM data received: 253 bytes (Total: 390956 bytes)
2025-05-10 08:32:44,963 - INFO - RTK Status: RTK Float | Satellites: 28 | Position: 4020.7225490,N 08007.7264707,W | Altitude: 328.936m
2025-05-10 08:32:44,964 - INFO - Last GGA Message: $GPGGA,123244.920,4020.7225490,N,08007.7264707,W,5,28,0.5,328.936,M,-33.184,M,,0000*68
2025-05-10 08:32:49,597 - INFO - RTCM data received: 1024 bytes (Total: 400060 bytes)
2025-05-10 08:32:49,966 - INFO - RTK Status: RTK Float | Satellites: 28 | Position: 4020.7225459,N 08007.7264679,W | Altitude: 328.942m
2025-05-10 08:32:49,966 - INFO - Last GGA Message: $GPGGA,123249.920,4020.7225459,N,08007.7264679,W,5,28,0.5,328.942,M,-33.184,M,,0000*6B
2025-05-10 08:32:51,124 - INFO - Sent GPGGA update: $GPGGA,092750.000,4020.7212606,N,08007.7235976,W,1,8,1.03,362.0,M,-33.184,M,,*52
2025-05-10 08:32:54,762 - INFO - RTCM data received: 1024 bytes (Total: 406445 bytes)
2025-05-10 08:32:55,013 - INFO - RTK Status: RTK Float | Satellites: 28 | Position: 4020.7225451,N 08007.7264726,W | Altitude: 328.938m
2025-05-10 08:32:55,013 - INFO - Last GGA Message: $GPGGA,123254.960,4020.7225451,N,08007.7264726,W,5,28,0.5,328.938,M,-33.184,M,,0000*6D
2025-05-10 08:32:59,692 - INFO - RTCM data received: 1024 bytes (Total: 412942 bytes)
2025-05-10 08:33:00,122 - INFO - RTK Status: RTK Float | Satellites: 27 | Position: 4020.7225463,N 08007.7264728,W | Altitude: 328.830m
2025-05-10 08:33:00,122 - INFO - Last GGA Message: $GPGGA,123300.000,4020.7225463,N,08007.7264728,W,5,27,0.6,328.830,M,-33.100,M,1.000,0000*4B
2025-05-10 08:33:01,717 - INFO - Sent GPGGA update: $GPGGA,092750.000,4020.7212606,N,08007.7235976,W,1,8,1.03,362.0,M,-33.184,M,,*52
2025-05-10 08:33:05,259 - INFO - RTK Status: RTK Float | Satellites: 26 | Position: 4020.7225474,N 08007.7264714,W | Altitude: 328.916m
2025-05-10 08:33:05,259 - INFO - Last GGA Message: $GPGGA,123305.040,4020.7225474,N,08007.7264714,W,5,26,0.6,328.916,M,-33.184,M,,0000*64
2025-05-10 08:33:05,569 - INFO - RTCM data received: 253 bytes (Total: 421527 bytes)
2025-05-10 08:33:10,273 - INFO - RTK Status: RTK Float | Satellites: 27 | Position: 4020.7225436,N 08007.7264693,W | Altitude: 328.911m
2025-05-10 08:33:10,274 - INFO - Last GGA Message: $GPGGA,123310.080,4020.7225436,N,08007.7264693,W,5,27,0.6,328.911,M,-33.184,M,,0000*62
2025-05-10 08:33:10,602 - INFO - RTCM data received: 253 bytes (Total: 429515 bytes)
2025-05-10 08:33:11,731 - INFO - Sent GPGGA update: $GPGGA,092750.000,4020.7212606,N,08007.7235976,W,1,8,1.03,362.0,M,-33.184,M,,*52
2025-05-10 08:33:15,282 - INFO - RTK Status: RTK Float | Satellites: 28 | Position: 4020.7225466,N 08007.7264730,W | Altitude: 328.901m
2025-05-10 08:33:15,282 - INFO - Last GGA Message: $GPGGA,123315.080,4020.7225466,N,08007.7264730,W,5,28,0.5,328.901,M,-33.184,M,,0000*67
2025-05-10 08:33:15,758 - INFO - RTCM data received: 253 bytes (Total: 436600 bytes)
2025-05-10 08:33:20,283 - INFO - RTK Status: RTK Float | Satellites: 28 | Position: 4020.7225454,N 08007.7264661,W | Altitude: 328.908m
2025-05-10 08:33:20,291 - INFO - Last GGA Message: $GPGGA,123320.080,4020.7225454,N,08007.7264661,W,5,28,0.5,328.908,M,-33.184,M,,0000*6C
2025-05-10 08:33:21,565 - INFO - RTCM data received: 87 bytes (Total: 445091 bytes)
2025-05-10 08:33:22,598 - INFO - Sent GPGGA update: $GPGGA,092750.000,4020.7212606,N,08007.7235976,W,1,8,1.03,362.0,M,-33.184,M,,*52
2025-05-10 08:33:25,298 - INFO - RTK Status: RTK Float | Satellites: 27 | Position: 4020.7225448,N 08007.7264626,W | Altitude: 328.917m
2025-05-10 08:33:25,383 - INFO - Last GGA Message: $GPGGA,123325.120,4020.7225448,N,08007.7264626,W,5,27,0.6,328.917,M,-33.184,M,,0000*6E
2025-05-10 08:33:27,744 - INFO - RTCM data received: 1024 bytes (Total: 452666 bytes)
2025-05-10 08:33:30,301 - INFO - RTK Status: RTK Float | Satellites: 27 | Position: 4020.7225469,N 08007.7264648,W | Altitude: 328.905m
2025-05-10 08:33:30,301 - INFO - Last GGA Message: $GPGGA,123330.120,4020.7225469,N,08007.7264648,W,5,27,0.6,328.905,M,-33.184,M,,0000*62
2025-05-10 08:33:32,631 - INFO - Sent GPGGA update: $GPGGA,092750.000,4020.7212606,N,08007.7235976,W,1,8,1.03,362.0,M,-33.184,M,,*52
2025-05-10 08:33:32,631 - INFO - RTCM data received: 253 bytes (Total: 460086 bytes)
2025-05-10 08:33:35,309 - INFO - RTK Status: RTK Float | Satellites: 27 | Position: 4020.7225472,N 08007.7264627,W | Altitude: 328.902m
2025-05-10 08:33:35,310 - INFO - Last GGA Message: $GPGGA,123335.160,4020.7225472,N,08007.7264627,W,5,27,0.6,328.902,M,-33.184,M,,0000*67
2025-05-10 08:33:38,997 - INFO - RTCM data received: 940 bytes (Total: 467582 bytes)
2025-05-10 08:33:40,322 - INFO - RTK Status: RTK Float | Satellites: 27 | Position: 4020.7225474,N 08007.7264615,W | Altitude: 328.901m
2025-05-10 08:33:40,322 - INFO - Last GGA Message: $GPGGA,123340.160,4020.7225474,N,08007.7264615,W,5,27,0.6,328.901,M,-33.184,M,,0000*61
2025-05-10 08:33:42,915 - INFO - Sent GPGGA update: $GPGGA,092750.000,4020.7212606,N,08007.7235976,W,1,8,1.03,362.0,M,-33.184,M,,*52
2025-05-10 08:33:43,639 - INFO - RTCM data received: 253 bytes (Total: 475736 bytes)
2025-05-10 08:33:45,340 - INFO - RTK Status: RTK Float | Satellites: 27 | Position: 4020.7225481,N 08007.7264609,W | Altitude: 328.888m
2025-05-10 08:33:45,341 - INFO - Last GGA Message: $GPGGA,123345.200,4020.7225481,N,08007.7264609,W,5,27,0.6,328.888,M,-33.184,M,,0000*66
2025-05-10 08:33:48,703 - INFO - RTCM data received: 253 bytes (Total: 482866 bytes)
2025-05-10 08:33:50,359 - INFO - RTK Status: RTK Float | Satellites: 27 | Position: 4020.7225516,N 08007.7264671,W | Altitude: 328.875m
2025-05-10 08:33:50,359 - INFO - Last GGA Message: $GPGGA,123350.240,4020.7225516,N,08007.7264671,W,5,27,0.5,328.875,M,-33.184,M,,0000*67
2025-05-10 08:33:53,144 - INFO - Sent GPGGA update: $GPGGA,092750.000,4020.7212606,N,08007.7235976,W,1,8,1.03,362.0,M,-33.184,M,,*52
2025-05-10 08:33:54,747 - INFO - RTCM data received: 1024 bytes (Total: 491225 bytes)
2025-05-10 08:33:55,362 - INFO - RTK Status: RTK Float | Satellites: 28 | Position: 4020.7225489,N 08007.7264645,W | Altitude: 328.866m
2025-05-10 08:33:55,362 - INFO - Last GGA Message: $GPGGA,123355.240,4020.7225489,N,08007.7264645,W,5,28,0.5,328.866,M,-33.184,M,,0000*6F
2025-05-10 08:33:59,696 - INFO - RTCM data received: 253 bytes (Total: 497985 bytes)
2025-05-10 08:34:00,379 - INFO - RTK Status: RTK Float | Satellites: 26 | Position: 4020.7225502,N 08007.7264650,W | Altitude: 328.864m
2025-05-10 08:34:00,379 - INFO - Last GGA Message: $GPGGA,123400.280,4020.7225502,N,08007.7264650,W,5,26,0.6,328.864,M,-33.184,M,,0000*6D
2025-05-10 08:34:03,580 - INFO - Sent GPGGA update: $GPGGA,092750.000,4020.7212606,N,08007.7235976,W,1,8,1.03,362.0,M,-33.184,M,,*52
2025-05-10 08:34:05,382 - INFO - RTK Status: RTK Float | Satellites: 27 | Position: 4020.7225516,N 08007.7264618,W | Altitude: 328.860m
2025-05-10 08:34:05,383 - INFO - Last GGA Message: $GPGGA,123405.280,4020.7225516,N,08007.7264618,W,5,27,0.6,328.860,M,-33.184,M,,0000*64
2025-05-10 08:34:05,640 - INFO - RTCM data received: 701 bytes (Total: 506297 bytes)
2025-05-10 08:34:10,400 - INFO - RTK Status: RTK Float | Satellites: 27 | Position: 4020.7225493,N 08007.7264589,W | Altitude: 328.856m
2025-05-10 08:34:10,400 - INFO - Last GGA Message: $GPGGA,123410.280,4020.7225493,N,08007.7264589,W,5,27,0.6,328.856,M,-33.184,M,,0000*62
2025-05-10 08:34:10,728 - INFO - RTCM data received: 253 bytes (Total: 514255 bytes)
2025-05-10 08:34:13,604 - INFO - Sent GPGGA update: $GPGGA,092750.000,4020.7212606,N,08007.7235976,W,1,8,1.03,362.0,M,-33.184,M,,*52
2025-05-10 08:34:15,418 - INFO - RTK Status: RTK Float | Satellites: 28 | Position: 4020.7225477,N 08007.7264587,W | Altitude: 328.869m
2025-05-10 08:34:15,419 - INFO - Last GGA Message: $GPGGA,123415.320,4020.7225477,N,08007.7264587,W,5,28,0.5,328.869,M,-33.184,M,,0000*68
2025-05-10 08:34:16,671 - INFO - RTCM data received: 946 bytes (Total: 522617 bytes)
2025-05-10 08:34:20,431 - INFO - RTK Status: RTK Float | Satellites: 28 | Position: 4020.7225492,N 08007.7264583,W | Altitude: 328.858m
2025-05-10 08:34:20,431 - INFO - Last GGA Message: $GPGGA,123420.360,4020.7225492,N,08007.7264583,W,5,28,0.5,328.858,M,-33.184,M,,0000*67
2025-05-10 08:34:21,681 - INFO - RTCM data received: 87 bytes (Total: 529831 bytes)
2025-05-10 08:34:23,648 - INFO - Sent GPGGA update: $GPGGA,092750.000,4020.7212606,N,08007.7235976,W,1,8,1.03,362.0,M,-33.184,M,,*52
2025-05-10 08:34:25,447 - INFO - RTK Status: RTK Float | Satellites: 27 | Position: 4020.7225476,N 08007.7264541,W | Altitude: 328.856m
2025-05-10 08:34:25,447 - INFO - Last GGA Message: $GPGGA,123425.400,4020.7225476,N,08007.7264541,W,5,27,0.6,328.856,M,-33.184,M,,0000*65
2025-05-10 08:34:27,669 - INFO - RTCM data received: 1024 bytes (Total: 537406 bytes)
2025-05-10 08:34:30,463 - INFO - RTK Status: RTK Float | Satellites: 27 | Position: 4020.7225516,N 08007.7264576,W | Altitude: 328.847m
2025-05-10 08:34:30,464 - INFO - Last GGA Message: $GPGGA,123430.400,4020.7225516,N,08007.7264576,W,5,27,0.6,328.847,M,-33.184,M,,0000*62
2025-05-10 08:34:33,663 - INFO - RTCM data received: 1024 bytes (Total: 545850 bytes)
2025-05-10 08:34:33,663 - INFO - Sent GPGGA update: $GPGGA,092750.000,4020.7212606,N,08007.7235976,W,1,8,1.03,362.0,M,-33.184,M,,*52
2025-05-10 08:34:35,487 - INFO - RTK Status: RTK Float | Satellites: 28 | Position: 4020.7225508,N 08007.7264548,W | Altitude: 328.845m
2025-05-10 08:34:35,487 - INFO - Last GGA Message: $GPGGA,123435.440,4020.7225508,N,08007.7264548,W,5,28,0.5,328.845,M,-33.184,M,,0000*6F
2025-05-10 08:34:38,721 - INFO - RTCM data received: 406 bytes (Total: 552641 bytes)
2025-05-10 08:34:40,523 - INFO - RTK Status: RTK Float | Satellites: 28 | Position: 4020.7225527,N 08007.7264579,W | Altitude: 328.839m
2025-05-10 08:34:40,524 - INFO - Last GGA Message: $GPGGA,123440.480,4020.7225527,N,08007.7264579,W,5,28,0.5,328.839,M,-33.184,M,,0000*65
2025-05-10 08:34:43,724 - INFO - Sent GPGGA update: $GPGGA,092750.000,4020.7212606,N,08007.7235976,W,1,8,1.03,362.0,M,-33.184,M,,*52
2025-05-10 08:34:43,724 - INFO - RTCM data received: 253 bytes (Total: 560496 bytes)
2025-05-10 08:34:45,573 - INFO - RTK Status: RTK Float | Satellites: 27 | Position: 4020.7225542,N 08007.7264519,W | Altitude: 328.831m
2025-05-10 08:34:45,573 - INFO - Last GGA Message: $GPGGA,123445.520,4020.7225542,N,08007.7264519,W,5,27,0.5,328.831,M,-33.184,M,,0000*69
2025-05-10 08:34:48,811 - INFO - RTCM data received: 381 bytes (Total: 567744 bytes)
2025-05-10 08:34:50,573 - INFO - RTK Status: RTK Float | Satellites: 28 | Position: 4020.7225542,N 08007.7264583,W | Altitude: 328.823m
2025-05-10 08:34:50,574 - INFO - Last GGA Message: $GPGGA,123450.520,4020.7225542,N,08007.7264583,W,5,28,0.5,328.823,M,-33.184,M,,0000*62
2025-05-10 08:34:54,609 - INFO - Sent GPGGA update: $GPGGA,092750.000,4020.7212606,N,08007.7235976,W,1,8,1.03,362.0,M,-33.184,M,,*52
2025-05-10 08:34:54,698 - INFO - RTCM data received: 1024 bytes (Total: 575925 bytes)
2025-05-10 08:34:55,613 - INFO - RTK Status: RTK Float | Satellites: 28 | Position: 4020.7225529,N 08007.7264540,W | Altitude: 328.833m
2025-05-10 08:34:55,613 - INFO - Last GGA Message: $GPGGA,123455.560,4020.7225529,N,08007.7264540,W,5,28,0.5,328.833,M,-33.184,M,,0000*60
2025-05-10 08:34:59,789 - INFO - RTCM data received: 278 bytes (Total: 582578 bytes)
2025-05-10 08:35:00,623 - INFO - RTK Status: RTK Float | Satellites: 28 | Position: 4020.7225536,N 08007.7264544,W | Altitude: 328.825m
2025-05-10 08:35:00,624 - INFO - Last GGA Message: $GPGGA,123500.560,4020.7225536,N,08007.7264544,W,5,28,0.5,328.825,M,-33.184,M,,0000*6C
2025-05-10 08:35:04,622 - INFO - Sent GPGGA update: $GPGGA,092750.000,4020.7212606,N,08007.7235976,W,1,8,1.03,362.0,M,-33.184,M,,*52
2025-05-10 08:35:05,647 - INFO - RTK Status: RTK Float | Satellites: 28 | Position: 4020.7225547,N 08007.7264507,W | Altitude: 328.825m
2025-05-10 08:35:05,647 - INFO - Last GGA Message: $GPGGA,123505.600,4020.7225547,N,08007.7264507,W,5,28,0.5,328.825,M,-33.184,M,,0000*6D
2025-05-10 08:35:05,648 - INFO - RTCM data received: 263 bytes (Total: 591007 bytes)
2025-05-10 08:35:10,673 - INFO - RTK Status: RTK Float | Satellites: 28 | Position: 4020.7225550,N 08007.7264495,W | Altitude: 328.814m
2025-05-10 08:35:10,674 - INFO - Last GGA Message: $GPGGA,123510.640,4020.7225550,N,08007.7264495,W,5,28,0.5,328.814,M,-33.184,M,,0000*63
2025-05-10 08:35:11,762 - INFO - RTCM data received: 1024 bytes (Total: 600019 bytes)
2025-05-10 08:35:14,761 - INFO - Sent GPGGA update: $GPGGA,092750.000,4020.7212606,N,08007.7235976,W,1,8,1.03,362.0,M,-33.184,M,,*52
2025-05-10 08:35:15,687 - INFO - RTK Status: RTK Float | Satellites: 28 | Position: 4020.7225537,N 08007.7264494,W | Altitude: 328.813m
2025-05-10 08:35:15,687 - INFO - Last GGA Message: $GPGGA,123515.640,4020.7225537,N,08007.7264494,W,5,28,0.5,328.813,M,-33.184,M,,0000*61
2025-05-10 08:35:17,707 - INFO - RTCM data received: 298 bytes (Total: 608679 bytes)
2025-05-10 08:35:20,713 - INFO - RTK Status: RTK Float | Satellites: 28 | Position: 4020.7225559,N 08007.7264494,W | Altitude: 328.811m
2025-05-10 08:35:20,713 - INFO - Last GGA Message: $GPGGA,123520.680,4020.7225559,N,08007.7264494,W,5,28,0.5,328.811,M,-33.184,M,,0000*61
2025-05-10 08:35:22,691 - INFO - RTCM data received: 253 bytes (Total: 616004 bytes)
2025-05-10 08:35:25,068 - INFO - Sent GPGGA update: $GPGGA,092750.000,4020.7212606,N,08007.7235976,W,1,8,1.03,362.0,M,-33.184,M,,*52
2025-05-10 08:35:25,732 - INFO - RTK Status: RTK Float | Satellites: 27 | Position: 4020.7225569,N 08007.7264481,W | Altitude: 328.808m
2025-05-10 08:35:25,733 - INFO - Last GGA Message: $GPGGA,123525.680,4020.7225569,N,08007.7264481,W,5,27,0.6,328.808,M,-33.184,M,,0000*67
2025-05-10 08:35:27,729 - INFO - RTCM data received: 243 bytes (Total: 622289 bytes)
2025-05-10 08:35:30,773 - INFO - RTK Status: RTK Float | Satellites: 27 | Position: 4020.7225535,N 08007.7264416,W | Altitude: 328.803m
2025-05-10 08:35:30,774 - INFO - Last GGA Message: $GPGGA,123530.720,4020.7225535,N,08007.7264416,W,5,27,0.6,328.803,M,-33.184,M,,0000*64
2025-05-10 08:35:33,114 - INFO - RTCM data received: 491 bytes (Total: 630553 bytes)
2025-05-10 08:35:35,594 - INFO - Sent GPGGA update: $GPGGA,092750.000,4020.7212606,N,08007.7235976,W,1,8,1.03,362.0,M,-33.184,M,,*52
2025-05-10 08:35:35,813 - INFO - RTK Status: RTK Float | Satellites: 26 | Position: 4020.7225551,N 08007.7264406,W | Altitude: 328.798m
2025-05-10 08:35:35,814 - INFO - Last GGA Message: $GPGGA,123535.760,4020.7225551,N,08007.7264406,W,5,26,0.6,328.798,M,-33.184,M,,0000*6A
2025-05-10 08:35:38,788 - INFO - RTCM data received: 1024 bytes (Total: 636545 bytes)
2025-05-10 08:35:40,823 - INFO - RTK Status: RTK Float | Satellites: 27 | Position: 4020.7225544,N 08007.7264431,W | Altitude: 328.777m
2025-05-10 08:35:40,823 - INFO - Last GGA Message: $GPGGA,123540.760,4020.7225544,N,08007.7264431,W,5,27,0.6,328.777,M,-33.184,M,,0000*68
2025-05-10 08:35:44,126 - INFO - RTCM data received: 922 bytes (Total: 645793 bytes)
2025-05-10 08:35:45,621 - INFO - Sent GPGGA update: $GPGGA,092750.000,4020.7212606,N,08007.7235976,W,1,8,1.03,362.0,M,-33.184,M,,*52
2025-05-10 08:35:45,823 - INFO - RTK Status: RTK Float | Satellites: 27 | Position: 4020.7225524,N 08007.7264423,W | Altitude: 328.785m
2025-05-10 08:35:45,824 - INFO - Last GGA Message: $GPGGA,123545.760,4020.7225524,N,08007.7264423,W,5,27,0.6,328.785,M,-33.184,M,,0000*65
2025-05-10 08:35:49,593 - INFO - RTCM data received: 491 bytes (Total: 653551 bytes)
2025-05-10 08:35:50,863 - INFO - RTK Status: RTK Float | Satellites: 25 | Position: 4020.7225560,N 08007.7264458,W | Altitude: 328.783m
2025-05-10 08:35:50,864 - INFO - Last GGA Message: $GPGGA,123550.800,4020.7225560,N,08007.7264458,W,5,25,0.6,328.783,M,-33.184,M,,0000*60
2025-05-10 08:35:54,697 - INFO - RTCM data received: 687 bytes (Total: 659848 bytes)
2025-05-10 08:35:55,658 - INFO - Sent GPGGA update: $GPGGA,092750.000,4020.7212606,N,08007.7235976,W,1,8,1.03,362.0,M,-33.184,M,,*52
2025-05-10 08:35:55,873 - INFO - RTK Status: RTK Float | Satellites: 28 | Position: 4020.7225547,N 08007.7264371,W | Altitude: 328.783m
2025-05-10 08:35:55,873 - INFO - Last GGA Message: $GPGGA,123555.840,4020.7225547,N,08007.7264371,W,5,28,0.5,328.783,M,-33.184,M,,0000*66
2025-05-10 08:35:59,766 - INFO - RTCM data received: 1024 bytes (Total: 665820 bytes)
2025-05-10 08:36:00,883 - INFO - RTK Status: RTK Float | Satellites: 28 | Position: 4020.7225525,N 08007.7264336,W | Altitude: 328.793m
2025-05-10 08:36:00,883 - INFO - Last GGA Message: $GPGGA,123600.840,4020.7225525,N,08007.7264336,W,5,28,0.5,328.793,M,-33.184,M,,0000*63
2025-05-10 08:36:05,682 - INFO - RTCM data received: 1024 bytes (Total: 674064 bytes)
2025-05-10 08:36:05,682 - INFO - Sent GPGGA update: $GPGGA,092750.000,4020.7212606,N,08007.7235976,W,1,8,1.03,362.0,M,-33.184,M,,*52
2025-05-10 08:36:05,932 - INFO - RTK Status: RTK Float | Satellites: 28 | Position: 4020.7225569,N 08007.7264333,W | Altitude: 328.780m
2025-05-10 08:36:05,933 - INFO - Last GGA Message: $GPGGA,123605.880,4020.7225569,N,08007.7264333,W,5,28,0.5,328.780,M,-33.184,M,,0000*65
2025-05-10 08:36:10,973 - INFO - RTK Status: RTK Float | Satellites: 28 | Position: 4020.7225551,N 08007.7264381,W | Altitude: 328.768m
2025-05-10 08:36:10,973 - INFO - Last GGA Message: $GPGGA,123610.920,4020.7225551,N,08007.7264381,W,5,28,0.5,328.768,M,-33.184,M,,0000*6E
2025-05-10 08:36:11,756 - INFO - RTCM data received: 1024 bytes (Total: 683109 bytes)
2025-05-10 08:36:15,973 - INFO - RTK Status: RTK Float | Satellites: 28 | Position: 4020.7225552,N 08007.7264367,W | Altitude: 328.777m
2025-05-10 08:36:15,973 - INFO - Last GGA Message: $GPGGA,123615.920,4020.7225552,N,08007.7264367,W,5,28,0.5,328.777,M,-33.184,M,,0000*6E
2025-05-10 08:36:16,112 - INFO - Sent GPGGA update: $GPGGA,092750.000,4020.7212606,N,08007.7235976,W,1,8,1.03,362.0,M,-33.184,M,,*52
2025-05-10 08:36:17,120 - INFO - RTCM data received: 213 bytes (Total: 691444 bytes)
2025-05-10 08:36:20,983 - INFO - RTK Status: RTK Float | Satellites: 28 | Position: 4020.7225560,N 08007.7264304,W | Altitude: 328.779m
2025-05-10 08:36:20,983 - INFO - Last GGA Message: $GPGGA,123620.920,4020.7225560,N,08007.7264304,W,5,28,0.5,328.779,M,-33.184,M,,0000*62
2025-05-10 08:36:22,538 - INFO - RTCM data received: 213 bytes (Total: 698614 bytes)
2025-05-10 08:36:26,117 - INFO - Sent GPGGA update: $GPGGA,092750.000,4020.7212606,N,08007.7235976,W,1,8,1.03,362.0,M,-33.184,M,,*52
2025-05-10 08:36:26,127 - INFO - RTK Status: RTK Float | Satellites: 27 | Position: 4020.7225586,N 08007.7264337,W | Altitude: 328.668m
2025-05-10 08:36:26,127 - INFO - Last GGA Message: $GPGGA,123626.000,4020.7225586,N,08007.7264337,W,5,27,0.6,328.668,M,-33.100,M,1.000,0000*49
2025-05-10 08:36:27,611 - INFO - RTCM data received: 213 bytes (Total: 704799 bytes)
2025-05-10 08:36:31,128 - INFO - RTK Status: RTK Float | Satellites: 28 | Position: 4020.7225578,N 08007.7264311,W | Altitude: 328.668m
2025-05-10 08:36:31,128 - INFO - Last GGA Message: $GPGGA,123631.000,4020.7225578,N,08007.7264311,W,5,28,0.5,328.668,M,-33.100,M,1.000,0000*46
2025-05-10 08:36:33,739 - INFO - RTCM data received: 1024 bytes (Total: 712790 bytes)
2025-05-10 08:36:36,265 - INFO - RTK Status: RTK Float | Satellites: 27 | Position: 4020.7225524,N 08007.7264322,W | Altitude: 328.768m
2025-05-10 08:36:36,266 - INFO - Last GGA Message: $GPGGA,053923.240,4020.7225524,N,08007.7264322,W,5,27,0.5,328.768,M,-33.184,M,,0000*6E
2025-05-10 08:36:36,615 - INFO - Sent GPGGA update: $GPGGA,092750.000,4020.7212606,N,08007.7235976,W,1,8,1.03,362.0,M,-33.184,M,,*52
2025-05-10 08:36:38,668 - INFO - RTCM data received: 213 bytes (Total: 719188 bytes)
2025-05-10 08:36:41,276 - INFO - RTK Status: RTK Float | Satellites: 28 | Position: 4020.7225519,N 08007.7264298,W | Altitude: 328.766m
2025-05-10 08:36:41,277 - INFO - Last GGA Message: $GPGGA,123641.040,4020.7225519,N,08007.7264298,W,5,28,0.5,328.766,M,-33.184,M,,0000*6E
2025-05-10 08:36:43,683 - INFO - RTCM data received: 213 bytes (Total: 726976 bytes)
2025-05-10 08:36:46,283 - INFO - RTK Status: RTK Float | Satellites: 28 | Position: 4020.7225504,N 08007.7264296,W | Altitude: 328.764m
2025-05-10 08:36:46,283 - INFO - Last GGA Message: $GPGGA,123646.040,4020.7225504,N,08007.7264296,W,5,28,0.5,328.764,M,-33.184,M,,0000*69
2025-05-10 08:36:47,607 - INFO - Sent GPGGA update: $GPGGA,092750.000,4020.7212606,N,08007.7235976,W,1,8,1.03,362.0,M,-33.184,M,,*52
2025-05-10 08:36:48,711 - INFO - RTCM data received: 213 bytes (Total: 733906 bytes)
2025-05-10 08:36:51,303 - INFO - RTK Status: RTK Float | Satellites: 28 | Position: 4020.7225502,N 08007.7264297,W | Altitude: 328.777m
2025-05-10 08:36:51,303 - INFO - Last GGA Message: $GPGGA,123651.080,4020.7225502,N,08007.7264297,W,5,28,0.5,328.777,M,-33.184,M,,0000*66
2025-05-10 08:36:54,138 - INFO - RTCM data received: 213 bytes (Total: 742268 bytes)
2025-05-10 08:36:56,303 - INFO - RTK Status: RTK Float | Satellites: 28 | Position: 4020.7225428,N 08007.7264271,W | Altitude: 328.768m
2025-05-10 08:36:56,303 - INFO - Last GGA Message: $GPGGA,123656.080,4020.7225428,N,08007.7264271,W,5,28,0.5,328.768,M,-33.184,M,,0000*6E
2025-05-10 08:36:58,118 - INFO - Sent GPGGA update: $GPGGA,092750.000,4020.7212606,N,08007.7235976,W,1,8,1.03,362.0,M,-33.184,M,,*52
2025-05-10 08:36:59,583 - INFO - RTCM data received: 213 bytes (Total: 748463 bytes)
2025-05-10 08:37:01,315 - INFO - RTK Status: RTK Float | Satellites: 28 | Position: 4020.7225427,N 08007.7264262,W | Altitude: 328.759m
2025-05-10 08:37:01,315 - INFO - Last GGA Message: $GPGGA,123701.080,4020.7225427,N,08007.7264262,W,5,28,0.5,328.759,M,-33.184,M,,0000*62
2025-05-10 08:37:04,659 - INFO - RTCM data received: 213 bytes (Total: 755430 bytes)
2025-05-10 08:37:06,327 - INFO - RTK Status: RTK Float | Satellites: 28 | Position: 4020.7225395,N 08007.7264304,W | Altitude: 328.756m
2025-05-10 08:37:06,328 - INFO - Last GGA Message: $GPGGA,123706.120,4020.7225395,N,08007.7264304,W,5,28,0.5,328.756,M,-33.184,M,,0000*6E
2025-05-10 08:37:08,818 - INFO - Sent GPGGA update: $GPGGA,092750.000,4020.7212606,N,08007.7235976,W,1,8,1.03,362.0,M,-33.184,M,,*52
2025-05-10 08:37:09,813 - INFO - RTCM data received: 213 bytes (Total: 762278 bytes)
2025-05-10 08:37:11,329 - INFO - RTK Status: RTK Float | Satellites: 27 | Position: 4020.7225365,N 08007.7264259,W | Altitude: 328.766m
2025-05-10 08:37:11,330 - INFO - Last GGA Message: $GPGGA,123711.120,4020.7225365,N,08007.7264259,W,5,27,0.6,328.766,M,-33.184,M,,0000*61
2025-05-10 08:37:15,662 - INFO - RTCM data received: 1024 bytes (Total: 771127 bytes)
2025-05-10 08:37:16,336 - INFO - RTK Status: RTK Float | Satellites: 28 | Position: 4020.7225352,N 08007.7264271,W | Altitude: 328.765m
2025-05-10 08:37:16,336 - INFO - Last GGA Message: $GPGGA,123716.200,4020.7225352,N,08007.7264271,W,5,28,0.5,328.765,M,-33.184,M,,0000*66
2025-05-10 08:37:19,027 - INFO - Sent GPGGA update: $GPGGA,092750.000,4020.7212606,N,08007.7235976,W,1,8,1.03,362.0,M,-33.184,M,,*52
2025-05-10 08:37:20,099 - INFO - RTCM data received: 206 bytes (Total: 777957 bytes)
2025-05-10 08:37:21,337 - INFO - RTK Status: RTK Float | Satellites: 28 | Position: 4020.7225237,N 08007.7264270,W | Altitude: 328.770m
2025-05-10 08:37:21,337 - INFO - Last GGA Message: $GPGGA,123721.200,4020.7225237,N,08007.7264270,W,5,28,0.5,328.770,M,-33.184,M,,0000*65
2025-05-10 08:37:25,662 - INFO - RTCM data received: 746 bytes (Total: 784254 bytes)
2025-05-10 08:37:26,346 - INFO - RTK Status: RTK Float | Satellites: 28 | Position: 4020.7225239,N 08007.7264281,W | Altitude: 328.759m
2025-05-10 08:37:26,346 - INFO - Last GGA Message: $GPGGA,123726.200,4020.7225239,N,08007.7264281,W,5,28,0.5,328.759,M,-33.184,M,,0000*69
2025-05-10 08:37:29,687 - INFO - Sent GPGGA update: $GPGGA,092750.000,4020.7212606,N,08007.7235976,W,1,8,1.03,362.0,M,-33.184,M,,*52
2025-05-10 08:37:31,346 - INFO - RTK Status: RTK Float | Satellites: 28 | Position: 4020.7225233,N 08007.7264248,W | Altitude: 328.755m
2025-05-10 08:37:31,347 - INFO - Last GGA Message: $GPGGA,123731.160,4020.7225233,N,08007.7264248,W,5,28,0.5,328.755,M,-33.184,M,,0000*69
2025-05-10 08:37:31,635 - INFO - RTCM data received: 1024 bytes (Total: 792746 bytes)
2025-05-10 08:37:36,363 - INFO - RTK Status: RTK Float | Satellites: 27 | Position: 4020.7225196,N 08007.7264234,W | Altitude: 328.757m
2025-05-10 08:37:36,363 - INFO - Last GGA Message: $GPGGA,123736.240,4020.7225196,N,08007.7264234,W,5,27,0.6,328.757,M,-33.184,M,,0000*66
2025-05-10 08:37:36,735 - INFO - RTCM data received: 1024 bytes (Total: 798931 bytes)
2025-05-10 08:37:39,723 - INFO - Sent GPGGA update: $GPGGA,092750.000,4020.7212606,N,08007.7235976,W,1,8,1.03,362.0,M,-33.184,M,,*52
2025-05-10 08:37:41,378 - INFO - RTK Status: RTK Float | Satellites: 28 | Position: 4020.7225178,N 08007.7264267,W | Altitude: 328.754m
2025-05-10 08:37:41,379 - INFO - Last GGA Message: $GPGGA,123741.280,4020.7225178,N,08007.7264267,W,5,28,0.5,328.754,M,-33.184,M,,0000*63
2025-05-10 08:37:41,583 - INFO - RTCM data received: 213 bytes (Total: 806932 bytes)
2025-05-10 08:37:46,397 - INFO - RTK Status: RTK Float | Satellites: 28 | Position: 4020.7225147,N 08007.7264265,W | Altitude: 328.743m
2025-05-10 08:37:46,397 - INFO - Last GGA Message: $GPGGA,123746.320,4020.7225147,N,08007.7264265,W,5,28,0.5,328.743,M,-33.184,M,,0000*67
2025-05-10 08:37:47,036 - ERROR - Error reading NMEA: device reports readiness to read but returned no data (device disconnected or multiple access on port?)
2025-05-10 08:37:47,036 - INFO - Serial port closed
2025-05-10 08:37:47,643 - ERROR - Error receiving data: Attempting to use a port that is not open
2025-05-10 08:37:47,643 - INFO - NTRIP connection closed
2025-05-10 08:37:47,643 - INFO - Connection closed. Reconnecting in 5 seconds...
2025-05-10 08:37:52,643 - INFO - Verifying mountpoint availability...
2025-05-10 08:37:52,643 - INFO - Connecting to rtk2go.com:2101 for source table...
2025-05-10 08:37:52,738 - INFO - Connected to rtk2go.com:2101
2025-05-10 08:37:52,738 - INFO - Sent source table request
2025-05-10 08:37:52,948 - INFO - Mountpoint 'cmuairlab01' found in source table!
2025-05-10 08:37:52,948 - INFO - Waiting 2 seconds before connecting...
2025-05-10 08:37:54,949 - INFO - Connecting to rtk2go.com:2101...
2025-05-10 08:37:54,983 - INFO - Connected to rtk2go.com:2101
2025-05-10 08:37:54,983 - INFO - Sending NTRIP request headers...
2025-05-10 08:37:58,617 - INFO - Server response: ICY 200 OK
2025-05-10 08:37:58,617 - INFO - NTRIP server connected successfully
2025-05-10 08:37:58,617 - ERROR - Error opening serial port: [Errno 2] could not open port /dev/ttyUSB0: [Errno 2] No such file or directory: '/dev/ttyUSB0'
2025-05-10 08:37:58,617 - ERROR - Check GPS connection and port settings (/dev/ttyUSB1 expected).
2025-05-10 08:37:58,618 - INFO - NTRIP connection closed
2025-05-10 08:37:58,618 - INFO - Connection closed. Reconnecting in 5 seconds...
2025-05-10 08:38:03,618 - INFO - Verifying mountpoint availability...
2025-05-10 08:38:03,618 - INFO - Connecting to rtk2go.com:2101 for source table...
2025-05-10 08:38:03,658 - INFO - Connected to rtk2go.com:2101
2025-05-10 08:38:03,658 - INFO - Sent source table request
2025-05-10 08:38:04,002 - INFO - Mountpoint 'cmuairlab01' found in source table!
2025-05-10 08:38:04,002 - INFO - Waiting 2 seconds before connecting...
2025-05-10 08:38:06,002 - INFO - Connecting to rtk2go.com:2101...
2025-05-10 08:38:06,036 - INFO - Connected to rtk2go.com:2101
2025-05-10 08:38:06,036 - INFO - Sending NTRIP request headers...
2025-05-10 08:38:08,864 - INFO - Server response: ICY 200 OK
2025-05-10 08:38:08,864 - INFO - NTRIP server connected successfully
2025-05-10 08:38:08,864 - ERROR - Error opening serial port: [Errno 2] could not open port /dev/ttyUSB0: [Errno 2] No such file or directory: '/dev/ttyUSB0'
2025-05-10 08:38:08,865 - ERROR - Check GPS connection and port settings (/dev/ttyUSB1 expected).
2025-05-10 08:38:08,865 - INFO - NTRIP connection closed
2025-05-10 08:38:08,865 - INFO - Connection closed. Reconnecting in 5 seconds...
2025-05-10 08:38:13,865 - INFO - Verifying mountpoint availability...
2025-05-10 08:38:13,865 - INFO - Connecting to rtk2go.com:2101 for source table...
2025-05-10 08:38:13,905 - INFO - Connected to rtk2go.com:2101
2025-05-10 08:38:13,905 - INFO - Sent source table request
2025-05-10 08:38:14,121 - INFO - Mountpoint 'cmuairlab01' found in source table!
2025-05-10 08:38:14,121 - INFO - Waiting 2 seconds before connecting...
2025-05-10 08:38:16,121 - INFO - Connecting to rtk2go.com:2101...
2025-05-10 08:38:16,157 - INFO - Connected to rtk2go.com:2101
2025-05-10 08:38:16,157 - INFO - Sending NTRIP request headers...
2025-05-10 08:38:19,613 - INFO - Server response: ICY 200 OK
2025-05-10 08:38:19,613 - INFO - NTRIP server connected successfully
2025-05-10 08:38:19,613 - ERROR - Error opening serial port: [Errno 2] could not open port /dev/ttyUSB0: [Errno 2] No such file or directory: '/dev/ttyUSB0'
2025-05-10 08:38:19,613 - ERROR - Check GPS connection and port settings (/dev/ttyUSB1 expected).
2025-05-10 08:38:19,614 - INFO - NTRIP connection closed
2025-05-10 08:38:19,614 - INFO - Connection closed. Reconnecting in 5 seconds...
2025-05-10 08:38:24,614 - INFO - Verifying mountpoint availability...
2025-05-10 08:38:24,614 - INFO - Connecting to rtk2go.com:2101 for source table...
2025-05-10 08:38:24,647 - INFO - Connected to rtk2go.com:2101
2025-05-10 08:38:24,647 - INFO - Sent source table request
2025-05-10 08:38:24,926 - INFO - Mountpoint 'cmuairlab01' found in source table!
2025-05-10 08:38:24,927 - INFO - Waiting 2 seconds before connecting...
2025-05-10 08:38:26,927 - INFO - Connecting to rtk2go.com:2101...
2025-05-10 08:38:26,959 - INFO - Connected to rtk2go.com:2101
2025-05-10 08:38:26,959 - INFO - Sending NTRIP request headers...
2025-05-10 08:38:30,678 - INFO - Server response: ICY 200 OK
2025-05-10 08:38:30,678 - INFO - NTRIP server connected successfully
2025-05-10 08:38:30,678 - ERROR - Error opening serial port: [Errno 2] could not open port /dev/ttyUSB0: [Errno 2] No such file or directory: '/dev/ttyUSB0'
2025-05-10 08:38:30,678 - ERROR - Check GPS connection and port settings (/dev/ttyUSB1 expected).
2025-05-10 08:38:30,679 - INFO - NTRIP connection closed
2025-05-10 08:38:30,679 - INFO - Connection closed. Reconnecting in 5 seconds...
2025-05-10 08:38:35,679 - INFO - Verifying mountpoint availability...
2025-05-10 08:38:35,679 - INFO - Connecting to rtk2go.com:2101 for source table...
2025-05-10 08:38:35,714 - INFO - Connected to rtk2go.com:2101
2025-05-10 08:38:35,714 - INFO - Sent source table request
2025-05-10 08:38:35,925 - INFO - Mountpoint 'cmuairlab01' found in source table!
2025-05-10 08:38:35,925 - INFO - Waiting 2 seconds before connecting...
2025-05-10 08:38:37,925 - INFO - Connecting to rtk2go.com:2101...
2025-05-10 08:38:37,968 - INFO - Connected to rtk2go.com:2101
2025-05-10 08:38:37,968 - INFO - Sending NTRIP request headers...
2025-05-10 08:38:40,655 - INFO - Server response: ICY 200 OK
2025-05-10 08:38:40,655 - INFO - NTRIP server connected successfully
2025-05-10 08:38:40,655 - ERROR - Error opening serial port: [Errno 2] could not open port /dev/ttyUSB0: [Errno 2] No such file or directory: '/dev/ttyUSB0'
2025-05-10 08:38:40,655 - ERROR - Check GPS connection and port settings (/dev/ttyUSB1 expected).
2025-05-10 08:38:40,655 - INFO - NTRIP connection closed
2025-05-10 08:38:40,655 - INFO - Connection closed. Reconnecting in 5 seconds...
2025-05-10 08:38:45,655 - INFO - Verifying mountpoint availability...
2025-05-10 08:38:45,656 - INFO - Connecting to rtk2go.com:2101 for source table...
2025-05-10 08:38:45,693 - INFO - Connected to rtk2go.com:2101
2025-05-10 08:38:45,693 - INFO - Sent source table request
2025-05-10 08:38:45,952 - INFO - Mountpoint 'cmuairlab01' found in source table!
2025-05-10 08:38:45,952 - INFO - Waiting 2 seconds before connecting...
2025-05-10 08:38:47,952 - INFO - Connecting to rtk2go.com:2101...
2025-05-10 08:38:47,990 - INFO - Connected to rtk2go.com:2101
2025-05-10 08:38:47,990 - INFO - Sending NTRIP request headers...
2025-05-10 08:38:50,477 - INFO - Server response: ICY 200 OK
2025-05-10 08:38:50,477 - INFO - NTRIP server connected successfully
2025-05-10 08:38:50,477 - ERROR - Error opening serial port: [Errno 2] could not open port /dev/ttyUSB0: [Errno 2] No such file or directory: '/dev/ttyUSB0'
2025-05-10 08:38:50,477 - ERROR - Check GPS connection and port settings (/dev/ttyUSB1 expected).
2025-05-10 08:38:50,477 - INFO - NTRIP connection closed
2025-05-10 08:38:50,477 - INFO - Connection closed. Reconnecting in 5 seconds...
2025-05-10 08:38:55,477 - INFO - Verifying mountpoint availability...
2025-05-10 08:38:55,478 - INFO - Connecting to rtk2go.com:2101 for source table...
2025-05-10 08:38:55,506 - INFO - Connected to rtk2go.com:2101
2025-05-10 08:38:55,507 - INFO - Sent source table request
2025-05-10 08:38:55,862 - INFO - Mountpoint 'cmuairlab01' found in source table!
2025-05-10 08:38:55,862 - INFO - Waiting 2 seconds before connecting...
2025-05-10 08:38:57,862 - INFO - Connecting to rtk2go.com:2101...
2025-05-10 08:38:57,894 - INFO - Connected to rtk2go.com:2101
2025-05-10 08:38:57,894 - INFO - Sending NTRIP request headers...
2025-05-10 08:39:00,722 - INFO - Server response: ICY 200 OK
2025-05-10 08:39:00,722 - INFO - NTRIP server connected successfully
2025-05-10 08:39:00,723 - ERROR - Error opening serial port: [Errno 2] could not open port /dev/ttyUSB0: [Errno 2] No such file or directory: '/dev/ttyUSB0'
2025-05-10 08:39:00,723 - ERROR - Check GPS connection and port settings (/dev/ttyUSB1 expected).
2025-05-10 08:39:00,723 - INFO - NTRIP connection closed
2025-05-10 08:39:00,723 - INFO - Connection closed. Reconnecting in 5 seconds...
2025-05-10 08:39:05,723 - INFO - Verifying mountpoint availability...
2025-05-10 08:39:05,723 - INFO - Connecting to rtk2go.com:2101 for source table...
2025-05-10 08:39:05,750 - INFO - Connected to rtk2go.com:2101
2025-05-10 08:39:05,750 - INFO - Sent source table request
2025-05-10 08:39:05,916 - INFO - Mountpoint 'cmuairlab01' found in source table!
2025-05-10 08:39:05,916 - INFO - Waiting 2 seconds before connecting...
2025-05-10 08:39:07,916 - INFO - Connecting to rtk2go.com:2101...
2025-05-10 08:39:07,963 - INFO - Connected to rtk2go.com:2101
2025-05-10 08:39:07,963 - INFO - Sending NTRIP request headers...
2025-05-10 08:39:10,070 - INFO - Server response: ICY 200 OK
2025-05-10 08:39:10,070 - INFO - NTRIP server connected successfully
2025-05-10 08:39:10,070 - ERROR - Error opening serial port: [Errno 2] could not open port /dev/ttyUSB0: [Errno 2] No such file or directory: '/dev/ttyUSB0'
2025-05-10 08:39:10,071 - ERROR - Check GPS connection and port settings (/dev/ttyUSB1 expected).
2025-05-10 08:39:10,071 - INFO - NTRIP connection closed
2025-05-10 08:39:10,071 - INFO - Connection closed. Reconnecting in 5 seconds...
2025-05-10 08:39:15,071 - INFO - Verifying mountpoint availability...
2025-05-10 08:39:15,071 - INFO - Connecting to rtk2go.com:2101 for source table...
2025-05-10 08:39:15,116 - INFO - Connected to rtk2go.com:2101
2025-05-10 08:39:15,116 - INFO - Sent source table request
2025-05-10 08:39:15,753 - INFO - Mountpoint 'cmuairlab01' found in source table!
2025-05-10 08:39:15,753 - INFO - Waiting 2 seconds before connecting...
2025-05-10 08:39:17,754 - INFO - Connecting to rtk2go.com:2101...
2025-05-10 08:39:17,787 - INFO - Connected to rtk2go.com:2101
2025-05-10 08:39:17,787 - INFO - Sending NTRIP request headers...
2025-05-10 08:39:20,682 - INFO - Server response: ICY 200 OK
2025-05-10 08:39:20,682 - INFO - NTRIP server connected successfully
2025-05-10 08:39:20,682 - ERROR - Error opening serial port: [Errno 2] could not open port /dev/ttyUSB0: [Errno 2] No such file or directory: '/dev/ttyUSB0'
2025-05-10 08:39:20,682 - ERROR - Check GPS connection and port settings (/dev/ttyUSB1 expected).
2025-05-10 08:39:20,682 - INFO - NTRIP connection closed
