2025-05-09 20:02:07,032 - INFO - Waiting for Rover (/dev/ttyUSB1) to be ready...
2025-05-09 20:02:07,049 - INFO - Successfully opened /dev/ttyUSB1.
2025-05-09 20:02:07,081 - INFO - Successfully opened /dev/ttyUSB0.
2025-05-09 20:02:07,081 - INFO - Forwarding RTCM data from /dev/ttyUSB0 to /dev/ttyUSB1...
2025-05-09 20:02:07,081 - INFO - Listening to NMEA data from /dev/ttyUSB1...
2025-05-09 20:02:08,201 - INFO - GGA (Status not RTK Fixed): $GPGGA,170455.240,4020.7210748,N,08007.7285634,W,1,27,0.6,329.490,M,-33.184,M,,0000*63
2025-05-09 20:02:09,244 - INFO - GGA (Status not RTK Fixed): $GPGGA,170456.240,4020.7217022,N,08007.7264465,W,5,26,0.6,379.009,M,-33.184,M,,0000*61
2025-05-09 20:02:10,250 - INFO - GGA (Status not RTK Fixed): $GPGGA,000210.080,4020.7214971,N,08007.7266869,W,5,26,0.6,386.076,M,-33.184,M,,0000*6B
2025-05-09 20:02:11,254 - INFO - GGA (Status not RTK Fixed): $GPGGA,000211.040,4020.7215271,N,08007.7265360,W,5,25,0.6,388.437,M,-33.184,M,,0000*61
2025-05-09 20:02:12,086 - INFO - RTK Status: RTK Float | Satellites: 27 | Altitude: 388.443m
2025-05-09 20:02:12,086 - INFO - Last GGA Message: $GPGGA,000211.960,4020.7215240,N,08007.7265425,W,5,27,0.6,388.443,M,-33.184,M,,0000*6F
2025-05-09 20:02:12,087 - INFO - First RTK Fix achieved after 5.1 seconds!
2025-05-09 20:02:12,257 - INFO - GGA (Status not RTK Fixed): $GPGGA,000212.080,4020.7215235,N,08007.7264889,W,5,27,0.6,389.885,M,-33.184,M,,0000*65
2025-05-09 20:02:13,273 - INFO - GGA (Status not RTK Fixed): $GPGGA,000213.120,4020.7215208,N,08007.7264965,W,5,27,0.6,390.541,M,-33.184,M,,0000*6F
2025-05-09 20:02:14,293 - INFO - GGA (Status not RTK Fixed): $GPGGA,000214.120,4020.7215131,N,08007.7265034,W,5,26,0.6,390.816,M,-33.184,M,,0000*63
2025-05-09 20:02:15,303 - INFO - GGA (Status not RTK Fixed): $GPGGA,000215.120,4020.7215225,N,08007.7265208,W,5,25,0.6,390.957,M,-33.184,M,,0000*6E
2025-05-09 20:02:17,100 - INFO - RTK Status: RTK Fixed | Satellites: 26 | Altitude: 389.345m
2025-05-09 20:02:17,100 - INFO - Last GGA Message: $GPGGA,000216.960,4020.7219591,N,08007.7268629,W,4,26,0.6,389.345,M,-33.184,M,,0000*6C
2025-05-09 20:02:22,102 - INFO - RTK Status: RTK Fixed | Satellites: 26 | Altitude: 389.286m
2025-05-09 20:02:22,102 - INFO - Last GGA Message: $GPGGA,000222.000,4020.7219609,N,08007.7268500,W,4,26,0.6,389.286,M,-33.100,M,1.000,0000*43
2025-05-09 20:02:27,236 - INFO - RTK Status: RTK Fixed | Satellites: 27 | Altitude: 389.350m
2025-05-09 20:02:27,236 - INFO - Last GGA Message: $GPGGA,000227.040,4020.7219630,N,08007.7268515,W,4,27,0.6,389.350,M,-33.184,M,,0000*64
2025-05-09 20:02:32,240 - INFO - RTK Status: RTK Fixed | Satellites: 27 | Altitude: 389.353m
2025-05-09 20:02:32,240 - INFO - Last GGA Message: $GPGGA,000232.040,4020.7219613,N,08007.7268542,W,4,27,0.6,389.353,M,-33.184,M,,0000*60
2025-05-09 20:02:37,246 - INFO - RTK Status: RTK Fixed | Satellites: 27 | Altitude: 389.356m
2025-05-09 20:02:37,246 - INFO - Last GGA Message: $GPGGA,000237.040,4020.7219631,N,08007.7268534,W,4,27,0.6,389.356,M,-33.184,M,,0000*61
2025-05-09 20:02:42,259 - INFO - RTK Status: RTK Fixed | Satellites: 27 | Altitude: 389.333m
2025-05-09 20:02:42,259 - INFO - Last GGA Message: $GPGGA,000242.080,4020.7219652,N,08007.7268604,W,4,27,0.6,389.333,M,-33.184,M,,0000*69
2025-05-09 20:02:47,260 - INFO - RTK Status: RTK Fixed | Satellites: 27 | Altitude: 389.356m
2025-05-09 20:02:47,260 - INFO - Last GGA Message: $GPGGA,000247.080,4020.7219622,N,08007.7268537,W,4,27,0.6,389.356,M,-33.184,M,,0000*6B
2025-05-09 20:02:52,271 - INFO - RTK Status: RTK Fixed | Satellites: 27 | Altitude: 389.342m
2025-05-09 20:02:52,271 - INFO - Last GGA Message: $GPGGA,000252.120,4020.7219641,N,08007.7268561,W,4,27,0.6,389.342,M,-33.184,M,,0000*67
2025-05-09 20:02:57,289 - INFO - RTK Status: RTK Fixed | Satellites: 27 | Altitude: 389.352m
2025-05-09 20:02:57,289 - INFO - Last GGA Message: $GPGGA,000257.160,4020.7219612,N,08007.7268567,W,4,27,0.6,389.352,M,-33.184,M,,0000*67
2025-05-09 20:03:02,305 - INFO - RTK Status: RTK Fixed | Satellites: 27 | Altitude: 389.335m
2025-05-09 20:03:02,305 - INFO - Last GGA Message: $GPGGA,000302.160,4020.7219628,N,08007.7268554,W,4,27,0.6,389.335,M,-33.184,M,,0000*6E
2025-05-09 20:03:07,321 - INFO - RTK Status: RTK Fixed | Satellites: 27 | Altitude: 389.352m
2025-05-09 20:03:07,322 - INFO - Last GGA Message: $GPGGA,000307.200,4020.7219597,N,08007.7268564,W,4,27,0.6,389.352,M,-33.184,M,,0000*6B
2025-05-09 20:03:12,327 - INFO - RTK Status: RTK Fixed | Satellites: 27 | Altitude: 389.346m
2025-05-09 20:03:12,328 - INFO - Last GGA Message: $GPGGA,000312.200,4020.7219583,N,08007.7268561,W,4,27,0.6,389.346,M,-33.184,M,,0000*6A
2025-05-09 20:03:17,345 - INFO - RTK Status: RTK Fixed | Satellites: 27 | Altitude: 389.333m
2025-05-09 20:03:17,345 - INFO - Last GGA Message: $GPGGA,000317.240,4020.7219611,N,08007.7268666,W,4,27,0.6,389.333,M,-33.184,M,,0000*65
2025-05-09 20:03:22,353 - INFO - RTK Status: RTK Fixed | Satellites: 27 | Altitude: 389.341m
2025-05-09 20:03:22,354 - INFO - Last GGA Message: $GPGGA,000322.280,4020.7219641,N,08007.7268606,W,4,27,0.6,389.341,M,-33.184,M,,0000*69
2025-05-09 20:03:27,356 - INFO - RTK Status: RTK Fixed | Satellites: 27 | Altitude: 389.360m
2025-05-09 20:03:27,356 - INFO - Last GGA Message: $GPGGA,000327.280,4020.7219614,N,08007.7268569,W,4,27,0.6,389.360,M,-33.184,M,,0000*65
2025-05-09 20:03:32,356 - INFO - RTK Status: RTK Fixed | Satellites: 27 | Altitude: 389.345m
2025-05-09 20:03:32,356 - INFO - Last GGA Message: $GPGGA,000332.280,4020.7219556,N,08007.7268655,W,4,27,0.6,389.345,M,-33.184,M,,0000*6F
2025-05-09 20:03:37,362 - INFO - RTK Status: RTK Fixed | Satellites: 27 | Altitude: 389.339m
2025-05-09 20:03:37,362 - INFO - Last GGA Message: $GPGGA,000337.280,4020.7219592,N,08007.7268622,W,4,27,0.5,389.339,M,-33.184,M,,0000*6A
2025-05-09 20:03:42,372 - INFO - RTK Status: RTK Fixed | Satellites: 27 | Altitude: 389.360m
2025-05-09 20:03:42,373 - INFO - Last GGA Message: $GPGGA,000342.320,4020.7219556,N,08007.7268611,W,4,27,0.6,389.360,M,-33.184,M,,0000*64
2025-05-09 20:03:47,380 - INFO - RTK Status: RTK Fixed | Satellites: 26 | Altitude: 389.344m
2025-05-09 20:03:47,380 - INFO - Last GGA Message: $GPGGA,000347.320,4020.7219584,N,08007.7268626,W,4,26,0.6,389.344,M,-33.184,M,,0000*6D
2025-05-09 20:03:52,404 - INFO - RTK Status: RTK Fixed | Satellites: 27 | Altitude: 389.350m
2025-05-09 20:03:52,404 - INFO - Last GGA Message: $GPGGA,000352.360,4020.7219608,N,08007.7268565,W,4,27,0.5,389.350,M,-33.184,M,,0000*69
2025-05-09 20:03:57,445 - INFO - RTK Status: RTK Fixed | Satellites: 26 | Altitude: 389.346m
2025-05-09 20:03:57,445 - INFO - Last GGA Message: $GPGGA,000357.400,4020.7219586,N,08007.7268621,W,4,26,0.6,389.346,M,-33.184,M,,0000*6E
2025-05-09 20:04:02,495 - INFO - RTK Status: RTK Fixed | Satellites: 27 | Altitude: 389.339m
2025-05-09 20:04:02,495 - INFO - Last GGA Message: $GPGGA,000402.440,4020.7219571,N,08007.7268620,W,4,27,0.6,389.339,M,-33.184,M,,0000*6D
2025-05-09 20:04:07,504 - INFO - RTK Status: RTK Fixed | Satellites: 26 | Altitude: 389.350m
2025-05-09 20:04:07,504 - INFO - Last GGA Message: $GPGGA,000407.440,4020.7219575,N,08007.7268645,W,4,26,0.6,389.350,M,-33.184,M,,0000*61
2025-05-09 20:04:12,505 - INFO - RTK Status: RTK Fixed | Satellites: 26 | Altitude: 389.342m
2025-05-09 20:04:12,505 - INFO - Last GGA Message: $GPGGA,000412.440,4020.7219611,N,08007.7268616,W,4,26,0.6,389.342,M,-33.184,M,,0000*61
2025-05-09 20:04:17,505 - INFO - RTK Status: RTK Fixed | Satellites: 26 | Altitude: 389.338m
2025-05-09 20:04:17,505 - INFO - Last GGA Message: $GPGGA,000417.440,4020.7219599,N,08007.7268752,W,4,26,0.6,389.338,M,-33.184,M,,0000*6B
2025-05-09 20:04:22,505 - INFO - RTK Status: RTK Fixed | Satellites: 26 | Altitude: 389.336m
2025-05-09 20:04:22,505 - INFO - Last GGA Message: $GPGGA,000422.440,4020.7219617,N,08007.7268669,W,4,26,0.6,389.336,M,-33.184,M,,0000*6F
2025-05-09 20:04:27,556 - INFO - RTK Status: RTK Fixed | Satellites: 26 | Altitude: 389.349m
2025-05-09 20:04:27,556 - INFO - Last GGA Message: $GPGGA,000427.480,4020.7219571,N,08007.7268734,W,4,26,0.6,389.349,M,-33.184,M,,0000*64
2025-05-09 20:04:32,565 - INFO - RTK Status: RTK Fixed | Satellites: 26 | Altitude: 389.336m
2025-05-09 20:04:32,565 - INFO - Last GGA Message: $GPGGA,000432.520,4020.7219603,N,08007.7268741,W,4,26,0.6,389.336,M,-33.184,M,,0000*67
2025-05-09 20:04:37,565 - INFO - RTK Status: RTK Fixed | Satellites: 26 | Altitude: 389.320m
2025-05-09 20:04:37,565 - INFO - Last GGA Message: $GPGGA,000437.520,4020.7219641,N,08007.7268702,W,4,26,0.6,389.320,M,-33.184,M,,0000*64
2025-05-09 20:04:42,573 - INFO - RTK Status: RTK Fixed | Satellites: 26 | Altitude: 389.321m
2025-05-09 20:04:42,573 - INFO - Last GGA Message: $GPGGA,000442.520,4020.7219596,N,08007.7268747,W,4,26,0.6,389.321,M,-33.184,M,,0000*6F
2025-05-09 20:04:47,594 - INFO - RTK Status: RTK Fixed | Satellites: 26 | Altitude: 389.348m
2025-05-09 20:04:47,595 - INFO - Last GGA Message: $GPGGA,000447.560,4020.7219583,N,08007.7268724,W,4,26,0.6,389.348,M,-33.184,M,,0000*60
2025-05-09 20:04:52,604 - INFO - RTK Status: RTK Fixed | Satellites: 25 | Altitude: 389.334m
2025-05-09 20:04:52,604 - INFO - Last GGA Message: $GPGGA,000452.560,4020.7219602,N,08007.7268718,W,4,25,0.6,389.334,M,-33.184,M,,0000*69
2025-05-09 20:04:57,645 - INFO - RTK Status: RTK Fixed | Satellites: 25 | Altitude: 389.335m
2025-05-09 20:04:57,645 - INFO - Last GGA Message: $GPGGA,000457.600,4020.7219573,N,08007.7268745,W,4,25,0.6,389.335,M,-33.184,M,,0000*65
2025-05-09 20:05:02,705 - INFO - RTK Status: RTK Fixed | Satellites: 25 | Altitude: 389.324m
2025-05-09 20:05:02,705 - INFO - Last GGA Message: $GPGGA,000502.640,4020.7219550,N,08007.7268658,W,4,25,0.6,389.324,M,-33.184,M,,0000*6C
2025-05-09 20:05:07,745 - INFO - RTK Status: RTK Fixed | Satellites: 25 | Altitude: 389.338m
2025-05-09 20:05:07,745 - INFO - Last GGA Message: $GPGGA,000507.680,4020.7219603,N,08007.7268769,W,4,25,0.6,389.338,M,-33.184,M,,0000*6E
2025-05-09 20:05:12,765 - INFO - RTK Status: RTK Fixed | Satellites: 25 | Altitude: 389.340m
2025-05-09 20:05:12,765 - INFO - Last GGA Message: $GPGGA,000512.720,4020.7219601,N,08007.7268696,W,4,25,0.6,389.340,M,-33.184,M,,0000*6D
2025-05-09 20:05:17,770 - INFO - RTK Status: RTK Fixed | Satellites: 24 | Altitude: 389.338m
2025-05-09 20:05:17,770 - INFO - Last GGA Message: $GPGGA,000517.720,4020.7219556,N,08007.7268729,W,4,24,0.6,389.338,M,-33.184,M,,0000*62
2025-05-09 20:05:22,807 - INFO - RTK Status: RTK Fixed | Satellites: 26 | Altitude: 389.347m
2025-05-09 20:05:22,807 - INFO - Last GGA Message: $GPGGA,000522.760,4020.7219593,N,08007.7268681,W,4,26,0.6,389.347,M,-33.184,M,,0000*60
2025-05-09 20:05:27,845 - INFO - RTK Status: RTK Fixed | Satellites: 26 | Altitude: 389.354m
2025-05-09 20:05:27,845 - INFO - Last GGA Message: $GPGGA,000527.800,4020.7219589,N,08007.7268709,W,4,26,0.6,389.354,M,-33.184,M,,0000*64
2025-05-09 20:05:32,884 - INFO - RTK Status: RTK Fixed | Satellites: 26 | Altitude: 389.336m
2025-05-09 20:05:32,885 - INFO - Last GGA Message: $GPGGA,000532.840,4020.7219610,N,08007.7268719,W,4,26,0.6,389.336,M,-33.184,M,,0000*62
2025-05-09 20:05:37,905 - INFO - RTK Status: RTK Fixed | Satellites: 26 | Altitude: 389.339m
2025-05-09 20:05:37,905 - INFO - Last GGA Message: $GPGGA,000537.840,4020.7219623,N,08007.7268773,W,4,26,0.6,389.339,M,-33.184,M,,0000*64
2025-05-09 20:05:42,944 - INFO - RTK Status: RTK Fixed | Satellites: 26 | Altitude: 389.342m
2025-05-09 20:05:42,945 - INFO - Last GGA Message: $GPGGA,000542.880,4020.7219606,N,08007.7268752,W,4,26,0.6,389.342,M,-33.184,M,,0000*62
2025-05-09 20:05:47,963 - INFO - RTK Status: RTK Fixed | Satellites: 26 | Altitude: 389.343m
2025-05-09 20:05:47,963 - INFO - Last GGA Message: $GPGGA,000547.920,4020.7219607,N,08007.7268758,W,4,26,0.6,389.343,M,-33.184,M,,0000*66
2025-05-09 20:05:52,964 - INFO - RTK Status: RTK Fixed | Satellites: 26 | Altitude: 389.355m
2025-05-09 20:05:52,964 - INFO - Last GGA Message: $GPGGA,000552.920,4020.7219597,N,08007.7268691,W,4,26,0.6,389.355,M,-33.184,M,,0000*6B
2025-05-09 20:05:57,965 - INFO - RTK Status: RTK Fixed | Satellites: 26 | Altitude: 389.347m
2025-05-09 20:05:57,965 - INFO - Last GGA Message: $GPGGA,000557.920,4020.7219588,N,08007.7268741,W,4,26,0.6,389.347,M,-33.184,M,,0000*6F
2025-05-09 20:06:03,004 - INFO - RTK Status: RTK Fixed | Satellites: 26 | Altitude: 389.350m
2025-05-09 20:06:03,004 - INFO - Last GGA Message: $GPGGA,000602.960,4020.7219583,N,08007.7268741,W,4,26,0.6,389.350,M,-33.184,M,,0000*65
2025-05-09 20:06:08,005 - INFO - RTK Status: RTK Fixed | Satellites: 25 | Altitude: 389.352m
2025-05-09 20:06:08,006 - INFO - Last GGA Message: $GPGGA,000607.960,4020.7219555,N,08007.7268730,W,4,25,0.6,389.352,M,-33.184,M,,0000*6C
2025-05-09 20:06:13,104 - INFO - RTK Status: RTK Fixed | Satellites: 26 | Altitude: 389.245m
2025-05-09 20:06:13,104 - INFO - Last GGA Message: $GPGGA,000613.000,4020.7219586,N,08007.7268616,W,4,26,0.6,389.245,M,-33.100,M,2.000,0000*49
2025-05-09 20:06:18,243 - INFO - RTK Status: RTK Fixed | Satellites: 26 | Altitude: 389.330m
2025-05-09 20:06:18,243 - INFO - Last GGA Message: $GPGGA,000618.040,4020.7219565,N,08007.7268565,W,4,26,0.6,389.330,M,-33.184,M,,0000*6F
2025-05-09 20:06:23,259 - INFO - RTK Status: RTK Fixed | Satellites: 26 | Altitude: 389.313m
2025-05-09 20:06:23,260 - INFO - Last GGA Message: $GPGGA,000623.080,4020.7219638,N,08007.7268676,W,4,26,0.6,389.313,M,-33.184,M,,0000*60
2025-05-09 20:06:28,282 - INFO - RTK Status: RTK Fixed | Satellites: 26 | Altitude: 389.339m
2025-05-09 20:06:28,282 - INFO - Last GGA Message: $GPGGA,000628.120,4020.7219621,N,08007.7268676,W,4,26,0.6,389.339,M,-33.184,M,,0000*60
2025-05-09 20:06:33,288 - INFO - RTK Status: RTK Fixed | Satellites: 25 | Altitude: 389.330m
2025-05-09 20:06:33,288 - INFO - Last GGA Message: $GPGGA,000633.160,4020.7219568,N,08007.7268610,W,4,25,0.6,389.330,M,-33.184,M,,0000*6A
2025-05-09 20:06:38,288 - INFO - RTK Status: RTK Fixed | Satellites: 25 | Altitude: 389.338m
2025-05-09 20:06:38,289 - INFO - Last GGA Message: $GPGGA,000638.120,4020.7219595,N,08007.7268677,W,4,25,0.6,389.338,M,-33.184,M,,0000*6E
2025-05-09 20:06:43,289 - INFO - RTK Status: RTK Fixed | Satellites: 25 | Altitude: 389.335m
2025-05-09 20:06:43,289 - INFO - Last GGA Message: $GPGGA,000643.160,4020.7219578,N,08007.7268612,W,4,25,0.6,389.335,M,-33.184,M,,0000*6B
2025-05-09 20:06:48,291 - INFO - RTK Status: RTK Fixed | Satellites: 24 | Altitude: 389.331m
2025-05-09 20:06:48,291 - INFO - Last GGA Message: $GPGGA,000648.160,4020.7219615,N,08007.7268660,W,4,24,0.6,389.331,M,-33.184,M,,0000*68
2025-05-09 20:06:53,307 - INFO - RTK Status: RTK Fixed | Satellites: 26 | Altitude: 389.335m
2025-05-09 20:06:53,307 - INFO - Last GGA Message: $GPGGA,000653.200,4020.7219623,N,08007.7268696,W,4,26,0.6,389.335,M,-33.184,M,,0000*6D
2025-05-09 20:06:58,308 - INFO - RTK Status: RTK Fixed | Satellites: 26 | Altitude: 389.337m
2025-05-09 20:06:58,308 - INFO - Last GGA Message: $GPGGA,000658.200,4020.7219615,N,08007.7268630,W,4,26,0.6,389.337,M,-33.184,M,,0000*6D
2025-05-09 20:07:03,332 - INFO - RTK Status: RTK Fixed | Satellites: 26 | Altitude: 389.348m
2025-05-09 20:07:03,332 - INFO - Last GGA Message: $GPGGA,000703.240,4020.7219592,N,08007.7268622,W,4,26,0.6,389.348,M,-33.184,M,,0000*61
2025-05-09 20:07:08,344 - INFO - RTK Status: RTK Fixed | Satellites: 26 | Altitude: 389.344m
2025-05-09 20:07:08,344 - INFO - Last GGA Message: $GPGGA,000708.280,4020.7219614,N,08007.7268632,W,4,26,0.6,389.344,M,-33.184,M,,0000*66
2025-05-09 20:07:13,395 - INFO - RTK Status: RTK Fixed | Satellites: 26 | Altitude: 389.350m
2025-05-09 20:07:13,396 - INFO - Last GGA Message: $GPGGA,000713.320,4020.7219578,N,08007.7268605,W,4,26,0.6,389.350,M,-33.184,M,,0000*6F
2025-05-09 20:07:18,405 - INFO - RTK Status: RTK Fixed | Satellites: 26 | Altitude: 389.347m
2025-05-09 20:07:18,405 - INFO - Last GGA Message: $GPGGA,000718.360,4020.7219584,N,08007.7268630,W,4,26,0.6,389.347,M,-33.184,M,,0000*63
2025-05-09 20:07:21,101 - INFO - GGA (Status not RTK Fixed): $GPGGA,000721.000,4020.7219585,N,08007.7268635,W,5,25,0.6,389.249,M,-33.100,M,2.000,0000*45
2025-05-09 20:07:22,236 - INFO - GGA (Status not RTK Fixed): $GPGGA,000722.040,4020.7219606,N,08007.7268648,W,5,26,0.6,389.328,M,-33.184,M,,0000*65
2025-05-09 20:07:23,447 - INFO - RTK Status: RTK Fixed | Satellites: 26 | Altitude: 389.312m
2025-05-09 20:07:23,447 - INFO - Last GGA Message: $GPGGA,000723.400,4020.7219630,N,08007.7268597,W,4,26,0.6,389.312,M,-33.184,M,,0000*68
2025-05-09 20:07:28,455 - INFO - RTK Status: RTK Fixed | Satellites: 24 | Altitude: 389.291m
2025-05-09 20:07:28,455 - INFO - Last GGA Message: $GPGGA,000728.400,4020.7219643,N,08007.7268667,W,4,24,0.6,389.291,M,-33.184,M,,0000*63
2025-05-09 20:07:33,504 - INFO - RTK Status: RTK Fixed | Satellites: 26 | Altitude: 389.315m
2025-05-09 20:07:33,504 - INFO - Last GGA Message: $GPGGA,000733.440,4020.7219625,N,08007.7268596,W,4,26,0.6,389.315,M,-33.184,M,,0000*6F
2025-05-09 20:07:38,545 - INFO - RTK Status: RTK Fixed | Satellites: 26 | Altitude: 389.304m
2025-05-09 20:07:38,545 - INFO - Last GGA Message: $GPGGA,000738.480,4020.7219661,N,08007.7268662,W,4,26,0.6,389.304,M,-33.184,M,,0000*60
2025-05-09 20:07:43,564 - INFO - RTK Status: RTK Fixed | Satellites: 26 | Altitude: 389.325m
2025-05-09 20:07:43,564 - INFO - Last GGA Message: $GPGGA,000743.520,4020.7219594,N,08007.7268672,W,4,26,0.6,389.325,M,-33.184,M,,0000*6C
2025-05-09 20:07:48,573 - INFO - RTK Status: RTK Fixed | Satellites: 26 | Altitude: 389.334m
2025-05-09 20:07:48,573 - INFO - Last GGA Message: $GPGGA,000748.520,4020.7219577,N,08007.7268657,W,4,26,0.6,389.334,M,-33.184,M,,0000*6D
2025-05-09 20:07:53,595 - INFO - RTK Status: RTK Fixed | Satellites: 26 | Altitude: 389.336m
2025-05-09 20:07:53,595 - INFO - Last GGA Message: $GPGGA,000753.560,4020.7219574,N,08007.7268726,W,4,26,0.6,389.336,M,-33.184,M,,0000*65
2025-05-09 20:07:58,644 - INFO - RTK Status: RTK Fixed | Satellites: 25 | Altitude: 389.348m
2025-05-09 20:07:58,645 - INFO - Last GGA Message: $GPGGA,000758.600,4020.7219559,N,08007.7268716,W,4,25,0.6,389.348,M,-33.184,M,,0000*6D
2025-05-09 20:08:03,704 - INFO - RTK Status: RTK Fixed | Satellites: 26 | Altitude: 389.323m
2025-05-09 20:08:03,704 - INFO - Last GGA Message: $GPGGA,000803.640,4020.7219632,N,08007.7268753,W,4,26,0.6,389.323,M,-33.184,M,,0000*69
2025-05-09 20:08:08,704 - INFO - RTK Status: RTK Fixed | Satellites: 26 | Altitude: 389.326m
2025-05-09 20:08:08,705 - INFO - Last GGA Message: $GPGGA,000808.640,4020.7219640,N,08007.7268707,W,4,26,0.6,389.326,M,-33.184,M,,0000*63
2025-05-09 20:08:13,705 - INFO - RTK Status: RTK Fixed | Satellites: 25 | Altitude: 389.338m
2025-05-09 20:08:13,705 - INFO - Last GGA Message: $GPGGA,000813.640,4020.7219558,N,08007.7268668,W,4,25,0.6,389.338,M,-33.184,M,,0000*67
2025-05-09 20:08:18,744 - INFO - RTK Status: RTK Fixed | Satellites: 26 | Altitude: 389.313m
2025-05-09 20:08:18,745 - INFO - Last GGA Message: $GPGGA,000818.680,4020.7219669,N,08007.7268664,W,4,26,0.6,389.313,M,-33.184,M,,0000*67
2025-05-09 20:08:23,745 - INFO - RTK Status: RTK Fixed | Satellites: 24 | Altitude: 389.319m
2025-05-09 20:08:23,745 - INFO - Last GGA Message: $GPGGA,000823.680,4020.7219643,N,08007.7268684,W,4,24,0.6,389.319,M,-33.184,M,,0000*61
2025-05-09 20:08:28,784 - INFO - RTK Status: RTK Fixed | Satellites: 24 | Altitude: 389.347m
2025-05-09 20:08:28,785 - INFO - Last GGA Message: $GPGGA,000828.720,4020.7219590,N,08007.7268580,W,4,24,0.6,389.347,M,-33.184,M,,0000*60
2025-05-09 20:08:33,797 - INFO - RTK Status: RTK Fixed | Satellites: 25 | Altitude: 389.322m
2025-05-09 20:08:33,797 - INFO - Last GGA Message: $GPGGA,000833.760,4020.7219675,N,08007.7268721,W,4,25,0.6,389.322,M,-33.184,M,,0000*6D
2025-05-09 20:08:38,804 - INFO - RTK Status: RTK Fixed | Satellites: 25 | Altitude: 389.316m
2025-05-09 20:08:38,804 - INFO - Last GGA Message: $GPGGA,000838.760,4020.7219671,N,08007.7268703,W,4,25,0.6,389.316,M,-33.184,M,,0000*65
2025-05-09 20:08:43,844 - INFO - RTK Status: RTK Fixed | Satellites: 25 | Altitude: 389.330m
2025-05-09 20:08:43,844 - INFO - Last GGA Message: $GPGGA,000843.800,4020.7219607,N,08007.7268698,W,4,25,0.6,389.330,M,-33.184,M,,0000*66
2025-05-09 20:08:48,845 - INFO - RTK Status: RTK Fixed | Satellites: 25 | Altitude: 389.332m
2025-05-09 20:08:48,845 - INFO - Last GGA Message: $GPGGA,000848.800,4020.7219624,N,08007.7268652,W,4,25,0.6,389.332,M,-33.184,M,,0000*68
2025-05-09 20:08:53,854 - INFO - RTK Status: RTK Fixed | Satellites: 25 | Altitude: 389.323m
2025-05-09 20:08:53,854 - INFO - Last GGA Message: $GPGGA,000853.800,4020.7219657,N,08007.7268695,W,4,25,0.6,389.323,M,-33.184,M,,0000*6D
2025-05-09 20:08:58,904 - INFO - RTK Status: RTK Fixed | Satellites: 25 | Altitude: 389.326m
2025-05-09 20:08:58,904 - INFO - Last GGA Message: $GPGGA,000858.840,4020.7219636,N,08007.7268681,W,4,25,0.6,389.326,M,-33.184,M,,0000*65
2025-05-09 20:09:03,904 - INFO - RTK Status: RTK Fixed | Satellites: 25 | Altitude: 389.329m
2025-05-09 20:09:03,905 - INFO - Last GGA Message: $GPGGA,000903.840,4020.7219644,N,08007.7268730,W,4,25,0.6,389.329,M,-33.184,M,,0000*6B
2025-05-09 20:09:08,955 - INFO - RTK Status: RTK Fixed | Satellites: 25 | Altitude: 389.336m
2025-05-09 20:09:08,956 - INFO - Last GGA Message: $GPGGA,000908.880,4020.7219626,N,08007.7268749,W,4,25,0.6,389.336,M,-33.184,M,,0000*68
2025-05-09 20:09:13,956 - INFO - RTK Status: RTK Fixed | Satellites: 24 | Altitude: 389.310m
2025-05-09 20:09:13,956 - INFO - Last GGA Message: $GPGGA,000913.880,4020.7219662,N,08007.7268795,W,4,24,0.7,389.310,M,-33.184,M,,0000*67
2025-05-09 20:09:18,973 - INFO - RTK Status: RTK Fixed | Satellites: 26 | Altitude: 389.328m
2025-05-09 20:09:18,973 - INFO - Last GGA Message: $GPGGA,000918.920,4020.7219687,N,08007.7268772,W,4,26,0.6,389.328,M,-33.184,M,,0000*6D
2025-05-09 20:09:23,999 - INFO - RTK Status: RTK Fixed | Satellites: 27 | Altitude: 389.346m
2025-05-09 20:09:23,999 - INFO - Last GGA Message: $GPGGA,000923.920,4020.7219675,N,08007.7268781,W,4,27,0.5,389.346,M,-33.184,M,,0000*6E
2025-05-09 20:09:29,010 - INFO - RTK Status: RTK Fixed | Satellites: 27 | Altitude: 389.332m
2025-05-09 20:09:29,010 - INFO - Last GGA Message: $GPGGA,000928.960,4020.7219677,N,08007.7268768,W,4,27,0.5,389.332,M,-33.184,M,,0000*67
2025-05-09 20:09:34,100 - INFO - RTK Status: RTK Fixed | Satellites: 26 | Altitude: 389.250m
2025-05-09 20:09:34,100 - INFO - Last GGA Message: $GPGGA,000934.000,4020.7219614,N,08007.7268688,W,4,26,0.6,389.250,M,-33.100,M,2.000,0000*48
2025-05-09 20:09:39,101 - INFO - RTK Status: RTK Fixed | Satellites: 27 | Altitude: 389.218m
2025-05-09 20:09:39,102 - INFO - Last GGA Message: $GPGGA,000939.000,4020.7219669,N,08007.7268631,W,4,27,0.5,389.218,M,-33.100,M,2.000,0000*43
2025-05-09 20:09:44,111 - INFO - RTK Status: RTK Fixed | Satellites: 27 | Altitude: 389.233m
2025-05-09 20:09:44,111 - INFO - Last GGA Message: $GPGGA,000944.000,4020.7219696,N,08007.7268636,W,4,27,0.5,389.233,M,-33.100,M,1.000,0000*44
2025-05-09 20:09:49,231 - INFO - RTK Status: RTK Fixed | Satellites: 27 | Altitude: 389.322m
2025-05-09 20:09:49,231 - INFO - Last GGA Message: $GPGGA,000949.040,4020.7219657,N,08007.7268624,W,4,27,0.6,389.322,M,-33.184,M,,0000*62
2025-05-09 20:09:54,249 - INFO - RTK Status: RTK Fixed | Satellites: 27 | Altitude: 389.313m
2025-05-09 20:09:54,249 - INFO - Last GGA Message: $GPGGA,000954.040,4020.7219680,N,08007.7268651,W,4,27,0.5,389.313,M,-33.184,M,,0000*67
2025-05-09 20:09:59,261 - INFO - RTK Status: RTK Fixed | Satellites: 26 | Altitude: 389.344m
2025-05-09 20:09:59,261 - INFO - Last GGA Message: $GPGGA,000959.080,4020.7219642,N,08007.7268724,W,4,26,0.6,389.344,M,-33.184,M,,0000*6B
2025-05-09 20:10:04,267 - INFO - RTK Status: RTK Fixed | Satellites: 26 | Altitude: 389.315m
2025-05-09 20:10:04,267 - INFO - Last GGA Message: $GPGGA,001004.080,4020.7219683,N,08007.7268720,W,4,26,0.6,389.315,M,-33.184,M,,0000*66
2025-05-09 20:10:09,269 - INFO - RTK Status: RTK Fixed | Satellites: 27 | Altitude: 389.316m
2025-05-09 20:10:09,269 - INFO - Last GGA Message: $GPGGA,001009.120,4020.7219668,N,08007.7268724,W,4,27,0.5,389.316,M,-33.184,M,,0000*60
2025-05-09 20:10:14,271 - INFO - RTK Status: RTK Fixed | Satellites: 26 | Altitude: 389.323m
2025-05-09 20:10:14,271 - INFO - Last GGA Message: $GPGGA,001014.120,4020.7219666,N,08007.7268668,W,4,26,0.6,389.323,M,-33.184,M,,0000*6F
2025-05-09 20:10:19,291 - INFO - RTK Status: RTK Fixed | Satellites: 27 | Altitude: 389.327m
2025-05-09 20:10:19,292 - INFO - Last GGA Message: $GPGGA,001019.160,4020.7219649,N,08007.7268680,W,4,27,0.5,389.327,M,-33.184,M,,0000*6B
2025-05-09 20:10:24,307 - INFO - RTK Status: RTK Fixed | Satellites: 28 | Altitude: 389.316m
2025-05-09 20:10:24,308 - INFO - Last GGA Message: $GPGGA,001024.200,4020.7219666,N,08007.7268688,W,4,28,0.5,389.316,M,-33.184,M,,0000*68
2025-05-09 20:10:29,307 - INFO - RTK Status: RTK Fixed | Satellites: 28 | Altitude: 389.328m
2025-05-09 20:10:29,308 - INFO - Last GGA Message: $GPGGA,001029.200,4020.7219638,N,08007.7268675,W,4,28,0.5,389.328,M,-33.184,M,,0000*61
2025-05-09 20:10:34,309 - INFO - RTK Status: RTK Fixed | Satellites: 28 | Altitude: 389.330m
2025-05-09 20:10:34,309 - INFO - Last GGA Message: $GPGGA,001034.200,4020.7219662,N,08007.7268711,W,4,28,0.5,389.330,M,-33.184,M,,0000*68
2025-05-09 20:10:39,322 - INFO - RTK Status: RTK Fixed | Satellites: 28 | Altitude: 389.336m
2025-05-09 20:10:39,322 - INFO - Last GGA Message: $GPGGA,001039.240,4020.7219640,N,08007.7268654,W,4,28,0.5,389.336,M,-33.184,M,,0000*67
2025-05-09 20:10:44,329 - INFO - RTK Status: RTK Fixed | Satellites: 28 | Altitude: 389.357m
2025-05-09 20:10:44,330 - INFO - Last GGA Message: $GPGGA,001044.240,4020.7219611,N,08007.7268653,W,4,28,0.5,389.357,M,-33.184,M,,0000*69
2025-05-09 20:10:49,337 - INFO - RTK Status: RTK Fixed | Satellites: 28 | Altitude: 389.324m
2025-05-09 20:10:49,338 - INFO - Last GGA Message: $GPGGA,001049.240,4020.7219635,N,08007.7268649,W,4,28,0.5,389.324,M,-33.184,M,,0000*6D
2025-05-09 20:10:54,359 - INFO - RTK Status: RTK Fixed | Satellites: 28 | Altitude: 389.365m
2025-05-09 20:10:54,359 - INFO - Last GGA Message: $GPGGA,001054.280,4020.7219567,N,08007.7268662,W,4,28,0.5,389.365,M,-33.184,M,,0000*65
2025-05-09 20:10:59,364 - INFO - RTK Status: RTK Fixed | Satellites: 28 | Altitude: 389.366m
2025-05-09 20:10:59,364 - INFO - Last GGA Message: $GPGGA,001059.320,4020.7219585,N,08007.7268672,W,4,28,0.5,389.366,M,-33.184,M,,0000*6D
2025-05-09 20:11:04,374 - INFO - RTK Status: RTK Fixed | Satellites: 26 | Altitude: 389.370m
2025-05-09 20:11:04,374 - INFO - Last GGA Message: $GPGGA,001104.320,4020.7219557,N,08007.7268685,W,4,26,0.6,389.370,M,-33.184,M,,0000*69
2025-05-09 20:11:09,394 - INFO - RTK Status: RTK Fixed | Satellites: 28 | Altitude: 389.363m
2025-05-09 20:11:09,394 - INFO - Last GGA Message: $GPGGA,001109.360,4020.7219584,N,08007.7268683,W,4,28,0.5,389.363,M,-33.184,M,,0000*67
2025-05-09 20:11:14,395 - INFO - RTK Status: RTK Fixed | Satellites: 28 | Altitude: 389.354m
2025-05-09 20:11:14,395 - INFO - Last GGA Message: $GPGGA,001114.360,4020.7219588,N,08007.7268666,W,4,28,0.5,389.354,M,-33.184,M,,0000*68
2025-05-09 20:11:19,404 - INFO - RTK Status: RTK Fixed | Satellites: 28 | Altitude: 389.332m
2025-05-09 20:11:19,404 - INFO - Last GGA Message: $GPGGA,001119.360,4020.7219600,N,08007.7268680,W,4,28,0.5,389.332,M,-33.184,M,,0000*6E
2025-05-09 20:11:24,455 - INFO - RTK Status: RTK Fixed | Satellites: 28 | Altitude: 389.336m
2025-05-09 20:11:24,455 - INFO - Last GGA Message: $GPGGA,001124.400,4020.7219544,N,08007.7268720,W,4,28,0.5,389.336,M,-33.184,M,,0000*6D
2025-05-09 20:11:29,495 - INFO - RTK Status: RTK Fixed | Satellites: 28 | Altitude: 389.316m
2025-05-09 20:11:29,495 - INFO - Last GGA Message: $GPGGA,001129.440,4020.7219625,N,08007.7268742,W,4,28,0.5,389.316,M,-33.184,M,,0000*66
2025-05-09 20:11:34,544 - INFO - RTK Status: RTK Fixed | Satellites: 28 | Altitude: 389.320m
2025-05-09 20:11:34,544 - INFO - Last GGA Message: $GPGGA,001134.480,4020.7219608,N,08007.7268735,W,4,28,0.5,389.320,M,-33.184,M,,0000*6C
2025-05-09 20:11:39,544 - INFO - RTK Status: RTK Fixed | Satellites: 28 | Altitude: 389.313m
2025-05-09 20:11:39,544 - INFO - Last GGA Message: $GPGGA,001139.480,4020.7219620,N,08007.7268762,W,4,28,0.5,389.313,M,-33.184,M,,0000*69
2025-05-09 20:11:44,544 - INFO - RTK Status: RTK Fixed | Satellites: 28 | Altitude: 389.321m
2025-05-09 20:11:44,544 - INFO - Last GGA Message: $GPGGA,001144.480,4020.7219621,N,08007.7268733,W,4,28,0.5,389.321,M,-33.184,M,,0000*67
2025-05-09 20:11:49,564 - INFO - RTK Status: RTK Fixed | Satellites: 28 | Altitude: 389.309m
2025-05-09 20:11:49,564 - INFO - Last GGA Message: $GPGGA,001149.520,4020.7219639,N,08007.7268798,W,4,28,0.5,389.309,M,-33.184,M,,0000*63
2025-05-09 20:11:54,597 - INFO - RTK Status: RTK Fixed | Satellites: 28 | Altitude: 389.320m
2025-05-09 20:11:54,597 - INFO - Last GGA Message: $GPGGA,001154.560,4020.7219602,N,08007.7268686,W,4,28,0.5,389.320,M,-33.184,M,,0000*66
2025-05-09 20:11:59,645 - INFO - RTK Status: RTK Fixed | Satellites: 26 | Altitude: 389.323m
2025-05-09 20:11:59,645 - INFO - Last GGA Message: $GPGGA,001159.600,4020.7219589,N,08007.7268650,W,4,26,0.6,389.323,M,-33.184,M,,0000*6B
2025-05-09 20:12:04,655 - INFO - RTK Status: RTK Fixed | Satellites: 26 | Altitude: 389.370m
2025-05-09 20:12:04,655 - INFO - Last GGA Message: $GPGGA,001204.600,4020.7219554,N,08007.7268618,W,4,26,0.6,389.370,M,-33.184,M,,0000*6A
2025-05-09 20:12:09,695 - INFO - RTK Status: RTK Fixed | Satellites: 28 | Altitude: 389.368m
2025-05-09 20:12:09,695 - INFO - Last GGA Message: $GPGGA,001209.640,4020.7219538,N,08007.7268683,W,4,28,0.5,389.368,M,-33.184,M,,0000*6F
2025-05-09 20:12:14,745 - INFO - RTK Status: RTK Fixed | Satellites: 26 | Altitude: 389.378m
2025-05-09 20:12:14,745 - INFO - Last GGA Message: $GPGGA,001214.680,4020.7219531,N,08007.7268684,W,4,26,0.6,389.378,M,-33.184,M,,0000*6D
2025-05-09 20:12:19,765 - INFO - RTK Status: RTK Fixed | Satellites: 27 | Altitude: 389.386m
2025-05-09 20:12:19,765 - INFO - Last GGA Message: $GPGGA,001219.720,4020.7219555,N,08007.7268717,W,4,27,0.5,389.386,M,-33.184,M,,0000*61
2025-05-09 20:12:24,771 - INFO - RTK Status: RTK Fixed | Satellites: 28 | Altitude: 389.383m
2025-05-09 20:12:24,771 - INFO - Last GGA Message: $GPGGA,001224.720,4020.7219593,N,08007.7268727,W,4,28,0.5,389.383,M,-33.184,M,,0000*6C
2025-05-09 20:12:29,771 - INFO - RTK Status: RTK Fixed | Satellites: 28 | Altitude: 389.394m
2025-05-09 20:12:29,771 - INFO - Last GGA Message: $GPGGA,001229.720,4020.7219515,N,08007.7268710,W,4,28,0.5,389.394,M,-33.184,M,,0000*6D
2025-05-09 20:12:34,797 - INFO - RTK Status: RTK Fixed | Satellites: 28 | Altitude: 389.388m
2025-05-09 20:12:34,797 - INFO - Last GGA Message: $GPGGA,001234.760,4020.7219529,N,08007.7268672,W,4,28,0.5,389.388,M,-33.184,M,,0000*62
2025-05-09 20:12:39,845 - INFO - RTK Status: RTK Fixed | Satellites: 28 | Altitude: 389.386m
2025-05-09 20:12:39,845 - INFO - Last GGA Message: $GPGGA,001239.800,4020.7219561,N,08007.7268690,W,4,28,0.5,389.386,M,-33.184,M,,0000*68
2025-05-09 20:12:44,854 - INFO - RTK Status: RTK Fixed | Satellites: 26 | Altitude: 389.366m
2025-05-09 20:12:44,854 - INFO - Last GGA Message: $GPGGA,001244.800,4020.7219562,N,08007.7268733,W,4,26,0.6,389.366,M,-33.184,M,,0000*6A
2025-05-09 20:12:49,894 - INFO - RTK Status: RTK Fixed | Satellites: 27 | Altitude: 389.381m
2025-05-09 20:12:49,894 - INFO - Last GGA Message: $GPGGA,001249.840,4020.7219525,N,08007.7268676,W,4,27,0.5,389.381,M,-33.184,M,,0000*6B
2025-05-09 20:12:54,895 - INFO - RTK Status: RTK Fixed | Satellites: 26 | Altitude: 389.380m
2025-05-09 20:12:54,895 - INFO - Last GGA Message: $GPGGA,001254.840,4020.7219626,N,08007.7268734,W,4,26,0.6,389.380,M,-33.184,M,,0000*63
2025-05-09 20:12:59,945 - INFO - RTK Status: RTK Fixed | Satellites: 27 | Altitude: 389.371m
2025-05-09 20:12:59,945 - INFO - Last GGA Message: $GPGGA,001259.880,4020.7219522,N,08007.7268684,W,4,27,0.5,389.371,M,-33.184,M,,0000*63
2025-05-09 20:13:04,957 - INFO - RTK Status: RTK Fixed | Satellites: 27 | Altitude: 389.376m
2025-05-09 20:13:04,957 - INFO - Last GGA Message: $GPGGA,001304.920,4020.7219570,N,08007.7268669,W,4,27,0.5,389.376,M,-33.184,M,,0000*62
2025-05-09 20:13:09,973 - INFO - RTK Status: RTK Fixed | Satellites: 27 | Altitude: 389.393m
2025-05-09 20:13:09,974 - INFO - Last GGA Message: $GPGGA,001309.920,4020.7219488,N,08007.7268651,W,4,27,0.5,389.393,M,-33.184,M,,0000*69
2025-05-09 20:13:14,997 - INFO - RTK Status: RTK Fixed | Satellites: 26 | Altitude: 389.401m
2025-05-09 20:13:14,997 - INFO - Last GGA Message: $GPGGA,001314.960,4020.7219539,N,08007.7268645,W,4,26,0.6,389.401,M,-33.184,M,,0000*61
2025-05-09 20:13:20,096 - INFO - RTK Status: RTK Fixed | Satellites: 27 | Altitude: 389.286m
2025-05-09 20:13:20,096 - INFO - Last GGA Message: $GPGGA,001320.000,4020.7219593,N,08007.7268613,W,4,27,0.6,389.286,M,-33.100,M,1.000,0000*41
2025-05-09 20:13:25,112 - INFO - RTK Status: RTK Fixed | Satellites: 28 | Altitude: 389.276m
2025-05-09 20:13:25,112 - INFO - Last GGA Message: $GPGGA,001325.000,4020.7219651,N,08007.7268664,W,4,28,0.6,389.276,M,-33.100,M,1.000,0000*49
2025-05-09 20:13:30,232 - INFO - RTK Status: RTK Fixed | Satellites: 28 | Altitude: 389.352m
2025-05-09 20:13:30,232 - INFO - Last GGA Message: $GPGGA,001330.040,4020.7219658,N,08007.7268684,W,4,28,0.6,389.352,M,-33.184,M,,0000*6A
2025-05-09 20:13:35,247 - INFO - RTK Status: RTK Fixed | Satellites: 28 | Altitude: 389.363m
2025-05-09 20:13:35,247 - INFO - Last GGA Message: $GPGGA,001335.040,4020.7219653,N,08007.7268645,W,4,28,0.6,389.363,M,-33.184,M,,0000*6B
2025-05-09 20:13:40,259 - INFO - RTK Status: RTK Fixed | Satellites: 26 | Altitude: 389.336m
2025-05-09 20:13:40,259 - INFO - Last GGA Message: $GPGGA,001340.080,4020.7219707,N,08007.7268651,W,4,26,0.6,389.336,M,-33.184,M,,0000*6E
2025-05-09 20:13:45,275 - INFO - RTK Status: RTK Fixed | Satellites: 25 | Altitude: 389.345m
2025-05-09 20:13:45,276 - INFO - Last GGA Message: $GPGGA,001345.120,4020.7219678,N,08007.7268669,W,4,25,0.6,389.345,M,-33.184,M,,0000*65
2025-05-09 20:13:50,281 - INFO - RTK Status: RTK Fixed | Satellites: 28 | Altitude: 389.347m
2025-05-09 20:13:50,281 - INFO - Last GGA Message: $GPGGA,001350.120,4020.7219699,N,08007.7268638,W,4,28,0.5,389.347,M,-33.184,M,,0000*66
2025-05-09 20:13:55,289 - INFO - RTK Status: RTK Fixed | Satellites: 26 | Altitude: 389.349m
2025-05-09 20:13:55,289 - INFO - Last GGA Message: $GPGGA,001355.160,4020.7219668,N,08007.7268660,W,4,26,0.6,389.349,M,-33.184,M,,0000*67
2025-05-09 20:14:00,292 - INFO - RTK Status: RTK Fixed | Satellites: 25 | Altitude: 389.345m
2025-05-09 20:14:00,292 - INFO - Last GGA Message: $GPGGA,001400.160,4020.7219654,N,08007.7268704,W,4,25,0.6,389.345,M,-33.184,M,,0000*63
2025-05-09 20:14:05,308 - INFO - RTK Status: RTK Fixed | Satellites: 28 | Altitude: 389.356m
2025-05-09 20:14:05,309 - INFO - Last GGA Message: $GPGGA,001405.200,4020.7219664,N,08007.7268643,W,4,28,0.5,389.356,M,-33.184,M,,0000*6E
2025-05-09 20:14:10,327 - INFO - RTK Status: RTK Fixed | Satellites: 27 | Altitude: 389.375m
2025-05-09 20:14:10,327 - INFO - Last GGA Message: $GPGGA,001410.240,4020.7219555,N,08007.7268518,W,4,27,0.5,389.375,M,-33.184,M,,0000*6C
2025-05-09 20:14:15,344 - INFO - RTK Status: RTK Fixed | Satellites: 27 | Altitude: 389.368m
2025-05-09 20:14:15,344 - INFO - Last GGA Message: $GPGGA,001415.280,4020.7219559,N,08007.7268513,W,4,27,0.5,389.368,M,-33.184,M,,0000*6E
2025-05-09 20:14:20,348 - INFO - RTK Status: RTK Fixed | Satellites: 26 | Altitude: 389.374m
2025-05-09 20:14:20,348 - INFO - Last GGA Message: $GPGGA,001420.240,4020.7219564,N,08007.7268490,W,4,26,0.6,389.374,M,-33.184,M,,0000*6F
2025-05-09 20:14:25,351 - INFO - RTK Status: RTK Fixed | Satellites: 27 | Altitude: 389.371m
2025-05-09 20:14:25,351 - INFO - Last GGA Message: $GPGGA,001425.280,4020.7219546,N,08007.7268496,W,4,27,0.5,389.371,M,-33.184,M,,0000*67
2025-05-09 20:14:30,366 - INFO - RTK Status: RTK Fixed | Satellites: 24 | Altitude: 389.387m
2025-05-09 20:14:30,367 - INFO - Last GGA Message: $GPGGA,001430.280,4020.7219519,N,08007.7268478,W,4,24,0.6,389.387,M,-33.184,M,,0000*60
2025-05-09 20:14:35,368 - INFO - RTK Status: RTK Fixed | Satellites: 25 | Altitude: 389.391m
2025-05-09 20:14:35,368 - INFO - Last GGA Message: $GPGGA,001435.320,4020.7219550,N,08007.7268459,W,4,25,0.6,389.391,M,-33.184,M,,0000*66
2025-05-09 20:14:40,372 - INFO - RTK Status: RTK Fixed | Satellites: 25 | Altitude: 389.368m
2025-05-09 20:14:40,372 - INFO - Last GGA Message: $GPGGA,001440.320,4020.7219552,N,08007.7268478,W,4,25,0.6,389.368,M,-33.184,M,,0000*63
2025-05-09 20:14:42,106 - INFO - GGA (Status not RTK Fixed): $GPGGA,001442.000,4020.7219531,N,08007.7268447,W,5,26,0.6,389.283,M,-33.100,M,1.000,0000*4C
2025-05-09 20:14:43,242 - INFO - GGA (Status not RTK Fixed): $GPGGA,001443.040,4020.7219516,N,08007.7268479,W,5,27,0.6,389.375,M,-33.184,M,,0000*6B
2025-05-09 20:14:44,255 - INFO - GGA (Status not RTK Fixed): $GPGGA,001444.080,4020.7219487,N,08007.7268449,W,5,27,0.6,389.386,M,-33.184,M,,0000*66
2025-05-09 20:14:45,379 - INFO - RTK Status: RTK Fixed | Satellites: 26 | Altitude: 389.394m
2025-05-09 20:14:45,379 - INFO - Last GGA Message: $GPGGA,001445.320,4020.7219543,N,08007.7268499,W,4,26,0.6,389.394,M,-33.184,M,,0000*69
2025-05-09 20:14:50,404 - INFO - RTK Status: RTK Fixed | Satellites: 27 | Altitude: 389.377m
2025-05-09 20:14:50,404 - INFO - Last GGA Message: $GPGGA,001450.360,4020.7219610,N,08007.7268549,W,4,27,0.6,389.377,M,-33.184,M,,0000*6C
2025-05-09 20:14:55,445 - INFO - RTK Status: RTK Fixed | Satellites: 27 | Altitude: 389.374m
2025-05-09 20:14:55,445 - INFO - Last GGA Message: $GPGGA,001455.400,4020.7219597,N,08007.7268560,W,4,27,0.6,389.374,M,-33.184,M,,0000*6C
2025-05-09 20:15:00,494 - INFO - RTK Status: RTK Fixed | Satellites: 28 | Altitude: 389.376m
2025-05-09 20:15:00,494 - INFO - Last GGA Message: $GPGGA,001500.440,4020.7219601,N,08007.7268577,W,4,28,0.5,389.376,M,-33.184,M,,0000*6D
2025-05-09 20:15:05,494 - INFO - RTK Status: RTK Fixed | Satellites: 29 | Altitude: 389.375m
2025-05-09 20:15:05,494 - INFO - Last GGA Message: $GPGGA,001505.440,4020.7219589,N,08007.7268584,W,4,29,0.5,389.375,M,-33.184,M,,0000*65
2025-05-09 20:15:10,504 - INFO - RTK Status: RTK Fixed | Satellites: 29 | Altitude: 389.380m
2025-05-09 20:15:10,504 - INFO - Last GGA Message: $GPGGA,001510.440,4020.7219581,N,08007.7268604,W,4,29,0.5,389.380,M,-33.184,M,,0000*68
2025-05-09 20:15:15,544 - INFO - RTK Status: RTK Fixed | Satellites: 28 | Altitude: 389.398m
2025-05-09 20:15:15,544 - INFO - Last GGA Message: $GPGGA,001515.480,4020.7219582,N,08007.7268533,W,4,28,0.5,389.398,M,-33.184,M,,0000*6D
2025-05-09 20:15:20,550 - INFO - RTK Status: RTK Fixed | Satellites: 29 | Altitude: 389.400m
2025-05-09 20:15:20,550 - INFO - Last GGA Message: $GPGGA,001520.480,4020.7219578,N,08007.7268536,W,4,29,0.5,389.400,M,-33.184,M,,0000*6C
2025-05-09 20:15:25,572 - INFO - RTK Status: RTK Fixed | Satellites: 29 | Altitude: 389.392m
2025-05-09 20:15:25,572 - INFO - Last GGA Message: $GPGGA,001525.520,4020.7219556,N,08007.7268474,W,4,29,0.5,389.392,M,-33.184,M,,0000*65
2025-05-09 20:15:30,594 - INFO - RTK Status: RTK Fixed | Satellites: 25 | Altitude: 389.397m
2025-05-09 20:15:30,594 - INFO - Last GGA Message: $GPGGA,001530.560,4020.7219557,N,08007.7268427,W,4,25,0.6,389.397,M,-33.184,M,,0000*68
2025-05-09 20:15:35,608 - INFO - RTK Status: RTK Fixed | Satellites: 25 | Altitude: 389.403m
2025-05-09 20:15:35,608 - INFO - Last GGA Message: $GPGGA,001535.560,4020.7219561,N,08007.7268511,W,4,25,0.6,389.403,M,-33.184,M,,0000*66
2025-05-09 20:15:40,644 - INFO - RTK Status: RTK Fixed | Satellites: 27 | Altitude: 389.384m
2025-05-09 20:15:40,644 - INFO - Last GGA Message: $GPGGA,001540.600,4020.7219515,N,08007.7268490,W,4,27,0.5,389.384,M,-33.184,M,,0000*63
2025-05-09 20:15:45,645 - INFO - RTK Status: RTK Fixed | Satellites: 29 | Altitude: 389.355m
2025-05-09 20:15:45,645 - INFO - Last GGA Message: $GPGGA,001545.600,4020.7219599,N,08007.7268550,W,4,29,0.5,389.355,M,-33.184,M,,0000*6D
2025-05-09 20:15:50,645 - INFO - RTK Status: RTK Fixed | Satellites: 26 | Altitude: 389.359m
2025-05-09 20:15:50,645 - INFO - Last GGA Message: $GPGGA,001550.600,4020.7219647,N,08007.7268562,W,4,26,0.6,389.359,M,-33.184,M,,0000*68
2025-05-09 20:15:55,694 - INFO - RTK Status: RTK Fixed | Satellites: 28 | Altitude: 389.380m
2025-05-09 20:15:55,694 - INFO - Last GGA Message: $GPGGA,001555.640,4020.7219581,N,08007.7268469,W,4,28,0.5,389.380,M,-33.184,M,,0000*63
2025-05-09 20:16:00,694 - INFO - RTK Status: RTK Fixed | Satellites: 29 | Altitude: 389.404m
2025-05-09 20:16:00,694 - INFO - Last GGA Message: $GPGGA,001600.640,4020.7219539,N,08007.7268429,W,4,29,0.5,389.404,M,-33.184,M,,0000*6D
2025-05-09 20:16:05,745 - INFO - RTK Status: RTK Fixed | Satellites: 27 | Altitude: 389.439m
2025-05-09 20:16:05,745 - INFO - Last GGA Message: $GPGGA,001605.680,4020.7219463,N,08007.7268611,W,4,27,0.5,389.439,M,-33.184,M,,0000*63
2025-05-09 20:16:10,770 - INFO - RTK Status: RTK Fixed | Satellites: 28 | Altitude: 389.428m
2025-05-09 20:16:10,771 - INFO - Last GGA Message: $GPGGA,001610.720,4020.7219462,N,08007.7268568,W,4,28,0.5,389.428,M,-33.184,M,,0000*6F
2025-05-09 20:16:15,771 - INFO - RTK Status: RTK Fixed | Satellites: 29 | Altitude: 389.452m
2025-05-09 20:16:15,771 - INFO - Last GGA Message: $GPGGA,001615.720,4020.7219436,N,08007.7268431,W,4,29,0.5,389.452,M,-33.184,M,,0000*6A
2025-05-09 20:16:20,795 - INFO - RTK Status: RTK Fixed | Satellites: 27 | Altitude: 389.446m
2025-05-09 20:16:20,795 - INFO - Last GGA Message: $GPGGA,001620.760,4020.7219454,N,08007.7268510,W,4,27,0.5,389.446,M,-33.184,M,,0000*65
2025-05-09 20:16:25,804 - INFO - RTK Status: RTK Fixed | Satellites: 26 | Altitude: 389.445m
2025-05-09 20:16:25,804 - INFO - Last GGA Message: $GPGGA,001625.760,4020.7219480,N,08007.7268573,W,4,26,0.6,389.445,M,-33.184,M,,0000*6D
2025-05-09 20:16:30,845 - INFO - RTK Status: RTK Fixed | Satellites: 28 | Altitude: 389.450m
2025-05-09 20:16:30,845 - INFO - Last GGA Message: $GPGGA,001630.800,4020.7219423,N,08007.7268524,W,4,28,0.5,389.450,M,-33.184,M,,0000*62
2025-05-09 20:16:35,894 - INFO - RTK Status: RTK Fixed | Satellites: 27 | Altitude: 389.439m
2025-05-09 20:16:35,894 - INFO - Last GGA Message: $GPGGA,001635.840,4020.7219428,N,08007.7268587,W,4,27,0.5,389.439,M,-33.184,M,,0000*61
2025-05-09 20:16:40,895 - INFO - RTK Status: RTK Fixed | Satellites: 28 | Altitude: 389.411m
2025-05-09 20:16:40,895 - INFO - Last GGA Message: $GPGGA,001640.840,4020.7219467,N,08007.7268553,W,4,28,0.5,389.411,M,-33.184,M,,0000*64
2025-05-09 20:16:45,944 - INFO - RTK Status: RTK Fixed | Satellites: 27 | Altitude: 389.433m
2025-05-09 20:16:45,944 - INFO - Last GGA Message: $GPGGA,001645.880,4020.7219481,N,08007.7268562,W,4,27,0.5,389.433,M,-33.184,M,,0000*68
2025-05-09 20:16:50,964 - INFO - RTK Status: RTK Fixed | Satellites: 26 | Altitude: 389.432m
2025-05-09 20:16:50,964 - INFO - Last GGA Message: $GPGGA,001650.920,4020.7219453,N,08007.7268609,W,4,26,0.6,389.432,M,-33.184,M,,0000*65
2025-05-09 20:16:55,965 - INFO - RTK Status: RTK Fixed | Satellites: 30 | Altitude: 389.441m
2025-05-09 20:16:55,965 - INFO - Last GGA Message: $GPGGA,001655.920,4020.7219427,N,08007.7268611,W,4,30,0.5,389.441,M,-33.184,M,,0000*6A
2025-05-09 20:17:00,965 - INFO - RTK Status: RTK Fixed | Satellites: 30 | Altitude: 389.458m
2025-05-09 20:17:00,965 - INFO - Last GGA Message: $GPGGA,001700.920,4020.7219445,N,08007.7268613,W,4,30,0.5,389.458,M,-33.184,M,,0000*65
2025-05-09 20:17:06,004 - INFO - RTK Status: RTK Fixed | Satellites: 28 | Altitude: 389.441m
2025-05-09 20:17:06,004 - INFO - Last GGA Message: $GPGGA,001705.960,4020.7219411,N,08007.7268655,W,4,28,0.5,389.441,M,-33.184,M,,0000*66
2025-05-09 20:17:11,012 - INFO - RTK Status: RTK Fixed | Satellites: 30 | Altitude: 389.440m
2025-05-09 20:17:11,012 - INFO - Last GGA Message: $GPGGA,001710.960,4020.7219426,N,08007.7268703,W,4,30,0.5,389.440,M,-33.184,M,,0000*6C
2025-05-09 20:17:16,085 - INFO - RTK Status: RTK Fixed | Satellites: 30 | Altitude: 389.337m
2025-05-09 20:17:16,085 - INFO - Last GGA Message: $GPGGA,001716.000,4020.7219432,N,08007.7268606,W,4,30,0.5,389.337,M,-33.100,M,1.000,0000*40
2025-05-09 20:17:21,103 - INFO - RTK Status: RTK Fixed | Satellites: 29 | Altitude: 389.332m
2025-05-09 20:17:21,103 - INFO - Last GGA Message: $GPGGA,001721.000,4020.7219400,N,08007.7268550,W,4,29,0.5,389.332,M,-33.100,M,1.000,0000*48
2025-05-09 20:17:26,241 - INFO - RTK Status: RTK Fixed | Satellites: 29 | Altitude: 389.427m
2025-05-09 20:17:26,241 - INFO - Last GGA Message: $GPGGA,001726.040,4020.7219422,N,08007.7268620,W,4,29,0.5,389.427,M,-33.184,M,,0000*6F
2025-05-09 20:17:31,258 - INFO - RTK Status: RTK Fixed | Satellites: 28 | Altitude: 389.429m
2025-05-09 20:17:31,258 - INFO - Last GGA Message: $GPGGA,001731.080,4020.7219457,N,08007.7268568,W,4,28,0.5,389.429,M,-33.184,M,,0000*67
2025-05-09 20:17:36,259 - INFO - RTK Status: RTK Fixed | Satellites: 26 | Altitude: 389.425m
2025-05-09 20:17:36,259 - INFO - Last GGA Message: $GPGGA,001736.080,4020.7219412,N,08007.7268535,W,4,26,0.6,389.425,M,-33.184,M,,0000*68
2025-05-09 20:17:41,274 - INFO - RTK Status: RTK Fixed | Satellites: 29 | Altitude: 389.428m
2025-05-09 20:17:41,274 - INFO - Last GGA Message: $GPGGA,001741.120,4020.7219422,N,08007.7268555,W,4,29,0.5,389.428,M,-33.184,M,,0000*67
2025-05-09 20:17:46,297 - INFO - RTK Status: RTK Fixed | Satellites: 30 | Altitude: 389.412m
2025-05-09 20:17:46,297 - INFO - Last GGA Message: $GPGGA,001746.160,4020.7219444,N,08007.7268558,W,4,30,0.5,389.412,M,-33.184,M,,0000*68
2025-05-09 20:17:51,309 - INFO - RTK Status: RTK Fixed | Satellites: 30 | Altitude: 389.435m
2025-05-09 20:17:51,309 - INFO - Last GGA Message: $GPGGA,001751.200,4020.7219424,N,08007.7268484,W,4,30,0.5,389.435,M,-33.184,M,,0000*68
2025-05-09 20:17:56,319 - INFO - RTK Status: RTK Fixed | Satellites: 29 | Altitude: 389.443m
2025-05-09 20:17:56,319 - INFO - Last GGA Message: $GPGGA,001756.200,4020.7219374,N,08007.7268546,W,4,29,0.5,389.443,M,-33.184,M,,0000*6B
2025-05-09 20:18:01,335 - INFO - RTK Status: RTK Fixed | Satellites: 27 | Altitude: 389.441m
2025-05-09 20:18:01,336 - INFO - Last GGA Message: $GPGGA,001801.240,4020.7219378,N,08007.7268571,W,4,27,0.5,389.441,M,-33.184,M,,0000*66
2025-05-09 20:18:06,349 - INFO - RTK Status: RTK Fixed | Satellites: 27 | Altitude: 389.452m
2025-05-09 20:18:06,349 - INFO - Last GGA Message: $GPGGA,001806.280,4020.7219403,N,08007.7268597,W,4,27,0.5,389.452,M,-33.184,M,,0000*6C
2025-05-09 20:18:11,353 - INFO - RTK Status: RTK Fixed | Satellites: 29 | Altitude: 389.412m
2025-05-09 20:18:11,353 - INFO - Last GGA Message: $GPGGA,001811.280,4020.7219524,N,08007.7268566,W,4,29,0.5,389.412,M,-33.184,M,,0000*6A
2025-05-09 20:18:16,361 - INFO - RTK Status: RTK Fixed | Satellites: 30 | Altitude: 389.448m
2025-05-09 20:18:16,361 - INFO - Last GGA Message: $GPGGA,001816.280,4020.7219394,N,08007.7268576,W,4,30,0.5,389.448,M,-33.184,M,,0000*66
2025-05-09 20:18:21,368 - INFO - RTK Status: RTK Fixed | Satellites: 28 | Altitude: 389.454m
2025-05-09 20:18:21,368 - INFO - Last GGA Message: $GPGGA,001821.280,4020.7219422,N,08007.7268591,W,4,28,0.5,389.454,M,-33.184,M,,0000*65
2025-05-09 20:18:26,375 - INFO - RTK Status: RTK Fixed | Satellites: 29 | Altitude: 389.463m
2025-05-09 20:18:26,375 - INFO - Last GGA Message: $GPGGA,001826.320,4020.7219339,N,08007.7268473,W,4,29,0.5,389.463,M,-33.184,M,,0000*6C
2025-05-09 20:18:31,385 - INFO - RTK Status: RTK Fixed | Satellites: 29 | Altitude: 389.445m
2025-05-09 20:18:31,385 - INFO - Last GGA Message: $GPGGA,001831.320,4020.7219366,N,08007.7268596,W,4,29,0.5,389.445,M,-33.184,M,,0000*6E
2025-05-09 20:18:36,397 - INFO - RTK Status: RTK Fixed | Satellites: 28 | Altitude: 389.444m
2025-05-09 20:18:36,398 - INFO - Last GGA Message: $GPGGA,001836.360,4020.7219433,N,08007.7268573,W,4,28,0.5,389.444,M,-33.184,M,,0000*61
2025-05-09 20:18:41,444 - INFO - RTK Status: RTK Fixed | Satellites: 29 | Altitude: 389.474m
2025-05-09 20:18:41,444 - INFO - Last GGA Message: $GPGGA,001841.400,4020.7219387,N,08007.7268572,W,4,29,0.5,389.474,M,-33.184,M,,0000*6B
2025-05-09 20:18:46,494 - INFO - RTK Status: RTK Fixed | Satellites: 30 | Altitude: 389.446m
2025-05-09 20:18:46,494 - INFO - Last GGA Message: $GPGGA,001846.440,4020.7219410,N,08007.7268597,W,4,30,0.5,389.446,M,-33.184,M,,0000*63
2025-05-09 20:18:51,494 - INFO - RTK Status: RTK Fixed | Satellites: 30 | Altitude: 389.452m
2025-05-09 20:18:51,495 - INFO - Last GGA Message: $GPGGA,001851.440,4020.7219368,N,08007.7268655,W,4,30,0.5,389.452,M,-33.184,M,,0000*65
2025-05-09 20:18:56,544 - INFO - RTK Status: RTK Fixed | Satellites: 29 | Altitude: 389.470m
2025-05-09 20:18:56,545 - INFO - Last GGA Message: $GPGGA,001856.480,4020.7219332,N,08007.7268612,W,4,29,0.5,389.470,M,-33.184,M,,0000*6A
2025-05-09 20:19:01,567 - INFO - RTK Status: RTK Fixed | Satellites: 27 | Altitude: 389.464m
2025-05-09 20:19:01,567 - INFO - Last GGA Message: $GPGGA,001901.520,4020.7219378,N,08007.7268663,W,4,27,0.5,389.464,M,-33.184,M,,0000*61
2025-05-09 20:19:06,594 - INFO - RTK Status: RTK Fixed | Satellites: 27 | Altitude: 389.447m
2025-05-09 20:19:06,595 - INFO - Last GGA Message: $GPGGA,001906.560,4020.7219407,N,08007.7268641,W,4,27,0.5,389.447,M,-33.184,M,,0000*6C
2025-05-09 20:19:11,644 - INFO - RTK Status: RTK Fixed | Satellites: 27 | Altitude: 389.467m
2025-05-09 20:19:11,645 - INFO - Last GGA Message: $GPGGA,001911.600,4020.7219362,N,08007.7268612,W,4,27,0.5,389.467,M,-33.184,M,,0000*6F
2025-05-09 20:19:16,694 - INFO - RTK Status: RTK Fixed | Satellites: 28 | Altitude: 389.457m
2025-05-09 20:19:16,694 - INFO - Last GGA Message: $GPGGA,001916.640,4020.7219379,N,08007.7268578,W,4,28,0.5,389.457,M,-33.184,M,,0000*65
2025-05-09 20:19:17,103 - INFO - GGA (Status not RTK Fixed): $GPGGA,001917.000,4020.7219452,N,08007.7268555,W,5,28,0.5,389.340,M,-33.100,M,1.000,0000*44
2025-05-09 20:19:21,743 - INFO - RTK Status: RTK Fixed | Satellites: 26 | Altitude: 389.445m
2025-05-09 20:19:21,743 - INFO - Last GGA Message: $GPGGA,001921.680,4020.7219380,N,08007.7268563,W,4,26,0.6,389.445,M,-33.184,M,,0000*6F
2025-05-09 20:19:26,098 - INFO - GGA (Status not RTK Fixed): $GPGGA,001926.000,4020.7219337,N,08007.7268503,W,5,29,0.5,389.372,M,-33.100,M,2.000,0000*42
2025-05-09 20:19:26,744 - INFO - RTK Status: RTK Float | Satellites: 29 | Altitude: 389.476m
2025-05-09 20:19:26,745 - INFO - Last GGA Message: $GPGGA,001926.680,4020.7219301,N,08007.7268544,W,5,29,0.5,389.476,M,-33.184,M,,0000*69
2025-05-09 20:19:31,764 - INFO - RTK Status: RTK Fixed | Satellites: 30 | Altitude: 389.475m
2025-05-09 20:19:31,765 - INFO - Last GGA Message: $GPGGA,001931.720,4020.7219351,N,08007.7268509,W,4,30,0.5,389.475,M,-33.184,M,,0000*62
2025-05-09 20:19:36,767 - INFO - RTK Status: RTK Fixed | Satellites: 29 | Altitude: 389.475m
2025-05-09 20:19:36,767 - INFO - Last GGA Message: $GPGGA,001936.720,4020.7219367,N,08007.7268598,W,4,29,0.5,389.475,M,-33.184,M,,0000*60
2025-05-09 20:19:41,768 - INFO - RTK Status: RTK Fixed | Satellites: 29 | Altitude: 389.460m
2025-05-09 20:19:41,768 - INFO - Last GGA Message: $GPGGA,001941.720,4020.7219376,N,08007.7268628,W,4,29,0.5,389.460,M,-33.184,M,,0000*6C
2025-05-09 20:19:46,774 - INFO - RTK Status: RTK Fixed | Satellites: 30 | Altitude: 389.444m
2025-05-09 20:19:46,774 - INFO - Last GGA Message: $GPGGA,001946.720,4020.7219439,N,08007.7268556,W,4,30,0.5,389.444,M,-33.184,M,,0000*63
2025-05-09 20:19:51,098 - INFO - GGA (Status not RTK Fixed): $GPGGA,001951.000,4020.7219443,N,08007.7268578,W,5,29,0.5,389.347,M,-33.100,M,1.000,0000*4F
2025-05-09 20:19:51,794 - INFO - RTK Status: RTK Float | Satellites: 29 | Altitude: 389.451m
2025-05-09 20:19:51,794 - INFO - Last GGA Message: $GPGGA,001951.760,4020.7219412,N,08007.7268667,W,5,29,0.5,389.451,M,-33.184,M,,0000*64
2025-05-09 20:19:56,804 - INFO - RTK Status: RTK Fixed | Satellites: 27 | Altitude: 389.480m
2025-05-09 20:19:56,804 - INFO - Last GGA Message: $GPGGA,001956.760,4020.7219349,N,08007.7268528,W,4,27,0.5,389.480,M,-33.184,M,,0000*61
2025-05-09 20:20:01,833 - INFO - RTK Status: RTK Fixed | Satellites: 27 | Altitude: 389.480m
2025-05-09 20:20:01,834 - INFO - Last GGA Message: $GPGGA,002001.800,4020.7219386,N,08007.7268584,W,4,27,0.6,389.480,M,-33.184,M,,0000*66
2025-05-09 20:20:06,844 - INFO - RTK Status: RTK Fixed | Satellites: 30 | Altitude: 389.484m
2025-05-09 20:20:06,844 - INFO - Last GGA Message: $GPGGA,002006.800,4020.7219341,N,08007.7268512,W,4,30,0.5,389.484,M,-33.184,M,,0000*64
2025-05-09 20:20:11,884 - INFO - RTK Status: RTK Fixed | Satellites: 29 | Altitude: 389.481m
2025-05-09 20:20:11,884 - INFO - Last GGA Message: $GPGGA,002011.840,4020.7219328,N,08007.7268548,W,4,29,0.5,389.481,M,-33.184,M,,0000*6B
2025-05-09 20:20:16,924 - INFO - RTK Status: RTK Fixed | Satellites: 30 | Altitude: 389.489m
2025-05-09 20:20:16,924 - INFO - Last GGA Message: $GPGGA,002016.880,4020.7219375,N,08007.7268539,W,4,30,0.5,389.489,M,-33.184,M,,0000*6E
2025-05-09 20:20:21,974 - INFO - RTK Status: RTK Fixed | Satellites: 30 | Altitude: 389.490m
2025-05-09 20:20:21,974 - INFO - Last GGA Message: $GPGGA,002021.920,4020.7219350,N,08007.7268540,W,4,30,0.5,389.490,M,-33.184,M,,0000*60
2025-05-09 20:20:27,085 - INFO - RTK Status: RTK Fixed | Satellites: 30 | Altitude: 389.352m
2025-05-09 20:20:27,085 - INFO - Last GGA Message: $GPGGA,002027.000,4020.7219415,N,08007.7268502,W,4,30,0.5,389.352,M,-33.100,M,1.000,0000*47
2025-05-09 20:20:32,093 - INFO - RTK Status: RTK Fixed | Satellites: 29 | Altitude: 389.374m
2025-05-09 20:20:32,093 - INFO - Last GGA Message: $GPGGA,002032.000,4020.7219344,N,08007.7268430,W,4,29,0.5,389.374,M,-33.100,M,2.000,0000*4F
2025-05-09 20:20:37,096 - INFO - RTK Status: RTK Fixed | Satellites: 30 | Altitude: 389.358m
2025-05-09 20:20:37,096 - INFO - Last GGA Message: $GPGGA,002037.000,4020.7219371,N,08007.7268429,W,4,30,0.5,389.358,M,-33.100,M,1.000,0000*41
2025-05-09 20:20:42,098 - INFO - RTK Status: RTK Fixed | Satellites: 29 | Altitude: 389.359m
2025-05-09 20:20:42,098 - INFO - Last GGA Message: $GPGGA,002042.000,4020.7219373,N,08007.7268490,W,4,29,0.5,389.359,M,-33.100,M,1.000,0000*4A
2025-05-09 20:20:47,238 - INFO - RTK Status: RTK Fixed | Satellites: 27 | Altitude: 389.447m
2025-05-09 20:20:47,238 - INFO - Last GGA Message: $GPGGA,002047.040,4020.7219388,N,08007.7268485,W,4,27,0.5,389.447,M,-33.184,M,,0000*6E
2025-05-09 20:20:52,239 - INFO - RTK Status: RTK Fixed | Satellites: 26 | Altitude: 389.437m
2025-05-09 20:20:52,239 - INFO - Last GGA Message: $GPGGA,002052.040,4020.7219366,N,08007.7268414,W,4,26,0.5,389.437,M,-33.184,M,,0000*64
2025-05-09 20:20:57,244 - INFO - RTK Status: RTK Fixed | Satellites: 27 | Altitude: 389.444m
2025-05-09 20:20:57,244 - INFO - Last GGA Message: $GPGGA,002057.040,4020.7219412,N,08007.7268499,W,4,27,0.5,389.444,M,-33.184,M,,0000*65
2025-05-09 20:21:02,258 - INFO - RTK Status: RTK Fixed | Satellites: 24 | Altitude: 389.448m
2025-05-09 20:21:02,259 - INFO - Last GGA Message: $GPGGA,002102.080,4020.7219388,N,08007.7268486,W,4,24,0.6,389.448,M,-33.184,M,,0000*6E
2025-05-09 20:21:07,275 - INFO - RTK Status: RTK Fixed | Satellites: 28 | Altitude: 389.448m
2025-05-09 20:21:07,275 - INFO - Last GGA Message: $GPGGA,002107.120,4020.7219426,N,08007.7268522,W,4,28,0.5,389.448,M,-33.184,M,,0000*63
2025-05-09 20:21:12,287 - INFO - RTK Status: RTK Fixed | Satellites: 30 | Altitude: 389.427m
2025-05-09 20:21:12,287 - INFO - Last GGA Message: $GPGGA,002112.160,4020.7219394,N,08007.7268511,W,4,30,0.5,389.427,M,-33.184,M,,0000*6D
2025-05-09 20:21:17,303 - INFO - RTK Status: RTK Fixed | Satellites: 30 | Altitude: 389.424m
2025-05-09 20:21:17,303 - INFO - Last GGA Message: $GPGGA,002117.200,4020.7219402,N,08007.7268527,W,4,30,0.5,389.424,M,-33.184,M,,0000*63
2025-05-09 20:21:22,306 - INFO - RTK Status: RTK Fixed | Satellites: 29 | Altitude: 389.448m
2025-05-09 20:21:22,306 - INFO - Last GGA Message: $GPGGA,002122.160,4020.7219424,N,08007.7268539,W,4,29,0.5,389.448,M,-33.184,M,,0000*69
2025-05-09 20:21:27,308 - INFO - RTK Status: RTK Fixed | Satellites: 29 | Altitude: 389.438m
2025-05-09 20:21:27,309 - INFO - Last GGA Message: $GPGGA,002127.200,4020.7219428,N,08007.7268571,W,4,29,0.5,389.438,M,-33.184,M,,0000*6E
2025-05-09 20:21:32,320 - INFO - RTK Status: RTK Fixed | Satellites: 28 | Altitude: 389.459m
2025-05-09 20:21:32,320 - INFO - Last GGA Message: $GPGGA,002132.240,4020.7219412,N,08007.7268535,W,4,28,0.5,389.459,M,-33.184,M,,0000*61
2025-05-09 20:21:37,325 - INFO - RTK Status: RTK Fixed | Satellites: 25 | Altitude: 389.449m
2025-05-09 20:21:37,325 - INFO - Last GGA Message: $GPGGA,002137.240,4020.7219457,N,08007.7268515,W,4,25,0.6,389.449,M,-33.184,M,,0000*68
2025-05-09 20:21:42,333 - INFO - RTK Status: RTK Fixed | Satellites: 27 | Altitude: 389.426m
2025-05-09 20:21:42,333 - INFO - Last GGA Message: $GPGGA,002142.240,4020.7219441,N,08007.7268530,W,4,27,0.5,389.426,M,-33.184,M,,0000*62
2025-05-09 20:21:47,347 - INFO - RTK Status: RTK Fixed | Satellites: 28 | Altitude: 389.442m
2025-05-09 20:21:47,347 - INFO - Last GGA Message: $GPGGA,002147.280,4020.7219445,N,08007.7268490,W,4,28,0.5,389.442,M,-33.184,M,,0000*69
2025-05-09 20:21:52,349 - INFO - RTK Status: RTK Fixed | Satellites: 28 | Altitude: 389.443m
2025-05-09 20:21:52,349 - INFO - Last GGA Message: $GPGGA,002152.280,4020.7219438,N,08007.7268462,W,4,28,0.5,389.443,M,-33.184,M,,0000*6B
2025-05-09 20:21:57,384 - INFO - RTK Status: RTK Fixed | Satellites: 29 | Altitude: 389.422m
2025-05-09 20:21:57,384 - INFO - Last GGA Message: $GPGGA,002157.320,4020.7219494,N,08007.7268478,W,4,29,0.5,389.422,M,-33.184,M,,0000*6E
2025-05-09 20:22:02,393 - INFO - RTK Status: RTK Fixed | Satellites: 30 | Altitude: 389.417m
2025-05-09 20:22:02,393 - INFO - Last GGA Message: $GPGGA,002202.360,4020.7219489,N,08007.7268427,W,4,30,0.5,389.417,M,-33.184,M,,0000*61
2025-05-09 20:22:04,097 - INFO - GGA (Status not RTK Fixed): $GPGGA,002204.000,4020.7219494,N,08007.7268436,W,5,30,0.5,389.324,M,-33.100,M,2.000,0000*48
2025-05-09 20:22:05,232 - INFO - GGA (Status not RTK Fixed): $GPGGA,002205.040,4020.7219510,N,08007.7268457,W,5,30,0.5,389.390,M,-33.184,M,,0000*68
2025-05-09 20:22:07,393 - INFO - RTK Status: RTK Fixed | Satellites: 30 | Altitude: 389.412m
2025-05-09 20:22:07,393 - INFO - Last GGA Message: $GPGGA,002207.360,4020.7219504,N,08007.7268445,W,4,30,0.5,389.412,M,-33.184,M,,0000*61
2025-05-09 20:22:12,453 - INFO - RTK Status: RTK Fixed | Satellites: 30 | Altitude: 389.403m
2025-05-09 20:22:12,453 - INFO - Last GGA Message: $GPGGA,002212.400,4020.7219528,N,08007.7268459,W,4,30,0.5,389.403,M,-33.184,M,,0000*67
2025-05-09 20:22:17,453 - INFO - RTK Status: RTK Fixed | Satellites: 30 | Altitude: 389.407m
2025-05-09 20:22:17,453 - INFO - Last GGA Message: $GPGGA,002217.400,4020.7219531,N,08007.7268500,W,4,30,0.5,389.407,M,-33.184,M,,0000*63
2025-05-09 20:22:22,494 - INFO - RTK Status: RTK Fixed | Satellites: 29 | Altitude: 389.403m
2025-05-09 20:22:22,494 - INFO - Last GGA Message: $GPGGA,002222.440,4020.7219541,N,08007.7268451,W,4,29,0.5,389.403,M,-33.184,M,,0000*6F
2025-05-09 20:22:27,544 - INFO - RTK Status: RTK Fixed | Satellites: 26 | Altitude: 389.412m
2025-05-09 20:22:27,544 - INFO - Last GGA Message: $GPGGA,002227.480,4020.7219513,N,08007.7268463,W,4,26,0.6,389.412,M,-33.184,M,,0000*6C
2025-05-09 20:22:32,544 - INFO - RTK Status: RTK Fixed | Satellites: 26 | Altitude: 389.406m
2025-05-09 20:22:32,544 - INFO - Last GGA Message: $GPGGA,002232.480,4020.7219503,N,08007.7268522,W,4,26,0.6,389.406,M,-33.184,M,,0000*68
2025-05-09 20:22:37,584 - INFO - RTK Status: RTK Fixed | Satellites: 29 | Altitude: 389.410m
2025-05-09 20:22:37,584 - INFO - Last GGA Message: $GPGGA,002237.520,4020.7219537,N,08007.7268496,W,4,29,0.5,389.410,M,-33.184,M,,0000*64
2025-05-09 20:22:42,593 - INFO - RTK Status: RTK Fixed | Satellites: 28 | Altitude: 389.412m
