[13:08:32] $GPGGA,170832.920,4020.7222859,N,08007.7259346,W,1,27,0.5,328.391,M,-33.184,M,,0000*68
[13:08:32] $GNRMC,170832.920,A,4020.7222859,N,08007.7259346,W,000.0,000.0,260425,,,A,V*1B
[13:08:33] $GNRMC,170833.000,A,4020.7222894,N,08007.7259287,W,000.0,000.0,260425,,,A,V*1C
[13:08:33] $GPGGA,101120.240,4020.7222894,N,08007.7259287,W,1,27,0.5,328.380,M,-33.184,M,,0000*64
[13:08:33] $GNRMC,101120.240,A,4020.7222894,N,08007.7259287,W,000.0,000.0,150625,,,A,V*15
[13:08:33] $GPGGA,170833.040,4020.7222893,N,08007.7259290,W,1,27,0.5,328.381,M,-33.184,M,,0000*6B
[13:08:33] $GNRMC,170833.040,A,4020.7222893,N,08007.7259290,W,000.0,000.0,260425,,,A,V*19
[13:08:33] $GPGGA,170833.080,4020.7222892,N,08007.7259293,W,1,27,0.5,328.381,M,-33.184,M,,0000*65
[13:08:33] $GNRMC,170833.080,A,4020.7222892,N,08007.7259293,W,000.0,000.0,260425,,,A,V*17
[13:08:33] $GPGGA,170833.120,4020.7222892,N,08007.7259296,W,1,27,0.5,328.381,M,-33.184,M,,0000*6B
[13:08:33] $GNRMC,170833.120,A,4020.7222892,N,08007.7259296,W,000.0,000.0,260425,,,A,V*19
[13:08:33] $GPGGA,170833.160,4020.7222891,N,08007.7259299,W,1,27,0.5,328.381,M,-33.184,M,,0000*63
[13:08:33] $GNRMC,170833.160,A,4020.7222891,N,08007.7259299,W,000.0,000.0,260425,,,A,V*11
[13:08:33] $GPGGA,170833.200,4020.7222891,N,08007.7259302,W,1,27,0.5,328.381,M,-33.184,M,,0000*65
[13:08:33] $GNRMC,170833.200,A,4020.7222891,N,08007.7259302,W,000.0,000.0,260425,,,A,V*17
[13:08:33] $GPGGA,170833.240,4020.7222890,N,08007.7259304,W,1,27,0.5,328.382,M,-33.184,M,,0000*65
[13:08:33] $GNRMC,170833.240,A,4020.7222890,N,08007.7259304,W,000.0,000.0,260425,,,A,V*14
[13:08:33] $GPGGA,170833.280,4020.7222890,N,08007.7259307,W,1,27,0.5,328.382,M,-33.184,M,,0000*6A
[13:08:33] $GNRMC,170833.280,A,4020.7222890,N,08007.7259307,W,000.0,000.0,260425,,,A,V*1B
[13:08:33] $GPGGA,170833.320,4020.7222889,N,08007.7259310,W,1,27,0.5,328.382,M,-33.184,M,,0000*6F
[13:08:33] $GNRMC,170833.320,A,4020.7222889,N,08007.7259310,W,000.0,000.0,260425,,,A,V*1E
[13:08:33] $GPGGA,170833.360,4020.7222888,N,08007.7259313,W,1,27,0.5,328.382,M,-33.184,M,,0000*69
[13:08:33] $GNRMC,170833.360,A,4020.7222888,N,08007.7259313,W,000.0,000.0,260425,,,A,V*18
[13:08:33] $GPGGA,170833.400,4020.7222888,N,08007.7259316,W,1,27,0.5,328.383,M,-33.184,M,,0000*6C
[13:08:33] $GNRMC,170833.400,A,4020.7222888,N,08007.7259316,W,000.0,000.0,260425,,,A,V*1C
[13:08:33] $GPGGA,170833.440,4020.7222887,N,08007.7259319,W,1,27,0.5,328.383,M,-33.184,M,,0000*68
[13:08:33] $GNRMC,170833.440,A,4020.7222887,N,08007.7259319,W,000.0,000.0,260425,,,A,V*18
[13:08:33] $GPGGA,170833.480,4020.7222887,N,08007.7259322,W,1,27,0.5,328.383,M,-33.184,M,,0000*6C
[13:08:33] $GNRMC,170833.480,A,4020.7222887,N,08007.7259322,W,000.0,000.0,260425,,,A,V*1C
[13:08:33] $GPGGA,170833.520,4020.7222886,N,08007.7259325,W,1,27,0.5,328.383,M,-33.184,M,,0000*61
[13:08:33] $GNRMC,170833.520,A,4020.7222886,N,08007.7259325,W,000.0,000.0,260425,,,A,V*11
[13:08:33] $GPGGA,170833.560,4020.7222886,N,08007.7259327,W,1,27,0.5,328.383,M,-33.184,M,,0000*67
[13:08:33] $GNRMC,170833.560,A,4020.7222886,N,08007.7259327,W,000.0,000.0,260425,,,A,V*17
[13:08:33] $GPGGA,170833.600,4020.7222885,N,08007.7259330,W,1,27,0.5,328.384,M,-33.184,M,,0000*60
[13:08:33] $GNRMC,170833.600,A,4020.7222885,N,08007.7259330,W,000.0,000.0,260425,,,A,V*17
[13:08:33] $GPGGA,170833.640,4020.7222885,N,08007.7259333,W,1,27,0.5,328.384,M,-33.184,M,,0000*67
[13:08:33] $GNRMC,170833.640,A,4020.7222885,N,08007.7259333,W,000.0,000.0,260425,,,A,V*10
[13:08:33] $GPGGA,170833.680,4020.7222884,N,08007.7259336,W,1,27,0.5,328.384,M,-33.184,M,,0000*6F
[13:08:33] $GNRMC,170833.680,A,4020.7222884,N,08007.7259336,W,000.0,000.0,260425,,,A,V*18
[13:08:33] $GPGGA,170833.720,4020.7222883,N,08007.7259339,W,1,27,0.5,328.384,M,-33.184,M,,0000*6C
[13:08:33] $GNRMC,170833.720,A,4020.7222883,N,08007.7259339,W,000.0,000.0,260425,,,A,V*1B
[13:08:33] $GPGGA,170833.760,4020.7222883,N,08007.7259342,W,1,27,0.5,328.384,M,-33.184,M,,0000*64
[13:08:33] $GNRMC,170833.760,A,4020.7222883,N,08007.7259342,W,000.0,000.0,260425,,,A,V*13
[13:08:33] $GPGGA,170833.800,4020.7222882,N,08007.7259345,W,1,27,0.5,328.385,M,-33.184,M,,0000*6A
[13:08:33] $GNRMC,170833.800,A,4020.7222882,N,08007.7259345,W,000.0,000.0,260425,,,A,V*1C
[13:08:33] $GPGGA,170833.840,4020.7222882,N,08007.7259348,W,1,27,0.5,328.385,M,-33.184,M,,0000*63
[13:08:33] $GNRMC,170833.840,A,4020.7222882,N,08007.7259348,W,000.0,000.0,260425,,,A,V*15
[13:08:33] $GPGGA,170833.880,4020.7222881,N,08007.7259351,W,1,27,0.5,328.385,M,-33.184,M,,0000*64
[13:08:33] $GNRMC,170833.880,A,4020.7222881,N,08007.7259351,W,000.0,000.0,260425,,,A,V*12
[13:08:33] $GPGGA,170833.920,4020.7222881,N,08007.7259353,W,1,27,0.5,328.385,M,-33.184,M,,0000*6D
[13:08:33] $GNRMC,170833.920,A,4020.7222881,N,08007.7259353,W,000.0,000.0,260425,,,A,V*1B
[13:08:34] $GNRMC,170834.000,A,4020.7222909,N,08007.7259278,W,000.0,000.0,260425,,,A,V*1E
[13:08:34] $GPGGA,101121.240,4020.7222909,N,08007.7259278,W,1,27,0.5,328.377,M,-33.184,M,,0000*68
[13:08:34] $GNRMC,101121.240,A,4020.7222909,N,08007.7259278,W,000.0,000.0,150625,,,A,V*11
[13:08:34] $GPGGA,170834.040,4020.7222908,N,08007.7259281,W,1,27,0.5,328.377,M,-33.184,M,,0000*66
[13:08:34] $GNRMC,170834.040,A,4020.7222908,N,08007.7259281,W,000.0,000.0,260425,,,A,V*1D
[13:08:34] $GPGGA,170834.080,4020.7222907,N,08007.7259284,W,1,27,0.5,328.378,M,-33.184,M,,0000*6F
[13:08:34] $GNRMC,170834.080,A,4020.7222907,N,08007.7259284,W,000.0,000.0,260425,,,A,V*1B
[13:08:34] $GPGGA,170834.120,4020.7222907,N,08007.7259287,W,1,27,0.5,328.378,M,-33.184,M,,0000*67
[13:08:34] $GNRMC,170834.120,A,4020.7222907,N,08007.7259287,W,000.0,000.0,260425,,,A,V*13
[13:08:34] $GPGGA,170834.160,4020.7222906,N,08007.7259290,W,1,27,0.5,328.378,M,-33.184,M,,0000*64
[13:08:34] $GNRMC,170834.160,A,4020.7222906,N,08007.7259290,W,000.0,000.0,260425,,,A,V*10
[13:08:34] $GPGGA,170834.200,4020.7222905,N,08007.7259293,W,1,27,0.5,328.378,M,-33.184,M,,0000*61
[13:08:34] $GNRMC,170834.200,A,4020.7222905,N,08007.7259293,W,000.0,000.0,260425,,,A,V*15
[13:08:34] $GPGGA,170834.240,4020.7222904,N,08007.7259296,W,1,27,0.5,328.378,M,-33.184,M,,0000*61
[13:08:34] $GNRMC,170834.240,A,4020.7222904,N,08007.7259296,W,000.0,000.0,260425,,,A,V*15
[13:08:34] $GPGGA,170834.280,4020.7222904,N,08007.7259298,W,1,27,0.5,328.378,M,-33.184,M,,0000*63
[13:08:34] $GNRMC,170834.280,A,4020.7222904,N,08007.7259298,W,000.0,000.0,260425,,,A,V*17
[13:08:34] $GPGGA,170834.320,4020.7222903,N,08007.7259301,W,1,27,0.5,328.379,M,-33.184,M,,0000*6F
[13:08:34] $GNRMC,170834.320,A,4020.7222903,N,08007.7259301,W,000.0,000.0,260425,,,A,V*1A
[13:08:34] $GPGGA,170834.360,4020.7222902,N,08007.7259304,W,1,27,0.5,328.379,M,-33.184,M,,0000*6F
[13:08:34] $GNRMC,170834.360,A,4020.7222902,N,08007.7259304,W,000.0,000.0,260425,,,A,V*1A
[13:08:34] $GPGGA,170834.400,4020.7222901,N,08007.7259307,W,1,27,0.5,328.379,M,-33.184,M,,0000*6E
[13:08:34] $GNRMC,170834.400,A,4020.7222901,N,08007.7259307,W,000.0,000.0,260425,,,A,V*1B
[13:08:34] $GPGGA,170834.440,4020.7222901,N,08007.7259310,W,1,27,0.5,328.379,M,-33.184,M,,0000*6C
[13:08:34] $GNRMC,170834.440,A,4020.7222901,N,08007.7259310,W,000.0,000.0,260425,,,A,V*19
[13:08:34] $GPGGA,170834.480,4020.7222900,N,08007.7259313,W,1,27,0.5,328.379,M,-33.184,M,,0000*62
[13:08:34] $GNRMC,170834.480,A,4020.7222900,N,08007.7259313,W,000.0,000.0,260425,,,A,V*17
[13:08:34] $GPGGA,170834.520,4020.7222899,N,08007.7259316,W,1,27,0.5,328.379,M,-33.184,M,,0000*6D
[13:08:34] $GNRMC,170834.520,A,4020.7222899,N,08007.7259316,W,000.0,000.0,260425,,,A,V*18
[13:08:34] $GPGGA,170834.560,4020.7222898,N,08007.7259319,W,1,27,0.5,328.380,M,-33.184,M,,0000*61
[13:08:34] $GNRMC,170834.560,A,4020.7222898,N,08007.7259319,W,000.0,000.0,260425,,,A,V*12
[13:08:34] $GPGGA,170834.600,4020.7222898,N,08007.7259322,W,1,27,0.5,328.380,M,-33.184,M,,0000*6C
[13:08:34] $GNRMC,170834.600,A,4020.7222898,N,08007.7259322,W,000.0,000.0,260425,,,A,V*1F
[13:08:34] $GPGGA,170834.640,4020.7222897,N,08007.7259325,W,1,27,0.5,328.380,M,-33.184,M,,0000*60
[13:08:34] $GNRMC,170834.640,A,4020.7222897,N,08007.7259325,W,000.0,000.0,260425,,,A,V*13
[13:08:34] $GPGGA,170834.680,4020.7222896,N,08007.7259328,W,1,27,0.5,328.380,M,-33.184,M,,0000*60
[13:08:34] $GNRMC,170834.680,A,4020.7222896,N,08007.7259328,W,000.0,000.0,260425,,,A,V*13
[13:08:34] $GPGGA,170834.720,4020.7222895,N,08007.7259331,W,1,27,0.5,328.380,M,-33.184,M,,0000*60
[13:08:34] $GNRMC,170834.720,A,4020.7222895,N,08007.7259331,W,000.0,000.0,260425,,,A,V*13
[13:08:34] $GPGGA,170834.760,4020.7222895,N,08007.7259334,W,1,27,0.5,328.381,M,-33.184,M,,0000*60
[13:08:34] $GNRMC,170834.760,A,4020.7222895,N,08007.7259334,W,000.0,000.0,260425,,,A,V*12
[13:08:34] $GPGGA,170834.800,4020.7222894,N,08007.7259337,W,1,27,0.5,328.381,M,-33.184,M,,0000*6B
[13:08:34] $GNRMC,170834.800,A,4020.7222894,N,08007.7259337,W,000.0,000.0,260425,,,A,V*19
[13:08:34] $GPGGA,170834.840,4020.7222893,N,08007.7259340,W,1,27,0.5,328.381,M,-33.184,M,,0000*68
[13:08:34] $GNRMC,170834.840,A,4020.7222893,N,08007.7259340,W,000.0,000.0,260425,,,A,V*1A
[13:08:34] $GPGGA,170834.880,4020.7222892,N,08007.7259343,W,1,27,0.5,328.381,M,-33.184,M,,0000*66
[13:08:34] $GNRMC,170834.880,A,4020.7222892,N,08007.7259343,W,000.0,000.0,260425,,,A,V*14
[13:08:34] $GPGGA,170834.920,4020.7222892,N,08007.7259345,W,1,27,0.5,328.381,M,-33.184,M,,0000*6B
[13:08:34] $GNRMC,170834.920,A,4020.7222892,N,08007.7259345,W,000.0,000.0,260425,,,A,V*19
[13:08:35] $GNRMC,170835.000,A,4020.7222919,N,08007.7259253,W,000.0,000.0,260425,,,A,V*17
[13:08:35] $GPGGA,101122.240,4020.7222919,N,08007.7259253,W,1,27,0.5,328.375,M,-33.184,M,,0000*61
[13:08:35] $GNRMC,101122.240,A,4020.7222919,N,08007.7259253,W,000.0,000.0,150625,,,A,V*1A
[13:08:35] $GPGGA,170835.040,4020.7222918,N,08007.7259256,W,1,27,0.5,328.375,M,-33.184,M,,0000*6E
[13:08:35] $GNRMC,170835.040,A,4020.7222918,N,08007.7259256,W,000.0,000.0,260425,,,A,V*17
[13:08:35] $GPGGA,170835.080,4020.7222917,N,08007.7259259,W,1,27,0.5,328.375,M,-33.184,M,,0000*62
[13:08:35] $GNRMC,170835.080,A,4020.7222917,N,08007.7259259,W,000.0,000.0,260425,,,A,V*1B
[13:08:35] $GPGGA,170835.120,4020.7222916,N,08007.7259261,W,1,27,0.5,328.376,M,-33.184,M,,0000*60
[13:08:35] $GNRMC,170835.120,A,4020.7222916,N,08007.7259261,W,000.0,000.0,260425,,,A,V*1A
[13:08:35] $GPGGA,170835.160,4020.7222915,N,08007.7259264,W,1,27,0.5,328.376,M,-33.184,M,,0000*62
[13:08:35] $GNRMC,170835.160,A,4020.7222915,N,08007.7259264,W,000.0,000.0,260425,,,A,V*18
[13:08:35] $GPGGA,170835.200,4020.7222914,N,08007.7259267,W,1,27,0.5,328.377,M,-33.184,M,,0000*64
[13:08:35] $GNRMC,170835.200,A,4020.7222914,N,08007.7259267,W,000.0,000.0,260425,,,A,V*1F
[13:08:35] $GPGGA,170835.240,4020.7222913,N,08007.7259270,W,1,27,0.5,328.377,M,-33.184,M,,0000*61
[13:08:35] $GNRMC,170835.240,A,4020.7222913,N,08007.7259270,W,000.0,000.0,260425,,,A,V*1A
[13:08:35] $GPGGA,170835.280,4020.7222912,N,08007.7259272,W,1,27,0.5,328.377,M,-33.184,M,,0000*6E
[13:08:35] $GNRMC,170835.280,A,4020.7222912,N,08007.7259272,W,000.0,000.0,260425,,,A,V*15
[13:08:35] $GPGGA,170835.320,4020.7222910,N,08007.7259275,W,1,27,0.5,328.378,M,-33.184,M,,0000*6F
[13:08:35] $GNRMC,170835.320,A,4020.7222910,N,08007.7259275,W,000.0,000.0,260425,,,A,V*1B
[13:08:35] $GPGGA,170835.360,4020.7222909,N,08007.7259278,W,1,27,0.5,328.378,M,-33.184,M,,0000*6E
[13:08:35] $GNRMC,170835.360,A,4020.7222909,N,08007.7259278,W,000.0,000.0,260425,,,A,V*1A
[13:08:35] $GPGGA,170835.400,4020.7222908,N,08007.7259281,W,1,27,0.5,328.378,M,-33.184,M,,0000*68
[13:08:35] $GNRMC,170835.400,A,4020.7222908,N,08007.7259281,W,000.0,000.0,260425,,,A,V*1C
[13:08:35] $GPGGA,170835.440,4020.7222907,N,08007.7259283,W,1,27,0.5,328.379,M,-33.184,M,,0000*60
[13:08:35] $GNRMC,170835.440,A,4020.7222907,N,08007.7259283,W,000.0,000.0,260425,,,A,V*15
[13:08:35] $GPGGA,170835.480,4020.7222906,N,08007.7259286,W,1,27,0.5,328.379,M,-33.184,M,,0000*68
[13:08:35] $GNRMC,170835.480,A,4020.7222906,N,08007.7259286,W,000.0,000.0,260425,,,A,V*1D
[13:08:35] $GPGGA,170835.520,4020.7222905,N,08007.7259289,W,1,27,0.5,328.379,M,-33.184,M,,0000*6F
[13:08:35] $GNRMC,170835.520,A,4020.7222905,N,08007.7259289,W,000.0,000.0,260425,,,A,V*1A
[13:08:35] $GPGGA,170835.560,4020.7222904,N,08007.7259292,W,1,27,0.5,328.380,M,-33.184,M,,0000*66
[13:08:35] $GNRMC,170835.560,A,4020.7222904,N,08007.7259292,W,000.0,000.0,260425,,,A,V*15
[13:08:35] $GPGGA,170835.600,4020.7222903,N,08007.7259294,W,1,27,0.5,328.380,M,-33.184,M,,0000*62
[13:08:35] $GNRMC,170835.600,A,4020.7222903,N,08007.7259294,W,000.0,000.0,260425,,,A,V*11
[13:08:35] $GPGGA,170835.640,4020.7222902,N,08007.7259297,W,1,27,0.5,328.381,M,-33.184,M,,0000*65
[13:08:35] $GNRMC,170835.640,A,4020.7222902,N,08007.7259297,W,000.0,000.0,260425,,,A,V*17
[13:08:35] $GPGGA,170835.680,4020.7222900,N,08007.7259300,W,1,27,0.5,328.381,M,-33.184,M,,0000*64
[13:08:35] $GNRMC,170835.680,A,4020.7222900,N,08007.7259300,W,000.0,000.0,260425,,,A,V*16
[13:08:35] $GPGGA,170835.720,4020.7222899,N,08007.7259303,W,1,27,0.5,328.381,M,-33.184,M,,0000*6D
[13:08:35] $GNRMC,170835.720,A,4020.7222899,N,08007.7259303,W,000.0,000.0,260425,,,A,V*1F
[13:08:35] $GPGGA,170835.760,4020.7222898,N,08007.7259305,W,1,27,0.5,328.382,M,-33.184,M,,0000*6D
[13:08:35] $GNRMC,170835.760,A,4020.7222898,N,08007.7259305,W,000.0,000.0,260425,,,A,V*1C
[13:08:35] $GPGGA,170835.800,4020.7222897,N,08007.7259308,W,1,27,0.5,328.382,M,-33.184,M,,0000*66
[13:08:35] $GNRMC,170835.800,A,4020.7222897,N,08007.7259308,W,000.0,000.0,260425,,,A,V*17
[13:08:35] $GPGGA,170835.840,4020.7222896,N,08007.7259311,W,1,27,0.5,328.382,M,-33.184,M,,0000*6B
[13:08:35] $GNRMC,170835.840,A,4020.7222896,N,08007.7259311,W,000.0,000.0,260425,,,A,V*1A
[13:08:35] $GPGGA,170835.880,4020.7222895,N,08007.7259314,W,1,27,0.5,328.383,M,-33.184,M,,0000*60
[13:08:35] $GNRMC,170835.880,A,4020.7222895,N,08007.7259314,W,000.0,000.0,260425,,,A,V*10
[13:08:35] $GPGGA,170835.920,4020.7222894,N,08007.7259316,W,1,27,0.5,328.383,M,-33.184,M,,0000*68
[13:08:35] $GNRMC,170835.920,A,4020.7222894,N,08007.7259316,W,000.0,000.0,260425,,,A,V*18
[13:08:36] $GNRMC,170836.000,A,4020.7222935,N,08007.7259268,W,000.0,000.0,260425,,,A,V*12
[13:08:36] $GPGGA,101123.240,4020.7222935,N,08007.7259268,W,1,26,0.6,328.370,M,-33.184,M,,0000*61
[13:08:36] $GNRMC,101123.240,A,4020.7222935,N,08007.7259268,W,000.0,000.0,150625,,,A,V*1D
[13:08:36] $GPGGA,170836.040,4020.7222934,N,08007.7259270,W,1,26,0.6,328.371,M,-33.184,M,,0000*61
[13:08:36] $GNRMC,170836.040,A,4020.7222934,N,08007.7259270,W,000.0,000.0,260425,,,A,V*1E
[13:08:36] $GPGGA,170836.080,4020.7222933,N,08007.7259273,W,1,26,0.6,328.372,M,-33.184,M,,0000*6A
[13:08:36] $GNRMC,170836.080,A,4020.7222933,N,08007.7259273,W,000.0,000.0,260425,,,A,V*16
[13:08:36] $GPGGA,170836.120,4020.7222932,N,08007.7259275,W,1,26,0.6,328.372,M,-33.184,M,,0000*66
[13:08:36] $GNRMC,170836.120,A,4020.7222932,N,08007.7259275,W,000.0,000.0,260425,,,A,V*1A
[13:08:36] $GPGGA,170836.160,4020.7222931,N,08007.7259278,W,1,26,0.6,328.373,M,-33.184,M,,0000*6D
[13:08:36] $GNRMC,170836.160,A,4020.7222931,N,08007.7259278,W,000.0,000.0,260425,,,A,V*10
[13:08:36] $GPGGA,170836.200,4020.7222930,N,08007.7259280,W,1,26,0.6,328.374,M,-33.184,M,,0000*69
[13:08:36] $GNRMC,170836.200,A,4020.7222930,N,08007.7259280,W,000.0,000.0,260425,,,A,V*13
[13:08:36] $GPGGA,170836.240,4020.7222929,N,08007.7259283,W,1,26,0.6,328.374,M,-33.184,M,,0000*66
[13:08:36] $GNRMC,170836.240,A,4020.7222929,N,08007.7259283,W,000.0,000.0,260425,,,A,V*1C
[13:08:36] $GPGGA,170836.280,4020.7222929,N,08007.7259285,W,1,26,0.6,328.375,M,-33.184,M,,0000*6D
[13:08:36] $GNRMC,170836.280,A,4020.7222929,N,08007.7259285,W,000.0,000.0,260425,,,A,V*16
[13:08:36] $GPGGA,170836.320,4020.7222928,N,08007.7259288,W,1,26,0.6,328.375,M,-33.184,M,,0000*6A
[13:08:36] $GNRMC,170836.320,A,4020.7222928,N,08007.7259288,W,000.0,000.0,260425,,,A,V*11
[13:08:36] $GPGGA,170836.360,4020.7222927,N,08007.7259290,W,1,26,0.6,328.376,M,-33.184,M,,0000*6B
[13:08:36] $GNRMC,170836.360,A,4020.7222927,N,08007.7259290,W,000.0,000.0,260425,,,A,V*13
[13:08:36] $GPGGA,170836.400,4020.7222926,N,08007.7259293,W,1,26,0.6,328.377,M,-33.184,M,,0000*69
[13:08:36] $GNRMC,170836.400,A,4020.7222926,N,08007.7259293,W,000.0,000.0,260425,,,A,V*10
[13:08:36] $GPGGA,170836.440,4020.7222925,N,08007.7259295,W,1,26,0.6,328.377,M,-33.184,M,,0000*68
[13:08:36] $GNRMC,170836.440,A,4020.7222925,N,08007.7259295,W,000.0,000.0,260425,,,A,V*11
[13:08:36] $GPGGA,170836.480,4020.7222924,N,08007.7259298,W,1,26,0.6,328.378,M,-33.184,M,,0000*67
[13:08:36] $GNRMC,170836.480,A,4020.7222924,N,08007.7259298,W,000.0,000.0,260425,,,A,V*11
[13:08:36] $GPGGA,170836.520,4020.7222923,N,08007.7259300,W,1,26,0.6,328.378,M,-33.184,M,,0000*6B
[13:08:36] $GNRMC,170836.520,A,4020.7222923,N,08007.7259300,W,000.0,000.0,260425,,,A,V*1D
[13:08:36] $GPGGA,170836.560,4020.7222922,N,08007.7259303,W,1,26,0.6,328.379,M,-33.184,M,,0000*6C
[13:08:36] $GNRMC,170836.560,A,4020.7222922,N,08007.7259303,W,000.0,000.0,260425,,,A,V*1B
[13:08:36] $GPGGA,170836.600,4020.7222921,N,08007.7259305,W,1,26,0.6,328.380,M,-33.184,M,,0000*6A
[13:08:36] $GNRMC,170836.600,A,4020.7222921,N,08007.7259305,W,000.0,000.0,260425,,,A,V*1B
[13:08:36] $GPGGA,170836.640,4020.7222920,N,08007.7259307,W,1,26,0.6,328.380,M,-33.184,M,,0000*6D
[13:08:36] $GNRMC,170836.640,A,4020.7222920,N,08007.7259307,W,000.0,000.0,260425,,,A,V*1C
[13:08:36] $GPGGA,170836.680,4020.7222919,N,08007.7259310,W,1,26,0.6,328.381,M,-33.184,M,,0000*6C
[13:08:36] $GNRMC,170836.680,A,4020.7222919,N,08007.7259310,W,000.0,000.0,260425,,,A,V*1C
[13:08:36] $GPGGA,170836.720,4020.7222918,N,08007.7259312,W,1,26,0.6,328.381,M,-33.184,M,,0000*64
[13:08:36] $GNRMC,170836.720,A,4020.7222918,N,08007.7259312,W,000.0,000.0,260425,,,A,V*14
[13:08:36] $GPGGA,170836.760,4020.7222917,N,08007.7259315,W,1,26,0.6,328.382,M,-33.184,M,,0000*6B
[13:08:36] $GNRMC,170836.760,A,4020.7222917,N,08007.7259315,W,000.0,000.0,260425,,,A,V*18
[13:08:36] $GPGGA,170836.800,4020.7222917,N,08007.7259317,W,1,26,0.6,328.383,M,-33.184,M,,0000*61
[13:08:36] $GNRMC,170836.800,A,4020.7222917,N,08007.7259317,W,000.0,000.0,260425,,,A,V*13
[13:08:36] $GPGGA,170836.840,4020.7222916,N,08007.7259320,W,1,26,0.6,328.383,M,-33.184,M,,0000*60
[13:08:36] $GNRMC,170836.840,A,4020.7222916,N,08007.7259320,W,000.0,000.0,260425,,,A,V*12
[13:08:36] $GPGGA,170836.880,4020.7222915,N,08007.7259322,W,1,26,0.6,328.384,M,-33.184,M,,0000*6A
[13:08:36] $GNRMC,170836.880,A,4020.7222915,N,08007.7259322,W,000.0,000.0,260425,,,A,V*1F
[13:08:36] $GPGGA,170836.920,4020.7222914,N,08007.7259325,W,1,26,0.6,328.385,M,-33.184,M,,0000*66
[13:08:36] $GNRMC,170836.920,A,4020.7222914,N,08007.7259325,W,000.0,000.0,260425,,,A,V*12
[13:08:37] $GNRMC,170837.000,A,4020.7222945,N,08007.7259265,W,000.0,000.0,260425,,,A,V*19
[13:08:37] $GPGGA,101124.240,4020.7222945,N,08007.7259265,W,1,27,0.5,328.367,M,-33.184,M,,0000*68
[13:08:37] $GNRMC,101124.240,A,4020.7222945,N,08007.7259265,W,000.0,000.0,150625,,,A,V*10
[13:08:37] $GPGGA,170837.040,4020.7222944,N,08007.7259269,W,1,27,0.5,328.368,M,-33.184,M,,0000*65
[13:08:37] $GNRMC,170837.040,A,4020.7222944,N,08007.7259269,W,000.0,000.0,260425,,,A,V*10
[13:08:37] $GPGGA,170837.080,4020.7222944,N,08007.7259272,W,1,27,0.5,328.368,M,-33.184,M,,0000*63
[13:08:37] $GNRMC,170837.080,A,4020.7222944,N,08007.7259272,W,000.0,000.0,260425,,,A,V*16
[13:08:37] $GPGGA,170837.120,4020.7222943,N,08007.7259275,W,1,27,0.5,328.368,M,-33.184,M,,0000*68
[13:08:37] $GNRMC,170837.120,A,4020.7222943,N,08007.7259275,W,000.0,000.0,260425,,,A,V*1D
[13:08:37] $GPGGA,170837.160,4020.7222943,N,08007.7259279,W,1,27,0.5,328.368,M,-33.184,M,,0000*60
[13:08:37] $GNRMC,170837.160,A,4020.7222943,N,08007.7259279,W,000.0,000.0,260425,,,A,V*15
[13:08:37] $GPGGA,170837.200,4020.7222942,N,08007.7259282,W,1,27,0.5,328.368,M,-33.184,M,,0000*60
[13:08:37] $GNRMC,170837.200,A,4020.7222942,N,08007.7259282,W,000.0,000.0,260425,,,A,V*15
[13:08:37] $GPGGA,170837.240,4020.7222942,N,08007.7259285,W,1,27,0.5,328.369,M,-33.184,M,,0000*62
[13:08:37] $GNRMC,170837.240,A,4020.7222942,N,08007.7259285,W,000.0,000.0,260425,,,A,V*16
[13:08:37] $GPGGA,170837.280,4020.7222941,N,08007.7259289,W,1,27,0.5,328.369,M,-33.184,M,,0000*61
[13:08:37] $GNRMC,170837.280,A,4020.7222941,N,08007.7259289,W,000.0,000.0,260425,,,A,V*15
[13:08:37] $GPGGA,170837.320,4020.7222941,N,08007.7259292,W,1,27,0.5,328.369,M,-33.184,M,,0000*60
[13:08:37] $GNRMC,170837.320,A,4020.7222941,N,08007.7259292,W,000.0,000.0,260425,,,A,V*14
[13:08:37] $GPGGA,170837.360,4020.7222940,N,08007.7259295,W,1,27,0.5,328.369,M,-33.184,M,,0000*62
[13:08:37] $GNRMC,170837.360,A,4020.7222940,N,08007.7259295,W,000.0,000.0,260425,,,A,V*16
[13:08:37] $GPGGA,170837.400,4020.7222940,N,08007.7259299,W,1,27,0.5,328.370,M,-33.184,M,,0000*67
[13:08:37] $GNRMC,170837.400,A,4020.7222940,N,08007.7259299,W,000.0,000.0,260425,,,A,V*1B
[13:08:37] $GPGGA,170837.440,4020.7222939,N,08007.7259302,W,1,27,0.5,328.370,M,-33.184,M,,0000*6E
[13:08:37] $GNRMC,170837.440,A,4020.7222939,N,08007.7259302,W,000.0,000.0,260425,,,A,V*12
[13:08:37] $GPGGA,170837.480,4020.7222939,N,08007.7259305,W,1,27,0.5,328.370,M,-33.184,M,,0000*65
[13:08:37] $GNRMC,170837.480,A,4020.7222939,N,08007.7259305,W,000.0,000.0,260425,,,A,V*19
[13:08:37] $GPGGA,170837.520,4020.7222938,N,08007.7259309,W,1,27,0.5,328.370,M,-33.184,M,,0000*63
[13:08:37] $GNRMC,170837.520,A,4020.7222938,N,08007.7259309,W,000.0,000.0,260425,,,A,V*1F
[13:08:37] $GPGGA,170837.560,4020.7222938,N,08007.7259312,W,1,27,0.5,328.370,M,-33.184,M,,0000*6D
[13:08:37] $GNRMC,170837.560,A,4020.7222938,N,08007.7259312,W,000.0,000.0,260425,,,A,V*11
[13:08:37] $GPGGA,170837.600,4020.7222937,N,08007.7259315,W,1,27,0.5,328.371,M,-33.184,M,,0000*61
[13:08:37] $GNRMC,170837.600,A,4020.7222937,N,08007.7259315,W,000.0,000.0,260425,,,A,V*1C
[13:08:37] $GPGGA,170837.640,4020.7222937,N,08007.7259319,W,1,27,0.5,328.371,M,-33.184,M,,0000*69
[13:08:37] $GNRMC,170837.640,A,4020.7222937,N,08007.7259319,W,000.0,000.0,260425,,,A,V*14
[13:08:37] $GPGGA,170837.680,4020.7222937,N,08007.7259322,W,1,27,0.5,328.371,M,-33.184,M,,0000*6D
[13:08:37] $GNRMC,170837.680,A,4020.7222937,N,08007.7259322,W,000.0,000.0,260425,,,A,V*10
[13:08:37] $GPGGA,170837.720,4020.7222936,N,08007.7259325,W,1,27,0.5,328.371,M,-33.184,M,,0000*60
[13:08:37] $GNRMC,170837.720,A,4020.7222936,N,08007.7259325,W,000.0,000.0,260425,,,A,V*1D
[13:08:37] $GPGGA,170837.760,4020.7222936,N,08007.7259329,W,1,27,0.5,328.372,M,-33.184,M,,0000*6B
[13:08:37] $GNRMC,170837.760,A,4020.7222936,N,08007.7259329,W,000.0,000.0,260425,,,A,V*15
[13:08:37] $GPGGA,170837.800,4020.7222935,N,08007.7259332,W,1,27,0.5,328.372,M,-33.184,M,,0000*6B
[13:08:37] $GNRMC,170837.800,A,4020.7222935,N,08007.7259332,W,000.0,000.0,260425,,,A,V*15
[13:08:37] $GPGGA,170837.840,4020.7222935,N,08007.7259335,W,1,27,0.5,328.372,M,-33.184,M,,0000*68
[13:08:37] $GNRMC,170837.840,A,4020.7222935,N,08007.7259335,W,000.0,000.0,260425,,,A,V*16
[13:08:37] $GPGGA,170837.880,4020.7222934,N,08007.7259339,W,1,27,0.5,328.372,M,-33.184,M,,0000*69
[13:08:37] $GNRMC,170837.880,A,4020.7222934,N,08007.7259339,W,000.0,000.0,260425,,,A,V*17
[13:08:37] $GPGGA,170837.920,4020.7222934,N,08007.7259342,W,1,27,0.5,328.373,M,-33.184,M,,0000*6F
[13:08:37] $GNRMC,170837.920,A,4020.7222934,N,08007.7259342,W,000.0,000.0,260425,,,A,V*10
[13:08:38] $GNRMC,170838.000,A,4020.7222956,N,08007.7259259,W,000.0,000.0,260425,,,A,V*1B
[13:08:38] $GPGGA,101125.240,4020.7222956,N,08007.7259259,W,1,27,0.5,328.365,M,-33.184,M,,0000*66
[13:08:38] $GNRMC,101125.240,A,4020.7222956,N,08007.7259259,W,000.0,000.0,150625,,,A,V*1C
[13:08:38] $GPGGA,170838.040,4020.7222955,N,08007.7259262,W,1,27,0.5,328.365,M,-33.184,M,,0000*6C
[13:08:38] $GNRMC,170838.040,A,4020.7222955,N,08007.7259262,W,000.0,000.0,260425,,,A,V*14
[13:08:38] $GPGGA,170838.080,4020.7222954,N,08007.7259265,W,1,27,0.5,328.365,M,-33.184,M,,0000*66
[13:08:38] $GNRMC,170838.080,A,4020.7222954,N,08007.7259265,W,000.0,000.0,260425,,,A,V*1E
[13:08:38] $GPGGA,170838.120,4020.7222953,N,08007.7259268,W,1,27,0.5,328.365,M,-33.184,M,,0000*67
[13:08:38] $GNRMC,170838.120,A,4020.7222953,N,08007.7259268,W,000.0,000.0,260425,,,A,V*1F
[13:08:38] $GPGGA,170838.160,4020.7222952,N,08007.7259271,W,1,27,0.5,328.366,M,-33.184,M,,0000*69
[13:08:38] $GNRMC,170838.160,A,4020.7222952,N,08007.7259271,W,000.0,000.0,260425,,,A,V*12
[13:08:38] $GPGGA,170838.200,4020.7222951,N,08007.7259274,W,1,27,0.5,328.366,M,-33.184,M,,0000*6A
[13:08:38] $GNRMC,170838.200,A,4020.7222951,N,08007.7259274,W,000.0,000.0,260425,,,A,V*11
[13:08:38] $GPGGA,170838.240,4020.7222950,N,08007.7259277,W,1,27,0.5,328.366,M,-33.184,M,,0000*6C
[13:08:38] $GNRMC,170838.240,A,4020.7222950,N,08007.7259277,W,000.0,000.0,260425,,,A,V*17
[13:08:38] $GPGGA,170838.280,4020.7222949,N,08007.7259280,W,1,27,0.5,328.366,M,-33.184,M,,0000*60
[13:08:38] $GNRMC,170838.280,A,4020.7222949,N,08007.7259280,W,000.0,000.0,260425,,,A,V*1B
[13:08:38] $GPGGA,170838.320,4020.7222948,N,08007.7259283,W,1,27,0.5,328.367,M,-33.184,M,,0000*68
[13:08:38] $GNRMC,170838.320,A,4020.7222948,N,08007.7259283,W,000.0,000.0,260425,,,A,V*12
[13:08:38] $GPGGA,170838.360,4020.7222947,N,08007.7259286,W,1,27,0.5,328.367,M,-33.184,M,,0000*66
[13:08:38] $GNRMC,170838.360,A,4020.7222947,N,08007.7259286,W,000.0,000.0,260425,,,A,V*1C
[13:08:38] $GPGGA,170838.400,4020.7222946,N,08007.7259289,W,1,27,0.5,328.367,M,-33.184,M,,0000*69
[13:08:38] $GNRMC,170838.400,A,4020.7222946,N,08007.7259289,W,000.0,000.0,260425,,,A,V*13
[13:08:38] $GPGGA,170838.440,4020.7222946,N,08007.7259292,W,1,27,0.5,328.367,M,-33.184,M,,0000*67
[13:08:38] $GNRMC,170838.440,A,4020.7222946,N,08007.7259292,W,000.0,000.0,260425,,,A,V*1D
[13:08:38] $GPGGA,170838.480,4020.7222945,N,08007.7259295,W,1,27,0.5,328.368,M,-33.184,M,,0000*60
[13:08:38] $GNRMC,170838.480,A,4020.7222945,N,08007.7259295,W,000.0,000.0,260425,,,A,V*15
[13:08:38] $GPGGA,170838.520,4020.7222944,N,08007.7259298,W,1,27,0.5,328.368,M,-33.184,M,,0000*67
[13:08:38] $GNRMC,170838.520,A,4020.7222944,N,08007.7259298,W,000.0,000.0,260425,,,A,V*12
[13:08:38] $GPGGA,170838.560,4020.7222943,N,08007.7259301,W,1,27,0.5,328.368,M,-33.184,M,,0000*65
[13:08:38] $GNRMC,170838.560,A,4020.7222943,N,08007.7259301,W,000.0,000.0,260425,,,A,V*10
[13:08:38] $GPGGA,170838.600,4020.7222942,N,08007.7259304,W,1,27,0.5,328.368,M,-33.184,M,,0000*64
[13:08:38] $GNRMC,170838.600,A,4020.7222942,N,08007.7259304,W,000.0,000.0,260425,,,A,V*11
[13:08:38] $GPGGA,170838.640,4020.7222941,N,08007.7259307,W,1,27,0.5,328.369,M,-33.184,M,,0000*61
[13:08:38] $GNRMC,170838.640,A,4020.7222941,N,08007.7259307,W,000.0,000.0,260425,,,A,V*15
[13:08:38] $GPGGA,170838.680,4020.7222940,N,08007.7259310,W,1,27,0.5,328.369,M,-33.184,M,,0000*6A
[13:08:38] $GNRMC,170838.680,A,4020.7222940,N,08007.7259310,W,000.0,000.0,260425,,,A,V*1E
[13:08:38] $GPGGA,170838.720,4020.7222939,N,08007.7259313,W,1,27,0.5,328.369,M,-33.184,M,,0000*6C
[13:08:38] $GNRMC,170838.720,A,4020.7222939,N,08007.7259313,W,000.0,000.0,260425,,,A,V*18
[13:08:38] $GPGGA,170838.760,4020.7222938,N,08007.7259316,W,1,27,0.5,328.370,M,-33.184,M,,0000*64
[13:08:38] $GNRMC,170838.760,A,4020.7222938,N,08007.7259316,W,000.0,000.0,260425,,,A,V*18
[13:08:38] $GPGGA,170838.800,4020.7222937,N,08007.7259319,W,1,27,0.5,328.370,M,-33.184,M,,0000*6D
[13:08:38] $GNRMC,170838.800,A,4020.7222937,N,08007.7259319,W,000.0,000.0,260425,,,A,V*11
[13:08:38] $GPGGA,170838.840,4020.7222936,N,08007.7259322,W,1,27,0.5,328.370,M,-33.184,M,,0000*60
[13:08:38] $GNRMC,170838.840,A,4020.7222936,N,08007.7259322,W,000.0,000.0,260425,,,A,V*1C
[13:08:38] $GPGGA,170838.880,4020.7222935,N,08007.7259325,W,1,27,0.5,328.370,M,-33.184,M,,0000*68
[13:08:38] $GNRMC,170838.880,A,4020.7222935,N,08007.7259325,W,000.0,000.0,260425,,,A,V*14
[13:08:38] $GPGGA,170838.920,4020.7222934,N,08007.7259328,W,1,27,0.5,328.371,M,-33.184,M,,0000*6E
[13:08:38] $GNRMC,170838.920,A,4020.7222934,N,08007.7259328,W,000.0,000.0,260425,,,A,V*13
[13:08:39] $GNRMC,170839.000,A,4020.7222971,N,08007.7259273,W,000.0,000.0,260425,,,A,V*17
[13:08:39] $GPGGA,101126.240,4020.7222971,N,08007.7259273,W,1,27,0.5,328.360,M,-33.184,M,,0000*6D
[13:08:39] $GNRMC,101126.240,A,4020.7222971,N,08007.7259273,W,000.0,000.0,150625,,,A,V*12
[13:08:39] $GPGGA,170839.040,4020.7222970,N,08007.7259275,W,1,27,0.5,328.361,M,-33.184,M,,0000*68
[13:08:39] $GNRMC,170839.040,A,4020.7222970,N,08007.7259275,W,000.0,000.0,260425,,,A,V*14
[13:08:39] $GPGGA,170839.080,4020.7222969,N,08007.7259277,W,1,27,0.5,328.361,M,-33.184,M,,0000*6E
[13:08:39] $GNRMC,170839.080,A,4020.7222969,N,08007.7259277,W,000.0,000.0,260425,,,A,V*12
[13:08:39] $GPGGA,170839.120,4020.7222968,N,08007.7259280,W,1,27,0.5,328.361,M,-33.184,M,,0000*6C
[13:08:39] $GNRMC,170839.120,A,4020.7222968,N,08007.7259280,W,000.0,000.0,260425,,,A,V*10
[13:08:39] $GPGGA,170839.160,4020.7222967,N,08007.7259282,W,1,27,0.5,328.362,M,-33.184,M,,0000*66
[13:08:39] $GNRMC,170839.160,A,4020.7222967,N,08007.7259282,W,000.0,000.0,260425,,,A,V*19
[13:08:39] $GPGGA,170839.200,4020.7222966,N,08007.7259284,W,1,27,0.5,328.362,M,-33.184,M,,0000*64
[13:08:39] $GNRMC,170839.200,A,4020.7222966,N,08007.7259284,W,000.0,000.0,260425,,,A,V*1B
[13:08:39] $GPGGA,170839.240,4020.7222965,N,08007.7259286,W,1,27,0.5,328.362,M,-33.184,M,,0000*61
[13:08:39] $GNRMC,170839.240,A,4020.7222965,N,08007.7259286,W,000.0,000.0,260425,,,A,V*1E
[13:08:39] $GPGGA,170839.280,4020.7222964,N,08007.7259289,W,1,27,0.5,328.362,M,-33.184,M,,0000*63
[13:08:39] $GNRMC,170839.280,A,4020.7222964,N,08007.7259289,W,000.0,000.0,260425,,,A,V*1C
[13:08:39] $GPGGA,170839.320,4020.7222963,N,08007.7259291,W,1,27,0.5,328.363,M,-33.184,M,,0000*67
[13:08:39] $GNRMC,170839.320,A,4020.7222963,N,08007.7259291,W,000.0,000.0,260425,,,A,V*19
[13:08:39] $GPGGA,170839.360,4020.7222962,N,08007.7259293,W,1,27,0.5,328.363,M,-33.184,M,,0000*60
[13:08:39] $GNRMC,170839.360,A,4020.7222962,N,08007.7259293,W,000.0,000.0,260425,,,A,V*1E
[13:08:39] $GPGGA,170839.400,4020.7222961,N,08007.7259295,W,1,27,0.5,328.363,M,-33.184,M,,0000*64
[13:08:39] $GNRMC,170839.400,A,4020.7222961,N,08007.7259295,W,000.0,000.0,260425,,,A,V*1A
[13:08:39] $GPGGA,170839.440,4020.7222960,N,08007.7259298,W,1,27,0.5,328.363,M,-33.184,M,,0000*6C
[13:08:39] $GNRMC,170839.440,A,4020.7222960,N,08007.7259298,W,000.0,000.0,260425,,,A,V*12
[13:08:39] $GPGGA,170839.480,4020.7222959,N,08007.7259300,W,1,27,0.5,328.364,M,-33.184,M,,0000*6D
[13:08:39] $GNRMC,170839.480,A,4020.7222959,N,08007.7259300,W,000.0,000.0,260425,,,A,V*14
[13:08:39] $GPGGA,170839.520,4020.7222958,N,08007.7259302,W,1,27,0.5,328.364,M,-33.184,M,,0000*65
[13:08:39] $GNRMC,170839.520,A,4020.7222958,N,08007.7259302,W,000.0,000.0,260425,,,A,V*1C
[13:08:39] $GPGGA,170839.560,4020.7222957,N,08007.7259304,W,1,27,0.5,328.364,M,-33.184,M,,0000*68
[13:08:39] $GNRMC,170839.560,A,4020.7222957,N,08007.7259304,W,000.0,000.0,260425,,,A,V*11
[13:08:39] $GPGGA,170839.600,4020.7222956,N,08007.7259307,W,1,27,0.5,328.365,M,-33.184,M,,0000*6E
[13:08:39] $GNRMC,170839.600,A,4020.7222956,N,08007.7259307,W,000.0,000.0,260425,,,A,V*16
[13:08:39] $GPGGA,170839.640,4020.7222955,N,08007.7259309,W,1,27,0.5,328.365,M,-33.184,M,,0000*67
[13:08:39] $GNRMC,170839.640,A,4020.7222955,N,08007.7259309,W,000.0,000.0,260425,,,A,V*1F
[13:08:39] $GPGGA,170839.680,4020.7222954,N,08007.7259311,W,1,27,0.5,328.365,M,-33.184,M,,0000*63
[13:08:39] $GNRMC,170839.680,A,4020.7222954,N,08007.7259311,W,000.0,000.0,260425,,,A,V*1B
[13:08:39] $GPGGA,170839.720,4020.7222953,N,08007.7259313,W,1,27,0.5,328.365,M,-33.184,M,,0000*6D
[13:08:39] $GNRMC,170839.720,A,4020.7222953,N,08007.7259313,W,000.0,000.0,260425,,,A,V*15
[13:08:39] $GPGGA,170839.760,4020.7222952,N,08007.7259316,W,1,27,0.5,328.366,M,-33.184,M,,0000*6E
[13:08:39] $GNRMC,170839.760,A,4020.7222952,N,08007.7259316,W,000.0,000.0,260425,,,A,V*15
[13:08:39] $GPGGA,170839.800,4020.7222951,N,08007.7259318,W,1,27,0.5,328.366,M,-33.184,M,,0000*6A
[13:08:39] $GNRMC,170839.800,A,4020.7222951,N,08007.7259318,W,000.0,000.0,260425,,,A,V*11
[13:08:39] $GPGGA,170839.840,4020.7222950,N,08007.7259320,W,1,27,0.5,328.366,M,-33.184,M,,0000*64
[13:08:39] $GNRMC,170839.840,A,4020.7222950,N,08007.7259320,W,000.0,000.0,260425,,,A,V*1F
[13:08:39] $GPGGA,170839.880,4020.7222949,N,08007.7259322,W,1,27,0.5,328.367,M,-33.184,M,,0000*63
[13:08:39] $GNRMC,170839.880,A,4020.7222949,N,08007.7259322,W,000.0,000.0,260425,,,A,V*19
[13:08:39] $GPGGA,170839.920,4020.7222948,N,08007.7259324,W,1,27,0.5,328.367,M,-33.184,M,,0000*6F
[13:08:39] $GNRMC,170839.920,A,4020.7222948,N,08007.7259324,W,000.0,000.0,260425,,,A,V*15
[13:08:40] $GPGGA,170840.000,4020.7222981,N,08007.7259273,W,1,27,0.5,328.273,M,-33.100,M,,0000*64
[13:08:40] $GNRMC,170840.000,A,4020.7222981,N,08007.7259273,W,000.0,000.0,260425,,,A,V*16
[13:08:40] $GPGGA,101127.240,4020.7222981,N,08007.7259273,W,1,27,0.5,328.357,M,-33.184,M,,0000*67
[13:08:40] $GNRMC,101127.240,A,4020.7222981,N,08007.7259273,W,000.0,000.0,150625,,,A,V*1C
[13:08:40] $GPGGA,170840.040,4020.7222980,N,08007.7259275,W,1,27,0.5,328.357,M,-33.184,M,,0000*6C
[13:08:40] $GNRMC,170840.040,A,4020.7222980,N,08007.7259275,W,000.0,000.0,260425,,,A,V*15
[13:08:40] $GPGGA,170840.080,4020.7222979,N,08007.7259278,W,1,27,0.5,328.357,M,-33.184,M,,0000*6B
[13:08:40] $GNRMC,170840.080,A,4020.7222979,N,08007.7259278,W,000.0,000.0,260425,,,A,V*12
[13:08:40] $GPGGA,170840.120,4020.7222978,N,08007.7259280,W,1,27,0.5,328.358,M,-33.184,M,,0000*69
[13:08:40] $GNRMC,170840.120,A,4020.7222978,N,08007.7259280,W,000.0,000.0,260425,,,A,V*1F
[13:08:40] $GPGGA,170840.160,4020.7222977,N,08007.7259283,W,1,27,0.5,328.358,M,-33.184,M,,0000*61
[13:08:40] $GNRMC,170840.160,A,4020.7222977,N,08007.7259283,W,000.0,000.0,260425,,,A,V*17
[13:08:40] $GPGGA,170840.200,4020.7222977,N,08007.7259285,W,1,27,0.5,328.358,M,-33.184,M,,0000*62
[13:08:40] $GNRMC,170840.200,A,4020.7222977,N,08007.7259285,W,000.0,000.0,260425,,,A,V*14
[13:08:40] $GPGGA,170840.240,4020.7222976,N,08007.7259287,W,1,27,0.5,328.359,M,-33.184,M,,0000*64
[13:08:40] $GNRMC,170840.240,A,4020.7222976,N,08007.7259287,W,000.0,000.0,260425,,,A,V*13
[13:08:40] $GPGGA,170840.280,4020.7222975,N,08007.7259290,W,1,27,0.5,328.359,M,-33.184,M,,0000*6D
[13:08:40] $GNRMC,170840.280,A,4020.7222975,N,08007.7259290,W,000.0,000.0,260425,,,A,V*1A
[13:08:40] $GPGGA,170840.320,4020.7222974,N,08007.7259292,W,1,27,0.5,328.359,M,-33.184,M,,0000*65
[13:08:40] $GNRMC,170840.320,A,4020.7222974,N,08007.7259292,W,000.0,000.0,260425,,,A,V*12
[13:08:40] $GPGGA,170840.360,4020.7222973,N,08007.7259295,W,1,27,0.5,328.359,M,-33.184,M,,0000*61
[13:08:40] $GNRMC,170840.360,A,4020.7222973,N,08007.7259295,W,000.0,000.0,260425,,,A,V*16
[13:08:40] $GPGGA,170840.400,4020.7222972,N,08007.7259297,W,1,27,0.5,328.360,M,-33.184,M,,0000*69
[13:08:40] $GNRMC,170840.400,A,4020.7222972,N,08007.7259297,W,000.0,000.0,260425,,,A,V*14
[13:08:40] $GPGGA,170840.440,4020.7222971,N,08007.7259300,W,1,27,0.5,328.360,M,-33.184,M,,0000*61
[13:08:40] $GNRMC,170840.440,A,4020.7222971,N,08007.7259300,W,000.0,000.0,260425,,,A,V*1C
[13:08:40] $GPGGA,170840.480,4020.7222970,N,08007.7259302,W,1,27,0.5,328.360,M,-33.184,M,,0000*6E
[13:08:40] $GNRMC,170840.480,A,4020.7222970,N,08007.7259302,W,000.0,000.0,260425,,,A,V*13
[13:08:40] $GPGGA,170840.520,4020.7222969,N,08007.7259304,W,1,27,0.5,328.361,M,-33.184,M,,0000*6A
[13:08:40] $GNRMC,170840.520,A,4020.7222969,N,08007.7259304,W,000.0,000.0,260425,,,A,V*16
[13:08:40] $GPGGA,170840.560,4020.7222969,N,08007.7259307,W,1,27,0.5,328.361,M,-33.184,M,,0000*6D
[13:08:40] $GNRMC,170840.560,A,4020.7222969,N,08007.7259307,W,000.0,000.0,260425,,,A,V*11
[13:08:40] $GPGGA,170840.600,4020.7222968,N,08007.7259309,W,1,27,0.5,328.361,M,-33.184,M,,0000*67
[13:08:40] $GNRMC,170840.600,A,4020.7222968,N,08007.7259309,W,000.0,000.0,260425,,,A,V*1B
[13:08:40] $GPGGA,170840.640,4020.7222967,N,08007.7259312,W,1,27,0.5,328.361,M,-33.184,M,,0000*66
[13:08:40] $GNRMC,170840.640,A,4020.7222967,N,08007.7259312,W,000.0,000.0,260425,,,A,V*1A
[13:08:40] $GPGGA,170840.680,4020.7222966,N,08007.7259314,W,1,27,0.5,328.362,M,-33.184,M,,0000*6E
[13:08:40] $GNRMC,170840.680,A,4020.7222966,N,08007.7259314,W,000.0,000.0,260425,,,A,V*11
[13:08:40] $GPGGA,170840.720,4020.7222965,N,08007.7259317,W,1,27,0.5,328.362,M,-33.184,M,,0000*65
[13:08:40] $GNRMC,170840.720,A,4020.7222965,N,08007.7259317,W,000.0,000.0,260425,,,A,V*1A
[13:08:40] $GPGGA,170840.760,4020.7222964,N,08007.7259319,W,1,27,0.5,328.362,M,-33.184,M,,0000*6E
[13:08:40] $GNRMC,170840.760,A,4020.7222964,N,08007.7259319,W,000.0,000.0,260425,,,A,V*11
[13:08:40] $GPGGA,170840.800,4020.7222963,N,08007.7259321,W,1,27,0.5,328.362,M,-33.184,M,,0000*6B
[13:08:40] $GNRMC,170840.800,A,4020.7222963,N,08007.7259321,W,000.0,000.0,260425,,,A,V*14
[13:08:40] $GPGGA,170840.840,4020.7222962,N,08007.7259324,W,1,27,0.5,328.363,M,-33.184,M,,0000*6A
[13:08:40] $GNRMC,170840.840,A,4020.7222962,N,08007.7259324,W,000.0,000.0,260425,,,A,V*14
[13:08:40] $GPGGA,170840.880,4020.7222961,N,08007.7259326,W,1,27,0.5,328.363,M,-33.184,M,,0000*67
[13:08:40] $GNRMC,170840.880,A,4020.7222961,N,08007.7259326,W,000.0,000.0,260425,,,A,V*19
[13:08:40] $GPGGA,170840.920,4020.7222960,N,08007.7259329,W,1,27,0.5,328.363,M,-33.184,M,,0000*62
[13:08:40] $GNRMC,170840.920,A,4020.7222960,N,08007.7259329,W,000.0,000.0,260425,,,A,V*1C
[13:08:41] $GNRMC,170841.000,A,4020.7222998,N,08007.7259286,W,000.0,000.0,260425,,,A,V*15
[13:08:41] $GPGGA,101128.240,4020.7222998,N,08007.7259286,W,1,26,0.6,328.352,M,-33.184,M,,0000*6D
[13:08:41] $GNRMC,101128.240,A,4020.7222998,N,08007.7259286,W,000.0,000.0,150625,,,A,V*11
[13:08:41] $GPGGA,170841.040,4020.7222997,N,08007.7259288,W,1,26,0.6,328.353,M,-33.184,M,,0000*6F
[13:08:41] $GNRMC,170841.040,A,4020.7222997,N,08007.7259288,W,000.0,000.0,260425,,,A,V*10
[13:08:41] $GPGGA,170841.080,4020.7222995,N,08007.7259290,W,1,26,0.6,328.353,M,-33.184,M,,0000*68
[13:08:41] $GNRMC,170841.080,A,4020.7222995,N,08007.7259290,W,000.0,000.0,260425,,,A,V*17
[13:08:41] $GPGGA,170841.120,4020.7222994,N,08007.7259292,W,1,26,0.6,328.353,M,-33.184,M,,0000*60
[13:08:41] $GNRMC,170841.120,A,4020.7222994,N,08007.7259292,W,000.0,000.0,260425,,,A,V*1F
[13:08:41] $GPGGA,170841.160,4020.7222993,N,08007.7259294,W,1,26,0.6,328.354,M,-33.184,M,,0000*62
[13:08:41] $GNRMC,170841.160,A,4020.7222993,N,08007.7259294,W,000.0,000.0,260425,,,A,V*1A
[13:08:41] $GPGGA,170841.200,4020.7222991,N,08007.7259297,W,1,26,0.6,328.354,M,-33.184,M,,0000*66
[13:08:41] $GNRMC,170841.200,A,4020.7222991,N,08007.7259297,W,000.0,000.0,260425,,,A,V*1E
[13:08:41] $GPGGA,170841.240,4020.7222990,N,08007.7259299,W,1,26,0.6,328.354,M,-33.184,M,,0000*6D
[13:08:41] $GNRMC,170841.240,A,4020.7222990,N,08007.7259299,W,000.0,000.0,260425,,,A,V*15
[13:08:41] $GPGGA,170841.280,4020.7222988,N,08007.7259301,W,1,26,0.6,328.355,M,-33.184,M,,0000*69
[13:08:41] $GNRMC,170841.280,A,4020.7222988,N,08007.7259301,W,000.0,000.0,260425,,,A,V*10
[13:08:41] $GPGGA,170841.320,4020.7222987,N,08007.7259303,W,1,26,0.6,328.355,M,-33.184,M,,0000*6F
[13:08:41] $GNRMC,170841.320,A,4020.7222987,N,08007.7259303,W,000.0,000.0,260425,,,A,V*16
[13:08:41] $GPGGA,170841.360,4020.7222986,N,08007.7259305,W,1,26,0.6,328.355,M,-33.184,M,,0000*6C
[13:08:41] $GNRMC,170841.360,A,4020.7222986,N,08007.7259305,W,000.0,000.0,260425,,,A,V*15
[13:08:41] $GPGGA,170841.400,4020.7222984,N,08007.7259307,W,1,26,0.6,328.356,M,-33.184,M,,0000*6E
[13:08:41] $GNRMC,170841.400,A,4020.7222984,N,08007.7259307,W,000.0,000.0,260425,,,A,V*14
[13:08:41] $GPGGA,170841.440,4020.7222983,N,08007.7259309,W,1,26,0.6,328.356,M,-33.184,M,,0000*63
[13:08:41] $GNRMC,170841.440,A,4020.7222983,N,08007.7259309,W,000.0,000.0,260425,,,A,V*19
[13:08:41] $GPGGA,170841.480,4020.7222981,N,08007.7259311,W,1,26,0.6,328.356,M,-33.184,M,,0000*64
[13:08:41] $GNRMC,170841.480,A,4020.7222981,N,08007.7259311,W,000.0,000.0,260425,,,A,V*1E
[13:08:41] $GPGGA,170841.520,4020.7222980,N,08007.7259313,W,1,26,0.6,328.357,M,-33.184,M,,0000*6D
[13:08:41] $GNRMC,170841.520,A,4020.7222980,N,08007.7259313,W,000.0,000.0,260425,,,A,V*16
[13:08:41] $GPGGA,170841.560,4020.7222978,N,08007.7259315,W,1,26,0.6,328.357,M,-33.184,M,,0000*68
[13:08:41] $GNRMC,170841.560,A,4020.7222978,N,08007.7259315,W,000.0,000.0,260425,,,A,V*13
[13:08:41] $GPGGA,170841.600,4020.7222977,N,08007.7259318,W,1,26,0.6,328.357,M,-33.184,M,,0000*6F
[13:08:41] $GNRMC,170841.600,A,4020.7222977,N,08007.7259318,W,000.0,000.0,260425,,,A,V*14
[13:08:41] $GPGGA,170841.640,4020.7222976,N,08007.7259320,W,1,26,0.6,328.358,M,-33.184,M,,0000*6E
[13:08:41] $GNRMC,170841.640,A,4020.7222976,N,08007.7259320,W,000.0,000.0,260425,,,A,V*1A
[13:08:41] $GPGGA,170841.680,4020.7222974,N,08007.7259322,W,1,26,0.6,328.358,M,-33.184,M,,0000*62
[13:08:41] $GNRMC,170841.680,A,4020.7222974,N,08007.7259322,W,000.0,000.0,260425,,,A,V*16
[13:08:41] $GPGGA,170841.720,4020.7222973,N,08007.7259324,W,1,26,0.6,328.358,M,-33.184,M,,0000*68
[13:08:41] $GNRMC,170841.720,A,4020.7222973,N,08007.7259324,W,000.0,000.0,260425,,,A,V*1C
[13:08:41] $GPGGA,170841.760,4020.7222971,N,08007.7259326,W,1,26,0.6,328.359,M,-33.184,M,,0000*6D
[13:08:41] $GNRMC,170841.760,A,4020.7222971,N,08007.7259326,W,000.0,000.0,260425,,,A,V*18
[13:08:41] $GPGGA,170841.800,4020.7222970,N,08007.7259328,W,1,26,0.6,328.359,M,-33.184,M,,0000*6B
[13:08:41] $GNRMC,170841.800,A,4020.7222970,N,08007.7259328,W,000.0,000.0,260425,,,A,V*1E
[13:08:41] $GPGGA,170841.840,4020.7222969,N,08007.7259330,W,1,26,0.6,328.360,M,-33.184,M,,0000*64
[13:08:41] $GNRMC,170841.840,A,4020.7222969,N,08007.7259330,W,000.0,000.0,260425,,,A,V*1B
[13:08:41] $GPGGA,170841.880,4020.7222967,N,08007.7259332,W,1,26,0.6,328.360,M,-33.184,M,,0000*64
[13:08:41] $GNRMC,170841.880,A,4020.7222967,N,08007.7259332,W,000.0,000.0,260425,,,A,V*1B
[13:08:41] $GPGGA,170841.920,4020.7222966,N,08007.7259334,W,1,26,0.6,328.360,M,-33.184,M,,0000*68
[13:08:41] $GNRMC,170841.920,A,4020.7222966,N,08007.7259334,W,000.0,000.0,260425,,,A,V*17
[13:08:42] $GNRMC,170842.000,A,4020.7223010,N,08007.7259283,W,000.0,000.0,260425,,,A,V*1B
[13:08:42] $GPGGA,101129.240,4020.7223010,N,08007.7259283,W,1,26,0.6,328.348,M,-33.184,M,,0000*6A
[13:08:42] $GNRMC,101129.240,A,4020.7223010,N,08007.7259283,W,000.0,000.0,150625,,,A,V*1D
[13:08:42] $GPGGA,170842.040,4020.7223010,N,08007.7259286,W,1,26,0.6,328.349,M,-33.184,M,,0000*6E
[13:08:42] $GNRMC,170842.040,A,4020.7223010,N,08007.7259286,W,000.0,000.0,260425,,,A,V*1A
[13:08:42] $GPGGA,170842.080,4020.7223010,N,08007.7259289,W,1,26,0.6,328.349,M,-33.184,M,,0000*6D
[13:08:42] $GNRMC,170842.080,A,4020.7223010,N,08007.7259289,W,000.0,000.0,260425,,,A,V*19
[13:08:42] $GPGGA,170842.120,4020.7223010,N,08007.7259292,W,1,26,0.6,328.349,M,-33.184,M,,0000*6C
[13:08:42] $GNRMC,170842.120,A,4020.7223010,N,08007.7259292,W,000.0,000.0,260425,,,A,V*18
[13:08:42] $GPGGA,170842.160,4020.7223010,N,08007.7259295,W,1,26,0.6,328.350,M,-33.184,M,,0000*67
[13:08:42] $GNRMC,170842.160,A,4020.7223010,N,08007.7259295,W,000.0,000.0,260425,,,A,V*1B
[13:08:42] $GPGGA,170842.200,4020.7223010,N,08007.7259298,W,1,26,0.6,328.350,M,-33.184,M,,0000*6F
[13:08:42] $GNRMC,170842.200,A,4020.7223010,N,08007.7259298,W,000.0,000.0,260425,,,A,V*13
[13:08:42] $GPGGA,170842.240,4020.7223009,N,08007.7259300,W,1,26,0.6,328.350,M,-33.184,M,,0000*63
[13:08:42] $GNRMC,170842.240,A,4020.7223009,N,08007.7259300,W,000.0,000.0,260425,,,A,V*1F
[13:08:42] $GPGGA,170842.280,4020.7223009,N,08007.7259303,W,1,26,0.6,328.351,M,-33.184,M,,0000*6D
[13:08:42] $GNRMC,170842.280,A,4020.7223009,N,08007.7259303,W,000.0,000.0,260425,,,A,V*10
[13:08:42] $GPGGA,170842.320,4020.7223009,N,08007.7259306,W,1,26,0.6,328.351,M,-33.184,M,,0000*63
[13:08:42] $GNRMC,170842.320,A,4020.7223009,N,08007.7259306,W,000.0,000.0,260425,,,A,V*1E
[13:08:42] $GPGGA,170842.360,4020.7223009,N,08007.7259309,W,1,26,0.6,328.352,M,-33.184,M,,0000*6B
[13:08:42] $GNRMC,170842.360,A,4020.7223009,N,08007.7259309,W,000.0,000.0,260425,,,A,V*15
[13:08:42] $GPGGA,170842.400,4020.7223009,N,08007.7259312,W,1,26,0.6,328.352,M,-33.184,M,,0000*60
[13:08:42] $GNRMC,170842.400,A,4020.7223009,N,08007.7259312,W,000.0,000.0,260425,,,A,V*1E
[13:08:42] $GPGGA,170842.440,4020.7223008,N,08007.7259315,W,1,26,0.6,328.352,M,-33.184,M,,0000*62
[13:08:42] $GNRMC,170842.440,A,4020.7223008,N,08007.7259315,W,000.0,000.0,260425,,,A,V*1C
[13:08:42] $GPGGA,170842.480,4020.7223008,N,08007.7259318,W,1,26,0.6,328.353,M,-33.184,M,,0000*62
[13:08:42] $GNRMC,170842.480,A,4020.7223008,N,08007.7259318,W,000.0,000.0,260425,,,A,V*1D
[13:08:42] $GPGGA,170842.520,4020.7223008,N,08007.7259321,W,1,26,0.6,328.353,M,-33.184,M,,0000*63
[13:08:42] $GNRMC,170842.520,A,4020.7223008,N,08007.7259321,W,000.0,000.0,260425,,,A,V*1C
[13:08:42] $GPGGA,170842.560,4020.7223008,N,08007.7259324,W,1,26,0.6,328.353,M,-33.184,M,,0000*62
[13:08:42] $GNRMC,170842.560,A,4020.7223008,N,08007.7259324,W,000.0,000.0,260425,,,A,V*1D
[13:08:42] $GPGGA,170842.600,4020.7223008,N,08007.7259327,W,1,26,0.6,328.354,M,-33.184,M,,0000*63
[13:08:42] $GNRMC,170842.600,A,4020.7223008,N,08007.7259327,W,000.0,000.0,260425,,,A,V*1B
[13:08:42] $GPGGA,170842.640,4020.7223008,N,08007.7259330,W,1,26,0.6,328.354,M,-33.184,M,,0000*61
[13:08:42] $GNRMC,170842.640,A,4020.7223008,N,08007.7259330,W,000.0,000.0,260425,,,A,V*19
[13:08:42] $GPGGA,170842.680,4020.7223007,N,08007.7259333,W,1,26,0.6,328.354,M,-33.184,M,,0000*61
[13:08:42] $GNRMC,170842.680,A,4020.7223007,N,08007.7259333,W,000.0,000.0,260425,,,A,V*19
[13:08:42] $GPGGA,170842.720,4020.7223007,N,08007.7259336,W,1,26,0.6,328.355,M,-33.184,M,,0000*6E
[13:08:42] $GNRMC,170842.720,A,4020.7223007,N,08007.7259336,W,000.0,000.0,260425,,,A,V*17
[13:08:42] $GPGGA,170842.760,4020.7223007,N,08007.7259339,W,1,26,0.6,328.355,M,-33.184,M,,0000*65
[13:08:42] $GNRMC,170842.760,A,4020.7223007,N,08007.7259339,W,000.0,000.0,260425,,,A,V*1C
[13:08:42] $GPGGA,170842.800,4020.7223007,N,08007.7259342,W,1,26,0.6,328.355,M,-33.184,M,,0000*60
[13:08:42] $GNRMC,170842.800,A,4020.7223007,N,08007.7259342,W,000.0,000.0,260425,,,A,V*19
[13:08:42] $GPGGA,170842.840,4020.7223007,N,08007.7259344,W,1,26,0.6,328.356,M,-33.184,M,,0000*61
[13:08:42] $GNRMC,170842.840,A,4020.7223007,N,08007.7259344,W,000.0,000.0,260425,,,A,V*1B
[13:08:42] $GPGGA,170842.880,4020.7223006,N,08007.7259347,W,1,26,0.6,328.356,M,-33.184,M,,0000*6F
[13:08:42] $GNRMC,170842.880,A,4020.7223006,N,08007.7259347,W,000.0,000.0,260425,,,A,V*15
[13:08:42] $GPGGA,170842.920,4020.7223006,N,08007.7259350,W,1,26,0.6,328.356,M,-33.184,M,,0000*62
[13:08:42] $GNRMC,170842.920,A,4020.7223006,N,08007.7259350,W,000.0,000.0,260425,,,A,V*18
[13:08:43] $GNRMC,170843.000,A,4020.7223024,N,08007.7259283,W,000.0,000.0,260425,,,A,V*1D
[13:08:43] $GPGGA,101130.240,4020.7223024,N,08007.7259283,W,1,26,0.6,328.344,M,-33.184,M,,0000*69
[13:08:43] $GNRMC,101130.240,A,4020.7223024,N,08007.7259283,W,000.0,000.0,150625,,,A,V*12
[13:08:43] $GPGGA,170843.040,4020.7223024,N,08007.7259286,W,1,26,0.6,328.345,M,-33.184,M,,0000*64
[13:08:43] $GNRMC,170843.040,A,4020.7223024,N,08007.7259286,W,000.0,000.0,260425,,,A,V*1C
[13:08:43] $GPGGA,170843.080,4020.7223023,N,08007.7259289,W,1,26,0.6,328.345,M,-33.184,M,,0000*60
[13:08:43] $GNRMC,170843.080,A,4020.7223023,N,08007.7259289,W,000.0,000.0,260425,,,A,V*18
[13:08:43] $GPGGA,170843.120,4020.7223022,N,08007.7259292,W,1,26,0.6,328.345,M,-33.184,M,,0000*60
[13:08:43] $GNRMC,170843.120,A,4020.7223022,N,08007.7259292,W,000.0,000.0,260425,,,A,V*18
[13:08:43] $GPGGA,170843.160,4020.7223021,N,08007.7259295,W,1,26,0.6,328.346,M,-33.184,M,,0000*63
[13:08:43] $GNRMC,170843.160,A,4020.7223021,N,08007.7259295,W,000.0,000.0,260425,,,A,V*18
[13:08:43] $GPGGA,170843.200,4020.7223020,N,08007.7259298,W,1,26,0.6,328.346,M,-33.184,M,,0000*6A
[13:08:43] $GNRMC,170843.200,A,4020.7223020,N,08007.7259298,W,000.0,000.0,260425,,,A,V*11
[13:08:43] $GPGGA,170843.240,4020.7223019,N,08007.7259302,W,1,26,0.6,328.347,M,-33.184,M,,0000*67
[13:08:43] $GNRMC,170843.240,A,4020.7223019,N,08007.7259302,W,000.0,000.0,260425,,,A,V*1D
[13:08:43] $GPGGA,170843.280,4020.7223018,N,08007.7259305,W,1,26,0.6,328.347,M,-33.184,M,,0000*6D
[13:08:43] $GNRMC,170843.280,A,4020.7223018,N,08007.7259305,W,000.0,000.0,260425,,,A,V*17
[13:08:43] $GPGGA,170843.320,4020.7223017,N,08007.7259308,W,1,26,0.6,328.347,M,-33.184,M,,0000*64
[13:08:43] $GNRMC,170843.320,A,4020.7223017,N,08007.7259308,W,000.0,000.0,260425,,,A,V*1E
[13:08:43] $GPGGA,170843.360,4020.7223016,N,08007.7259311,W,1,26,0.6,328.348,M,-33.184,M,,0000*66
[13:08:43] $GNRMC,170843.360,A,4020.7223016,N,08007.7259311,W,000.0,000.0,260425,,,A,V*13
[13:08:43] $GPGGA,170843.400,4020.7223016,N,08007.7259314,W,1,26,0.6,328.348,M,-33.184,M,,0000*62
[13:08:43] $GNRMC,170843.400,A,4020.7223016,N,08007.7259314,W,000.0,000.0,260425,,,A,V*17
[13:08:43] $GPGGA,170843.440,4020.7223015,N,08007.7259317,W,1,26,0.6,328.348,M,-33.184,M,,0000*66
[13:08:43] $GNRMC,170843.440,A,4020.7223015,N,08007.7259317,W,000.0,000.0,260425,,,A,V*13
[13:08:43] $GPGGA,170843.480,4020.7223014,N,08007.7259320,W,1,26,0.6,328.349,M,-33.184,M,,0000*6E
[13:08:43] $GNRMC,170843.480,A,4020.7223014,N,08007.7259320,W,000.0,000.0,260425,,,A,V*1A
[13:08:43] $GPGGA,170843.520,4020.7223013,N,08007.7259324,W,1,26,0.6,328.349,M,-33.184,M,,0000*66
[13:08:43] $GNRMC,170843.520,A,4020.7223013,N,08007.7259324,W,000.0,000.0,260425,,,A,V*12
[13:08:43] $GPGGA,170843.560,4020.7223012,N,08007.7259327,W,1,26,0.6,328.349,M,-33.184,M,,0000*60
[13:08:43] $GNRMC,170843.560,A,4020.7223012,N,08007.7259327,W,000.0,000.0,260425,,,A,V*14
[13:08:43] $GPGGA,170843.600,4020.7223011,N,08007.7259330,W,1,26,0.6,328.350,M,-33.184,M,,0000*68
[13:08:43] $GNRMC,170843.600,A,4020.7223011,N,08007.7259330,W,000.0,000.0,260425,,,A,V*14
[13:08:43] $GPGGA,170843.640,4020.7223010,N,08007.7259333,W,1,26,0.6,328.350,M,-33.184,M,,0000*6E
[13:08:43] $GNRMC,170843.640,A,4020.7223010,N,08007.7259333,W,000.0,000.0,260425,,,A,V*12
[13:08:43] $GPGGA,170843.680,4020.7223009,N,08007.7259336,W,1,26,0.6,328.351,M,-33.184,M,,0000*6E
[13:08:43] $GNRMC,170843.680,A,4020.7223009,N,08007.7259336,W,000.0,000.0,260425,,,A,V*13
[13:08:43] $GPGGA,170843.720,4020.7223009,N,08007.7259339,W,1,26,0.6,328.351,M,-33.184,M,,0000*6A
[13:08:43] $GNRMC,170843.720,A,4020.7223009,N,08007.7259339,W,000.0,000.0,260425,,,A,V*17
[13:08:43] $GPGGA,170843.760,4020.7223008,N,08007.7259343,W,1,26,0.6,328.351,M,-33.184,M,,0000*62
[13:08:43] $GNRMC,170843.760,A,4020.7223008,N,08007.7259343,W,000.0,000.0,260425,,,A,V*1F
[13:08:43] $GPGGA,170843.800,4020.7223007,N,08007.7259346,W,1,26,0.6,328.352,M,-33.184,M,,0000*62
[13:08:43] $GNRMC,170843.800,A,4020.7223007,N,08007.7259346,W,000.0,000.0,260425,,,A,V*1C
[13:08:43] $GPGGA,170843.840,4020.7223006,N,08007.7259349,W,1,26,0.6,328.352,M,-33.184,M,,0000*68
[13:08:43] $GNRMC,170843.840,A,4020.7223006,N,08007.7259349,W,000.0,000.0,260425,,,A,V*16
[13:08:43] $GPGGA,170843.880,4020.7223005,N,08007.7259352,W,1,26,0.6,328.352,M,-33.184,M,,0000*6D
[13:08:43] $GNRMC,170843.880,A,4020.7223005,N,08007.7259352,W,000.0,000.0,260425,,,A,V*13
[13:08:43] $GPGGA,170843.920,4020.7223004,N,08007.7259355,W,1,26,0.6,328.353,M,-33.184,M,,0000*61
[13:08:43] $GNRMC,170843.920,A,4020.7223004,N,08007.7259355,W,000.0,000.0,260425,,,A,V*1E
[13:08:44] $GNRMC,170844.000,A,4020.7223042,N,08007.7259291,W,000.0,000.0,260425,,,A,V*19
[13:08:44] $GPGGA,101131.240,4020.7223042,N,08007.7259291,W,1,27,0.5,328.340,M,-33.184,M,,0000*6D
[13:08:44] $GNRMC,101131.240,A,4020.7223042,N,08007.7259291,W,000.0,000.0,150625,,,A,V*10
[13:08:44] $GPGGA,170844.040,4020.7223041,N,08007.7259293,W,1,27,0.5,328.341,M,-33.184,M,,0000*62
[13:08:44] $GNRMC,170844.040,A,4020.7223041,N,08007.7259293,W,000.0,000.0,260425,,,A,V*1C
[13:08:44] $GPGGA,170844.080,4020.7223040,N,08007.7259296,W,1,27,0.5,328.341,M,-33.184,M,,0000*6A
[13:08:44] $GNRMC,170844.080,A,4020.7223040,N,08007.7259296,W,000.0,000.0,260425,,,A,V*14
[13:08:44] $GPGGA,170844.120,4020.7223039,N,08007.7259299,W,1,27,0.5,328.341,M,-33.184,M,,0000*60
[13:08:44] $GNRMC,170844.120,A,4020.7223039,N,08007.7259299,W,000.0,000.0,260425,,,A,V*1E
[13:08:44] $GPGGA,170844.160,4020.7223038,N,08007.7259302,W,1,27,0.5,328.342,M,-33.184,M,,0000*65
[13:08:44] $GNRMC,170844.160,A,4020.7223038,N,08007.7259302,W,000.0,000.0,260425,,,A,V*18
[13:08:44] $GPGGA,170844.200,4020.7223038,N,08007.7259304,W,1,27,0.5,328.342,M,-33.184,M,,0000*66
[13:08:44] $GNRMC,170844.200,A,4020.7223038,N,08007.7259304,W,000.0,000.0,260425,,,A,V*1B
[13:08:44] $GPGGA,170844.240,4020.7223037,N,08007.7259307,W,1,27,0.5,328.342,M,-33.184,M,,0000*6E
[13:08:44] $GNRMC,170844.240,A,4020.7223037,N,08007.7259307,W,000.0,000.0,260425,,,A,V*13
[13:08:44] $GPGGA,170844.280,4020.7223036,N,08007.7259310,W,1,27,0.5,328.343,M,-33.184,M,,0000*64
[13:08:44] $GNRMC,170844.280,A,4020.7223036,N,08007.7259310,W,000.0,000.0,260425,,,A,V*18
[13:08:44] $GPGGA,170844.320,4020.7223035,N,08007.7259313,W,1,27,0.5,328.343,M,-33.184,M,,0000*6F
[13:08:44] $GNRMC,170844.320,A,4020.7223035,N,08007.7259313,W,000.0,000.0,260425,,,A,V*13
[13:08:44] $GPGGA,170844.360,4020.7223034,N,08007.7259315,W,1,27,0.5,328.344,M,-33.184,M,,0000*6B
[13:08:44] $GNRMC,170844.360,A,4020.7223034,N,08007.7259315,W,000.0,000.0,260425,,,A,V*10
[13:08:44] $GPGGA,170844.400,4020.7223034,N,08007.7259318,W,1,27,0.5,328.344,M,-33.184,M,,0000*67
[13:08:44] $GNRMC,170844.400,A,4020.7223034,N,08007.7259318,W,000.0,000.0,260425,,,A,V*1C
[13:08:44] $GPGGA,170844.440,4020.7223033,N,08007.7259321,W,1,27,0.5,328.344,M,-33.184,M,,0000*6E
[13:08:44] $GNRMC,170844.440,A,4020.7223033,N,08007.7259321,W,000.0,000.0,260425,,,A,V*15
[13:08:44] $GPGGA,170844.480,4020.7223032,N,08007.7259324,W,1,27,0.5,328.345,M,-33.184,M,,0000*67
[13:08:44] $GNRMC,170844.480,A,4020.7223032,N,08007.7259324,W,000.0,000.0,260425,,,A,V*1D
[13:08:44] $GPGGA,170844.520,4020.7223031,N,08007.7259326,W,1,27,0.5,328.345,M,-33.184,M,,0000*6D
[13:08:44] $GNRMC,170844.520,A,4020.7223031,N,08007.7259326,W,000.0,000.0,260425,,,A,V*17
[13:08:44] $GPGGA,170844.560,4020.7223030,N,08007.7259329,W,1,27,0.5,328.345,M,-33.184,M,,0000*67
[13:08:44] $GNRMC,170844.560,A,4020.7223030,N,08007.7259329,W,000.0,000.0,260425,,,A,V*1D
[13:08:44] $GPGGA,170844.600,4020.7223030,N,08007.7259332,W,1,27,0.5,328.346,M,-33.184,M,,0000*6B
[13:08:44] $GNRMC,170844.600,A,4020.7223030,N,08007.7259332,W,000.0,000.0,260425,,,A,V*12
[13:08:44] $GPGGA,170844.640,4020.7223029,N,08007.7259335,W,1,27,0.5,328.346,M,-33.184,M,,0000*60
[13:08:44] $GNRMC,170844.640,A,4020.7223029,N,08007.7259335,W,000.0,000.0,260425,,,A,V*19
[13:08:44] $GPGGA,170844.680,4020.7223028,N,08007.7259337,W,1,27,0.5,328.346,M,-33.184,M,,0000*6F
[13:08:44] $GNRMC,170844.680,A,4020.7223028,N,08007.7259337,W,000.0,000.0,260425,,,A,V*16
[13:08:44] $GPGGA,170844.720,4020.7223027,N,08007.7259340,W,1,27,0.5,328.347,M,-33.184,M,,0000*6A
[13:08:44] $GNRMC,170844.720,A,4020.7223027,N,08007.7259340,W,000.0,000.0,260425,,,A,V*12
[13:08:44] $GPGGA,170844.760,4020.7223026,N,08007.7259343,W,1,27,0.5,328.347,M,-33.184,M,,0000*6C
[13:08:44] $GNRMC,170844.760,A,4020.7223026,N,08007.7259343,W,000.0,000.0,260425,,,A,V*14
[13:08:44] $GPGGA,170844.800,4020.7223026,N,08007.7259346,W,1,27,0.5,328.347,M,-33.184,M,,0000*60
[13:08:44] $GNRMC,170844.800,A,4020.7223026,N,08007.7259346,W,000.0,000.0,260425,,,A,V*18
[13:08:44] $GPGGA,170844.840,4020.7223025,N,08007.7259348,W,1,27,0.5,328.348,M,-33.184,M,,0000*66
[13:08:44] $GNRMC,170844.840,A,4020.7223025,N,08007.7259348,W,000.0,000.0,260425,,,A,V*11
[13:08:44] $GPGGA,170844.880,4020.7223024,N,08007.7259351,W,1,27,0.5,328.348,M,-33.184,M,,0000*63
[13:08:44] $GNRMC,170844.880,A,4020.7223024,N,08007.7259351,W,000.0,000.0,260425,,,A,V*14
[13:08:44] $GPGGA,170844.920,4020.7223023,N,08007.7259354,W,1,27,0.5,328.349,M,-33.184,M,,0000*6B
[13:08:44] $GNRMC,170844.920,A,4020.7223023,N,08007.7259354,W,000.0,000.0,260425,,,A,V*1D
[13:08:45] $GNRMC,170845.000,A,4020.7223052,N,08007.7259281,W,000.0,000.0,260425,,,A,V*18
[13:08:45] $GPGGA,101132.240,4020.7223052,N,08007.7259281,W,1,26,0.5,328.337,M,-33.184,M,,0000*6F
[13:08:45] $GNRMC,101132.240,A,4020.7223052,N,08007.7259281,W,000.0,000.0,150625,,,A,V*13
[13:08:45] $GPGGA,170845.040,4020.7223051,N,08007.7259282,W,1,26,0.5,328.337,M,-33.184,M,,0000*62
[13:08:45] $GNRMC,170845.040,A,4020.7223051,N,08007.7259282,W,000.0,000.0,260425,,,A,V*1C
[13:08:45] $GPGGA,170845.080,4020.7223050,N,08007.7259284,W,1,26,0.5,328.338,M,-33.184,M,,0000*66
[13:08:45] $GNRMC,170845.080,A,4020.7223050,N,08007.7259284,W,000.0,000.0,260425,,,A,V*17
[13:08:45] $GPGGA,170845.120,4020.7223049,N,08007.7259286,W,1,26,0.5,328.338,M,-33.184,M,,0000*67
[13:08:45] $GNRMC,170845.120,A,4020.7223049,N,08007.7259286,W,000.0,000.0,260425,,,A,V*16
[13:08:45] $GPGGA,170845.160,4020.7223047,N,08007.7259287,W,1,26,0.5,328.338,M,-33.184,M,,0000*6C
[13:08:45] $GNRMC,170845.160,A,4020.7223047,N,08007.7259287,W,000.0,000.0,260425,,,A,V*1D
[13:08:45] $GPGGA,170845.200,4020.7223046,N,08007.7259289,W,1,26,0.5,328.338,M,-33.184,M,,0000*66
[13:08:45] $GNRMC,170845.200,A,4020.7223046,N,08007.7259289,W,000.0,000.0,260425,,,A,V*17
[13:08:45] $GPGGA,170845.240,4020.7223045,N,08007.7259291,W,1,26,0.5,328.339,M,-33.184,M,,0000*69
[13:08:45] $GNRMC,170845.240,A,4020.7223045,N,08007.7259291,W,000.0,000.0,260425,,,A,V*19
[13:08:45] $GPGGA,170845.280,4020.7223044,N,08007.7259292,W,1,26,0.5,328.339,M,-33.184,M,,0000*67
[13:08:45] $GNRMC,170845.280,A,4020.7223044,N,08007.7259292,W,000.0,000.0,260425,,,A,V*17
[13:08:45] $GPGGA,170845.320,4020.7223042,N,08007.7259294,W,1,26,0.5,328.339,M,-33.184,M,,0000*6C
[13:08:45] $GNRMC,170845.320,A,4020.7223042,N,08007.7259294,W,000.0,000.0,260425,,,A,V*1C
[13:08:45] $GPGGA,170845.360,4020.7223041,N,08007.7259296,W,1,26,0.5,328.340,M,-33.184,M,,0000*67
[13:08:45] $GNRMC,170845.360,A,4020.7223041,N,08007.7259296,W,000.0,000.0,260425,,,A,V*19
[13:08:45] $GPGGA,170845.400,4020.7223040,N,08007.7259297,W,1,26,0.5,328.340,M,-33.184,M,,0000*66
[13:08:45] $GNRMC,170845.400,A,4020.7223040,N,08007.7259297,W,000.0,000.0,260425,,,A,V*18
[13:08:45] $GPGGA,170845.440,4020.7223039,N,08007.7259299,W,1,26,0.5,328.340,M,-33.184,M,,0000*62
[13:08:45] $GNRMC,170845.440,A,4020.7223039,N,08007.7259299,W,000.0,000.0,260425,,,A,V*1C
[13:08:45] $GPGGA,170845.480,4020.7223037,N,08007.7259301,W,1,26,0.5,328.341,M,-33.184,M,,0000*61
[13:08:45] $GNRMC,170845.480,A,4020.7223037,N,08007.7259301,W,000.0,000.0,260425,,,A,V*1E
[13:08:45] $GPGGA,170845.520,4020.7223036,N,08007.7259302,W,1,26,0.5,328.341,M,-33.184,M,,0000*68
[13:08:45] $GNRMC,170845.520,A,4020.7223036,N,08007.7259302,W,000.0,000.0,260425,,,A,V*17
[13:08:45] $GPGGA,170845.560,4020.7223035,N,08007.7259304,W,1,26,0.5,328.341,M,-33.184,M,,0000*69
[13:08:45] $GNRMC,170845.560,A,4020.7223035,N,08007.7259304,W,000.0,000.0,260425,,,A,V*16
[13:08:45] $GPGGA,170845.600,4020.7223034,N,08007.7259306,W,1,26,0.5,328.341,M,-33.184,M,,0000*6F
[13:08:45] $GNRMC,170845.600,A,4020.7223034,N,08007.7259306,W,000.0,000.0,260425,,,A,V*10
[13:08:45] $GPGGA,170845.640,4020.7223032,N,08007.7259307,W,1,26,0.5,328.342,M,-33.184,M,,0000*6F
[13:08:45] $GNRMC,170845.640,A,4020.7223032,N,08007.7259307,W,000.0,000.0,260425,,,A,V*13
[13:08:45] $GPGGA,170845.680,4020.7223031,N,08007.7259309,W,1,26,0.5,328.342,M,-33.184,M,,0000*6E
[13:08:45] $GNRMC,170845.680,A,4020.7223031,N,08007.7259309,W,000.0,000.0,260425,,,A,V*12
[13:08:45] $GPGGA,170845.720,4020.7223030,N,08007.7259311,W,1,26,0.5,328.342,M,-33.184,M,,0000*6D
[13:08:45] $GNRMC,170845.720,A,4020.7223030,N,08007.7259311,W,000.0,000.0,260425,,,A,V*11
[13:08:45] $GPGGA,170845.760,4020.7223029,N,08007.7259312,W,1,26,0.5,328.343,M,-33.184,M,,0000*63
[13:08:45] $GNRMC,170845.760,A,4020.7223029,N,08007.7259312,W,000.0,000.0,260425,,,A,V*1E
[13:08:45] $GPGGA,170845.800,4020.7223027,N,08007.7259314,W,1,26,0.5,328.343,M,-33.184,M,,0000*62
[13:08:45] $GNRMC,170845.800,A,4020.7223027,N,08007.7259314,W,000.0,000.0,260425,,,A,V*1F
[13:08:45] $GPGGA,170845.840,4020.7223026,N,08007.7259316,W,1,26,0.5,328.343,M,-33.184,M,,0000*65
[13:08:45] $GNRMC,170845.840,A,4020.7223026,N,08007.7259316,W,000.0,000.0,260425,,,A,V*18
[13:08:45] $GPGGA,170845.880,4020.7223025,N,08007.7259317,W,1,26,0.5,328.343,M,-33.184,M,,0000*6B
[13:08:45] $GNRMC,170845.880,A,4020.7223025,N,08007.7259317,W,000.0,000.0,260425,,,A,V*16
