[11:17:39] $GPGGA,082026.240,4020.7227313,N,08007.7278820,W,1,25,0.6,328.542,M,-33.184,M,,0000*65
[11:17:39] $GNRMC,082026.240,A,4020.7227313,N,08007.7278820,W,000.1,000.0,150625,,,A,V*1C
[11:17:39] $GPGGA,151739.040,4020.7227312,N,08007.7278822,W,1,25,0.6,328.543,M,-33.184,M,,0000*63
[11:17:39] $GNRMC,151739.040,A,4020.7227312,N,08007.7278822,W,000.1,000.0,260425,,,A,V*19
[11:17:39] $GPGGA,151739.080,4020.7227311,N,08007.7278823,W,1,25,0.6,328.544,M,-33.184,M,,0000*6A
[11:17:39] $GNRMC,151739.080,A,4020.7227311,N,08007.7278823,W,000.1,000.0,260425,,,A,V*17
[11:17:39] $GPGGA,151739.120,4020.7227310,N,08007.7278824,W,1,25,0.6,328.545,M,-33.184,M,,0000*66
[11:17:39] $GNRMC,151739.120,A,4020.7227310,N,08007.7278824,W,000.1,000.0,260425,,,A,V*1A
[11:17:39] $GPGGA,151739.160,4020.7227308,N,08007.7278826,W,1,25,0.6,328.546,M,-33.184,M,,0000*6A
[11:17:39] $GNRMC,151739.160,A,4020.7227308,N,08007.7278826,W,000.1,000.0,260425,,,A,V*15
[11:17:39] $GPGGA,151739.200,4020.7227307,N,08007.7278827,W,1,25,0.6,328.547,M,-33.184,M,,0000*60
[11:17:39] $GNRMC,151739.200,A,4020.7227307,N,08007.7278827,W,000.1,000.0,260425,,,A,V*1E
[11:17:39] $GPGGA,151739.240,4020.7227306,N,08007.7278828,W,1,25,0.6,328.548,M,-33.184,M,,0000*65
[11:17:39] $GNRMC,151739.240,A,4020.7227306,N,08007.7278828,W,000.1,000.0,260425,,,A,V*14
[11:17:39] $GPGGA,151739.280,4020.7227305,N,08007.7278829,W,1,25,0.6,328.549,M,-33.184,M,,0000*6A
[11:17:39] $GNRMC,151739.280,A,4020.7227305,N,08007.7278829,W,000.1,000.0,260425,,,A,V*1A
[11:17:39] $GPGGA,151739.320,4020.7227304,N,08007.7278831,W,1,25,0.6,328.550,M,-33.184,M,,0000*61
[11:17:39] $GNRMC,151739.320,A,4020.7227304,N,08007.7278831,W,000.1,000.0,260425,,,A,V*19
[11:17:39] $GPGGA,151739.360,4020.7227303,N,08007.7278832,W,1,25,0.6,328.551,M,-33.184,M,,0000*60
[11:17:39] $GNRMC,151739.360,A,4020.7227303,N,08007.7278832,W,000.1,000.0,260425,,,A,V*19
[11:17:39] $GPGGA,151739.400,4020.7227301,N,08007.7278833,W,1,25,0.6,328.552,M,-33.184,M,,0000*61
[11:17:39] $GNRMC,151739.400,A,4020.7227301,N,08007.7278833,W,000.1,000.0,260425,,,A,V*1B
[11:17:39] $GPGGA,151739.440,4020.7227300,N,08007.7278835,W,1,25,0.6,328.553,M,-33.184,M,,0000*63
[11:17:39] $GNRMC,151739.440,A,4020.7227300,N,08007.7278835,W,000.1,000.0,260425,,,A,V*18
[11:17:39] $GPGGA,151739.480,4020.7227299,N,08007.7278836,W,1,25,0.6,328.554,M,-33.184,M,,0000*6A
[11:17:39] $GNRMC,151739.480,A,4020.7227299,N,08007.7278836,W,000.1,000.0,260425,,,A,V*16
[11:17:39] $GPGGA,151739.520,4020.7227298,N,08007.7278837,W,1,25,0.6,328.555,M,-33.184,M,,0000*60
[11:17:39] $GNRMC,151739.520,A,4020.7227298,N,08007.7278837,W,000.1,000.0,260425,,,A,V*1D
[11:17:39] $GPGGA,151739.560,4020.7227297,N,08007.7278838,W,1,25,0.6,328.556,M,-33.184,M,,0000*67
[11:17:39] $GNRMC,151739.560,A,4020.7227297,N,08007.7278838,W,000.1,000.0,260425,,,A,V*19
[11:17:39] $GPGGA,151739.600,4020.7227296,N,08007.7278840,W,1,25,0.6,328.557,M,-33.184,M,,0000*6D
[11:17:39] $GNRMC,151739.600,A,4020.7227296,N,08007.7278840,W,000.1,000.0,260425,,,A,V*12
[11:17:39] $GPGGA,151739.640,4020.7227294,N,08007.7278841,W,1,25,0.6,328.558,M,-33.184,M,,0000*65
[11:17:39] $GNRMC,151739.640,A,4020.7227294,N,08007.7278841,W,000.1,000.0,260425,,,A,V*15
[11:17:39] $GPGGA,151739.680,4020.7227293,N,08007.7278842,W,1,25,0.6,328.559,M,-33.184,M,,0000*6C
[11:17:39] $GNRMC,151739.680,A,4020.7227293,N,08007.7278842,W,000.1,000.0,260425,,,A,V*1D
[11:17:39] $GPGGA,151739.720,4020.7227292,N,08007.7278844,W,1,25,0.6,328.560,M,-33.184,M,,0000*6A
[11:17:39] $GNRMC,151739.720,A,4020.7227292,N,08007.7278844,W,000.1,000.0,260425,,,A,V*11
[11:17:39] $GPGGA,151739.760,4020.7227291,N,08007.7278845,W,1,25,0.6,328.561,M,-33.184,M,,0000*6D
[11:17:39] $GNRMC,151739.760,A,4020.7227291,N,08007.7278845,W,000.1,000.0,260425,,,A,V*17
[11:17:39] $GPGGA,151739.800,4020.7227290,N,08007.7278846,W,1,25,0.6,328.562,M,-33.184,M,,0000*65
[11:17:39] $GNRMC,151739.800,A,4020.7227290,N,08007.7278846,W,000.1,000.0,260425,,,A,V*1C
[11:17:39] $GPGGA,151739.840,4020.7227289,N,08007.7278848,W,1,25,0.6,328.563,M,-33.184,M,,0000*66
[11:17:39] $GNRMC,151739.840,A,4020.7227289,N,08007.7278848,W,000.1,000.0,260425,,,A,V*1E
[11:17:39] $GPGGA,151739.880,4020.7227287,N,08007.7278849,W,1,25,0.6,328.564,M,-33.184,M,,0000*62
[11:17:39] $GNRMC,151739.880,A,4020.7227287,N,08007.7278849,W,000.1,000.0,260425,,,A,V*1D
[11:17:39] $GPGGA,151739.920,4020.7227286,N,08007.7278850,W,1,25,0.6,328.565,M,-33.184,M,,0000*61
[11:17:39] $GNRMC,151739.920,A,4020.7227286,N,08007.7278850,W,000.1,000.0,260425,,,A,V*1F
[11:17:40] $GPGGA,151740.000,4020.8228757,N,08007.7301216,W,5,25,0.6,-104.865,M,-33.100,M,1.000,0000*61
[11:17:40] $GNRMC,151740.000,A,4020.8228757,N,08007.7301216,W,000.0,000.0,260425,,,F,V*12
[11:17:40] $GPGGA,082027.240,4020.8228757,N,08007.7301216,W,5,25,0.6,-104.780,M,-33.185,M,,0000*48
[11:17:40] $GNRMC,082027.240,A,4020.8228757,N,08007.7301216,W,000.1,000.0,150625,,,F,V*1E
[11:17:40] $GPGGA,151740.040,4020.8228756,N,08007.7301217,W,5,25,0.6,-104.779,M,-33.185,M,,0000*45
[11:17:40] $GNRMC,151740.040,A,4020.8228756,N,08007.7301217,W,000.1,000.0,260425,,,F,V*17
[11:17:40] $GPGGA,151740.080,4020.8228754,N,08007.7301218,W,5,25,0.6,-104.778,M,-33.185,M,,0000*45
[11:17:40] $GNRMC,151740.080,A,4020.8228754,N,08007.7301218,W,000.1,000.0,260425,,,F,V*16
[11:17:40] $GPGGA,151740.120,4020.8228753,N,08007.7301219,W,5,25,0.6,-104.777,M,-33.185,M,,0000*47
[11:17:40] $GNRMC,151740.120,A,4020.8228753,N,08007.7301219,W,000.1,000.0,260425,,,F,V*1B
[11:17:40] $GPGGA,151740.160,4020.8228752,N,08007.7301219,W,5,25,0.6,-104.775,M,-33.185,M,,0000*40
[11:17:40] $GNRMC,151740.160,A,4020.8228752,N,08007.7301219,W,000.1,000.0,260425,,,F,V*1E
[11:17:40] $GPGGA,151740.200,4020.8228750,N,08007.7301220,W,5,25,0.6,-104.774,M,-33.185,M,,0000*4C
[11:17:40] $GNRMC,151740.200,A,4020.8228750,N,08007.7301220,W,000.1,000.0,260425,,,F,V*13
[11:17:40] $GPGGA,151740.240,4020.8228749,N,08007.7301221,W,5,25,0.6,-104.773,M,-33.185,M,,0000*46
[11:17:40] $GNRMC,151740.240,A,4020.8228749,N,08007.7301221,W,000.1,000.0,260425,,,F,V*1E
[11:17:40] $GPGGA,151740.280,4020.8228747,N,08007.7301222,W,5,25,0.6,-104.772,M,-33.185,M,,0000*46
[11:17:40] $GNRMC,151740.280,A,4020.8228747,N,08007.7301222,W,000.1,000.0,260425,,,F,V*1F
[11:17:40] $GPGGA,151740.320,4020.8228746,N,08007.7301222,W,5,25,0.6,-104.771,M,-33.185,M,,0000*4F
[11:17:40] $GNRMC,151740.320,A,4020.8228746,N,08007.7301222,W,000.1,000.0,260425,,,F,V*15
[11:17:40] $GPGGA,151740.360,4020.8228744,N,08007.7301223,W,5,25,0.6,-104.770,M,-33.185,M,,0000*49
[11:17:40] $GNRMC,151740.360,A,4020.8228744,N,08007.7301223,W,000.1,000.0,260425,,,F,V*12
[11:17:40] $GPGGA,151740.400,4020.8228743,N,08007.7301224,W,5,25,0.6,-104.769,M,-33.185,M,,0000*40
[11:17:40] $GNRMC,151740.400,A,4020.8228743,N,08007.7301224,W,000.1,000.0,260425,,,F,V*13
[11:17:40] $GPGGA,151740.440,4020.8228741,N,08007.7301225,W,5,25,0.6,-104.768,M,-33.185,M,,0000*46
[11:17:40] $GNRMC,151740.440,A,4020.8228741,N,08007.7301225,W,000.1,000.0,260425,,,F,V*14
[11:17:40] $GPGGA,151740.480,4020.8228740,N,08007.7301225,W,5,25,0.6,-104.766,M,-33.185,M,,0000*45
[11:17:40] $GNRMC,151740.480,A,4020.8228740,N,08007.7301225,W,000.1,000.0,260425,,,F,V*19
[11:17:40] $GPGGA,151740.520,4020.8228738,N,08007.7301226,W,5,25,0.6,-104.765,M,-33.185,M,,0000*41
[11:17:40] $GNRMC,151740.520,A,4020.8228738,N,08007.7301226,W,000.1,000.0,260425,,,F,V*1E
[11:17:40] $GPGGA,151740.560,4020.8228737,N,08007.7301227,W,5,25,0.6,-104.764,M,-33.185,M,,0000*4A
[11:17:40] $GNRMC,151740.560,A,4020.8228737,N,08007.7301227,W,000.1,000.0,260425,,,F,V*14
[11:17:40] $GPGGA,151740.600,4020.8228735,N,08007.7301228,W,5,25,0.6,-104.763,M,-33.185,M,,0000*45
[11:17:40] $GNRMC,151740.600,A,4020.8228735,N,08007.7301228,W,000.1,000.0,260425,,,F,V*1C
[11:17:40] $GPGGA,151740.640,4020.8228734,N,08007.7301229,W,5,25,0.6,-104.762,M,-33.185,M,,0000*40
[11:17:40] $GNRMC,151740.640,A,4020.8228734,N,08007.7301229,W,000.1,000.0,260425,,,F,V*18
[11:17:40] $GPGGA,151740.680,4020.8228732,N,08007.7301229,W,5,25,0.6,-104.761,M,-33.185,M,,0000*49
[11:17:40] $GNRMC,151740.680,A,4020.8228732,N,08007.7301229,W,000.1,000.0,260425,,,F,V*12
[11:17:40] $GPGGA,151740.720,4020.8228731,N,08007.7301230,W,5,25,0.6,-104.760,M,-33.185,M,,0000*48
[11:17:40] $GNRMC,151740.720,A,4020.8228731,N,08007.7301230,W,000.1,000.0,260425,,,F,V*12
[11:17:40] $GPGGA,151740.760,4020.8228730,N,08007.7301231,W,5,25,0.6,-104.759,M,-33.185,M,,0000*46
[11:17:40] $GNRMC,151740.760,A,4020.8228730,N,08007.7301231,W,000.1,000.0,260425,,,F,V*16
[11:17:40] $GPGGA,151740.800,4020.8228728,N,08007.7301232,W,5,25,0.6,-104.757,M,-33.185,M,,0000*4B
[11:17:40] $GNRMC,151740.800,A,4020.8228728,N,08007.7301232,W,000.1,000.0,260425,,,F,V*15
[11:17:40] $GPGGA,151740.840,4020.8228727,N,08007.7301232,W,5,25,0.6,-104.756,M,-33.185,M,,0000*41
[11:17:40] $GNRMC,151740.840,A,4020.8228727,N,08007.7301232,W,000.1,000.0,260425,,,F,V*1E
[11:17:40] $GPGGA,151740.880,4020.8228725,N,08007.7301233,W,5,25,0.6,-104.755,M,-33.185,M,,0000*4D
[11:17:40] $GNRMC,151740.880,A,4020.8228725,N,08007.7301233,W,000.1,000.0,260425,,,F,V*11
[11:17:40] $GPGGA,151740.920,4020.8228724,N,08007.7301234,W,5,25,0.6,-104.754,M,-33.185,M,,0000*41
[11:17:40] $GNRMC,151740.920,A,4020.8228724,N,08007.7301234,W,000.1,000.0,260425,,,F,V*1C
[11:17:40] $GPGGA,151740.960,4020.8228722,N,08007.7301235,W,5,25,0.6,-104.753,M,-33.185,M,,0000*45
[11:17:40] $GNRMC,151740.960,A,4020.8228722,N,08007.7301235,W,000.1,000.0,260425,,,F,V*1F
[11:17:41] $GNRMC,151741.000,A,4020.8228962,N,08007.7300749,W,000.0,000.0,260425,,,F,V*15
[11:17:41] $GPGGA,151741.040,4020.8228961,N,08007.7300750,W,5,25,0.6,-104.907,M,-33.185,M,,0000*4E
[11:17:41] $GNRMC,151741.040,A,4020.8228961,N,08007.7300750,W,000.1,000.0,260425,,,F,V*1B
[11:17:41] $GPGGA,151741.080,4020.8228960,N,08007.7300751,W,5,25,0.6,-104.905,M,-33.185,M,,0000*40
[11:17:41] $GNRMC,151741.080,A,4020.8228960,N,08007.7300751,W,000.1,000.0,260425,,,F,V*17
[11:17:41] $GPGGA,151741.120,4020.8228958,N,08007.7300752,W,5,25,0.6,-104.904,M,-33.185,M,,0000*42
[11:17:41] $GNRMC,151741.120,A,4020.8228958,N,08007.7300752,W,000.1,000.0,260425,,,F,V*14
[11:17:41] $GPGGA,151741.160,4020.8228957,N,08007.7300752,W,5,25,0.6,-104.903,M,-33.185,M,,0000*4E
[11:17:41] $GNRMC,151741.160,A,4020.8228957,N,08007.7300752,W,000.1,000.0,260425,,,F,V*1F
[11:17:41] $GPGGA,151741.200,4020.8228956,N,08007.7300753,W,5,25,0.6,-104.902,M,-33.185,M,,0000*4A
[11:17:41] $GNRMC,151741.200,A,4020.8228956,N,08007.7300753,W,000.1,000.0,260425,,,F,V*1A
[11:17:41] $GPGGA,151741.240,4020.8228955,N,08007.7300754,W,5,25,0.6,-104.900,M,-33.185,M,,0000*48
[11:17:41] $GNRMC,151741.240,A,4020.8228955,N,08007.7300754,W,000.1,000.0,260425,,,F,V*1A
[11:17:41] $GPGGA,151741.280,4020.8228954,N,08007.7300755,W,5,25,0.6,-104.899,M,-33.185,M,,0000*45
[11:17:41] $GNRMC,151741.280,A,4020.8228954,N,08007.7300755,W,000.1,000.0,260425,,,F,V*16
[11:17:41] $GPGGA,151741.320,4020.8228952,N,08007.7300755,W,5,25,0.6,-104.898,M,-33.185,M,,0000*49
[11:17:41] $GNRMC,151741.320,A,4020.8228952,N,08007.7300755,W,000.1,000.0,260425,,,F,V*1B
[11:17:41] $GPGGA,151741.360,4020.8228951,N,08007.7300756,W,5,25,0.6,-104.897,M,-33.185,M,,0000*42
[11:17:41] $GNRMC,151741.360,A,4020.8228951,N,08007.7300756,W,000.1,000.0,260425,,,F,V*1F
[11:17:41] $GPGGA,151741.400,4020.8228950,N,08007.7300757,W,5,25,0.6,-104.896,M,-33.185,M,,0000*42
[11:17:41] $GNRMC,151741.400,A,4020.8228950,N,08007.7300757,W,000.1,000.0,260425,,,F,V*1E
[11:17:41] $GPGGA,151741.440,4020.8228949,N,08007.7300757,W,5,25,0.6,-104.894,M,-33.185,M,,0000*4C
[11:17:41] $GNRMC,151741.440,A,4020.8228949,N,08007.7300757,W,000.1,000.0,260425,,,F,V*12
[11:17:41] $GPGGA,151741.480,4020.8228948,N,08007.7300758,W,5,25,0.6,-104.893,M,-33.185,M,,0000*49
[11:17:41] $GNRMC,151741.480,A,4020.8228948,N,08007.7300758,W,000.1,000.0,260425,,,F,V*10
[11:17:41] $GPGGA,151741.520,4020.8228946,N,08007.7300759,W,5,25,0.6,-104.892,M,-33.185,M,,0000*4C
[11:17:41] $GNRMC,151741.520,A,4020.8228946,N,08007.7300759,W,000.1,000.0,260425,,,F,V*14
[11:17:41] $GPGGA,151741.560,4020.8228945,N,08007.7300760,W,5,25,0.6,-104.891,M,-33.185,M,,0000*42
[11:17:41] $GNRMC,151741.560,A,4020.8228945,N,08007.7300760,W,000.1,000.0,260425,,,F,V*19
[11:17:41] $GPGGA,151741.600,4020.8228944,N,08007.7300760,W,5,25,0.6,-104.889,M,-33.185,M,,0000*4F
[11:17:41] $GNRMC,151741.600,A,4020.8228944,N,08007.7300760,W,000.1,000.0,260425,,,F,V*1D
[11:17:41] $GPGGA,151741.640,4020.8228943,N,08007.7300761,W,5,25,0.6,-104.888,M,-33.185,M,,0000*4C
[11:17:41] $GNRMC,151741.640,A,4020.8228943,N,08007.7300761,W,000.1,000.0,260425,,,F,V*1F
[11:17:41] $GPGGA,151741.680,4020.8228942,N,08007.7300762,W,5,25,0.6,-104.887,M,-33.185,M,,0000*4D
[11:17:41] $GNRMC,151741.680,A,4020.8228942,N,08007.7300762,W,000.1,000.0,260425,,,F,V*11
[11:17:41] $GPGGA,151741.720,4020.8228940,N,08007.7300762,W,5,25,0.6,-104.886,M,-33.185,M,,0000*45
[11:17:41] $GNRMC,151741.720,A,4020.8228940,N,08007.7300762,W,000.1,000.0,260425,,,F,V*18
[11:17:41] $GPGGA,151741.760,4020.8228939,N,08007.7300763,W,5,25,0.6,-104.885,M,-33.185,M,,0000*4D
[11:17:41] $GNRMC,151741.760,A,4020.8228939,N,08007.7300763,W,000.1,000.0,260425,,,F,V*13
[11:17:41] $GPGGA,151741.800,4020.8228938,N,08007.7300764,W,5,25,0.6,-104.883,M,-33.185,M,,0000*44
[11:17:41] $GNRMC,151741.800,A,4020.8228938,N,08007.7300764,W,000.1,000.0,260425,,,F,V*1C
[11:17:41] $GPGGA,151741.840,4020.8228937,N,08007.7300765,W,5,25,0.6,-104.882,M,-33.185,M,,0000*4F
[11:17:41] $GNRMC,151741.840,A,4020.8228937,N,08007.7300765,W,000.1,000.0,260425,,,F,V*16
[11:17:41] $GPGGA,151741.880,4020.8228936,N,08007.7300765,W,5,25,0.6,-104.881,M,-33.185,M,,0000*41
[11:17:41] $GNRMC,151741.880,A,4020.8228936,N,08007.7300765,W,000.1,000.0,260425,,,F,V*1B
[11:17:41] $GPGGA,151741.920,4020.8228934,N,08007.7300766,W,5,25,0.6,-104.880,M,-33.185,M,,0000*4A
[11:17:41] $GNRMC,151741.920,A,4020.8228934,N,08007.7300766,W,000.1,000.0,260425,,,F,V*11
[11:17:42] $GPGGA,151741.960,4020.8228933,N,08007.7300767,W,5,25,0.6,-104.878,M,-33.185,M,,0000*4F
[11:17:42] $GNRMC,151741.960,A,4020.8228933,N,08007.7300767,W,000.1,000.0,260425,,,F,V*13
[11:17:42] $GNRMC,151742.000,A,4020.8229365,N,08007.7301055,W,000.0,000.0,260425,,,F,V*11
[11:17:42] $GPGGA,151742.040,4020.8229364,N,08007.7301056,W,5,25,0.6,-105.005,M,-33.185,M,,0000*49
[11:17:42] $GNRMC,151742.040,A,4020.8229364,N,08007.7301056,W,000.0,000.0,260425,,,F,V*17
[11:17:42] $GPGGA,151742.080,4020.8229363,N,08007.7301057,W,5,25,0.6,-105.004,M,-33.185,M,,0000*42
[11:17:42] $GNRMC,151742.080,A,4020.8229363,N,08007.7301057,W,000.0,000.0,260425,,,F,V*1D
[11:17:42] $GPGGA,151742.120,4020.8229362,N,08007.7301059,W,5,25,0.6,-105.003,M,-33.185,M,,0000*41
[11:17:42] $GNRMC,151742.120,A,4020.8229362,N,08007.7301059,W,000.0,000.0,260425,,,F,V*19
[11:17:42] $GPGGA,151742.160,4020.8229362,N,08007.7301060,W,5,25,0.6,-105.002,M,-33.185,M,,0000*4E
[11:17:42] $GNRMC,151742.160,A,4020.8229362,N,08007.7301060,W,000.0,000.0,260425,,,F,V*17
[11:17:42] $GPGGA,151742.200,4020.8229361,N,08007.7301061,W,5,25,0.6,-105.001,M,-33.185,M,,0000*4A
[11:17:42] $GNRMC,151742.200,A,4020.8229361,N,08007.7301061,W,000.0,000.0,260425,,,F,V*10
[11:17:42] $GPGGA,151742.240,4020.8229360,N,08007.7301062,W,5,25,0.6,-105.000,M,-33.185,M,,0000*4D
[11:17:42] $GNRMC,151742.240,A,4020.8229360,N,08007.7301062,W,000.0,000.0,260425,,,F,V*16
[11:17:42] $GPGGA,151742.280,4020.8229359,N,08007.7301063,W,5,25,0.6,-104.999,M,-33.185,M,,0000*42
[11:17:42] $GNRMC,151742.280,A,4020.8229359,N,08007.7301063,W,000.0,000.0,260425,,,F,V*11
[11:17:42] $GPGGA,151742.320,4020.8229358,N,08007.7301064,W,5,25,0.6,-104.998,M,-33.185,M,,0000*4E
[11:17:42] $GNRMC,151742.320,A,4020.8229358,N,08007.7301064,W,000.0,000.0,260425,,,F,V*1C
[11:17:42] $GPGGA,151742.360,4020.8229357,N,08007.7301065,W,5,25,0.6,-104.997,M,-33.185,M,,0000*4B
[11:17:42] $GNRMC,151742.360,A,4020.8229357,N,08007.7301065,W,000.0,000.0,260425,,,F,V*16
[11:17:42] $GPGGA,151742.400,4020.8229357,N,08007.7301067,W,5,25,0.6,-104.996,M,-33.185,M,,0000*49
[11:17:42] $GNRMC,151742.400,A,4020.8229357,N,08007.7301067,W,000.0,000.0,260425,,,F,V*15
[11:17:42] $GPGGA,151742.440,4020.8229356,N,08007.7301068,W,5,25,0.6,-104.995,M,-33.185,M,,0000*40
[11:17:42] $GNRMC,151742.440,A,4020.8229356,N,08007.7301068,W,000.0,000.0,260425,,,F,V*1F
[11:17:42] $GPGGA,151742.480,4020.8229355,N,08007.7301069,W,5,25,0.6,-104.994,M,-33.185,M,,0000*4F
[11:17:42] $GNRMC,151742.480,A,4020.8229355,N,08007.7301069,W,000.0,000.0,260425,,,F,V*11
[11:17:42] $GPGGA,151742.520,4020.8229354,N,08007.7301070,W,5,25,0.6,-104.993,M,-33.185,M,,0000*4A
[11:17:42] $GNRMC,151742.520,A,4020.8229354,N,08007.7301070,W,000.0,000.0,260425,,,F,V*13
[11:17:42] $GPGGA,151742.560,4020.8229353,N,08007.7301071,W,5,25,0.6,-104.992,M,-33.185,M,,0000*49
[11:17:42] $GNRMC,151742.560,A,4020.8229353,N,08007.7301071,W,000.0,000.0,260425,,,F,V*11
[11:17:42] $GPGGA,151742.600,4020.8229352,N,08007.7301072,W,5,25,0.6,-104.992,M,-33.185,M,,0000*4E
[11:17:42] $GNRMC,151742.600,A,4020.8229352,N,08007.7301072,W,000.0,000.0,260425,,,F,V*16
[11:17:42] $GPGGA,151742.640,4020.8229352,N,08007.7301074,W,5,25,0.6,-104.991,M,-33.185,M,,0000*4F
[11:17:42] $GNRMC,151742.640,A,4020.8229352,N,08007.7301074,W,000.0,000.0,260425,,,F,V*14
[11:17:42] $GPGGA,151742.680,4020.8229351,N,08007.7301075,W,5,25,0.6,-104.990,M,-33.185,M,,0000*40
[11:17:42] $GNRMC,151742.680,A,4020.8229351,N,08007.7301075,W,000.0,000.0,260425,,,F,V*1A
[11:17:42] $GPGGA,151742.720,4020.8229350,N,08007.7301076,W,5,25,0.6,-104.989,M,-33.185,M,,0000*41
[11:17:42] $GNRMC,151742.720,A,4020.8229350,N,08007.7301076,W,000.0,000.0,260425,,,F,V*13
[11:17:42] $GPGGA,151742.760,4020.8229349,N,08007.7301077,W,5,25,0.6,-104.988,M,-33.185,M,,0000*4D
[11:17:42] $GNRMC,151742.760,A,4020.8229349,N,08007.7301077,W,000.0,000.0,260425,,,F,V*1E
[11:17:42] $GPGGA,151742.800,4020.8229348,N,08007.7301078,W,5,25,0.6,-104.987,M,-33.185,M,,0000*45
[11:17:42] $GNRMC,151742.800,A,4020.8229348,N,08007.7301078,W,000.0,000.0,260425,,,F,V*19
[11:17:42] $GPGGA,151742.840,4020.8229347,N,08007.7301079,W,5,25,0.6,-104.986,M,-33.185,M,,0000*4E
[11:17:42] $GNRMC,151742.840,A,4020.8229347,N,08007.7301079,W,000.0,000.0,260425,,,F,V*13
[11:17:42] $GPGGA,151742.880,4020.8229347,N,08007.7301080,W,5,25,0.6,-104.985,M,-33.185,M,,0000*47
[11:17:42] $GNRMC,151742.880,A,4020.8229347,N,08007.7301080,W,000.0,000.0,260425,,,F,V*19
[11:17:42] $GPGGA,151742.920,4020.8229346,N,08007.7301082,W,5,25,0.6,-104.984,M,-33.185,M,,0000*4E
[11:17:42] $GNRMC,151742.920,A,4020.8229346,N,08007.7301082,W,000.0,000.0,260425,,,F,V*11
[11:17:42] $GPGGA,151742.960,4020.8229345,N,08007.7301083,W,5,25,0.6,-104.983,M,-33.185,M,,0000*4F
[11:17:42] $GNRMC,151742.960,A,4020.8229345,N,08007.7301083,W,000.0,000.0,260425,,,F,V*17
[11:17:43] $GNRMC,151743.000,A,4020.8229273,N,08007.7300791,W,000.0,000.0,260425,,,F,V*18
[11:17:43] $GPGGA,151743.040,4020.8229271,N,08007.7300791,W,5,25,0.6,-105.030,M,-33.185,M,,0000*46
[11:17:43] $GNRMC,151743.040,A,4020.8229271,N,08007.7300791,W,000.0,000.0,260425,,,F,V*1E
[11:17:43] $GPGGA,151743.080,4020.8229270,N,08007.7300792,W,5,25,0.6,-105.030,M,-33.185,M,,0000*48
[11:17:43] $GNRMC,151743.080,A,4020.8229270,N,08007.7300792,W,000.0,000.0,260425,,,F,V*10
[11:17:43] $GPGGA,151743.120,4020.8229269,N,08007.7300793,W,5,25,0.6,-105.029,M,-33.185,M,,0000*42
[11:17:43] $GNRMC,151743.120,A,4020.8229269,N,08007.7300793,W,000.0,000.0,260425,,,F,V*12
[11:17:43] $GPGGA,151743.160,4020.8229268,N,08007.7300793,W,5,25,0.6,-105.028,M,-33.185,M,,0000*46
[11:17:43] $GNRMC,151743.160,A,4020.8229268,N,08007.7300793,W,000.0,000.0,260425,,,F,V*17
[11:17:43] $GPGGA,151743.200,4020.8229266,N,08007.7300794,W,5,25,0.6,-105.027,M,-33.185,M,,0000*45
[11:17:43] $GNRMC,151743.200,A,4020.8229266,N,08007.7300794,W,000.0,000.0,260425,,,F,V*1B
[11:17:43] $GPGGA,151743.240,4020.8229265,N,08007.7300795,W,5,25,0.6,-105.026,M,-33.185,M,,0000*42
[11:17:43] $GNRMC,151743.240,A,4020.8229265,N,08007.7300795,W,000.0,000.0,260425,,,F,V*1D
[11:17:43] $GPGGA,151743.280,4020.8229264,N,08007.7300795,W,5,25,0.6,-105.025,M,-33.185,M,,0000*4C
[11:17:43] $GNRMC,151743.280,A,4020.8229264,N,08007.7300795,W,000.0,000.0,260425,,,F,V*10
[11:17:43] $GPGGA,151743.320,4020.8229262,N,08007.7300796,W,5,25,0.6,-105.025,M,-33.185,M,,0000*42
[11:17:43] $GNRMC,151743.320,A,4020.8229262,N,08007.7300796,W,000.0,000.0,260425,,,F,V*1E
[11:17:43] $GPGGA,151743.360,4020.8229261,N,08007.7300797,W,5,25,0.6,-105.024,M,-33.185,M,,0000*45
[11:17:43] $GNRMC,151743.360,A,4020.8229261,N,08007.7300797,W,000.0,000.0,260425,,,F,V*18
[11:17:43] $GPGGA,151743.400,4020.8229260,N,08007.7300798,W,5,25,0.6,-105.023,M,-33.185,M,,0000*4D
[11:17:43] $GNRMC,151743.400,A,4020.8229260,N,08007.7300798,W,000.0,000.0,260425,,,F,V*17
[11:17:43] $GPGGA,151743.440,4020.8229259,N,08007.7300798,W,5,25,0.6,-105.022,M,-33.185,M,,0000*42
[11:17:43] $GNRMC,151743.440,A,4020.8229259,N,08007.7300798,W,000.0,000.0,260425,,,F,V*19
[11:17:43] $GPGGA,151743.480,4020.8229257,N,08007.7300799,W,5,25,0.6,-105.021,M,-33.185,M,,0000*42
[11:17:43] $GNRMC,151743.480,A,4020.8229257,N,08007.7300799,W,000.0,000.0,260425,,,F,V*1A
[11:17:43] $GPGGA,151743.520,4020.8229256,N,08007.7300800,W,5,25,0.6,-105.020,M,-33.185,M,,0000*46
[11:17:43] $GNRMC,151743.520,A,4020.8229256,N,08007.7300800,W,000.0,000.0,260425,,,F,V*1F
[11:17:43] $GPGGA,151743.560,4020.8229255,N,08007.7300800,W,5,25,0.6,-105.019,M,-33.185,M,,0000*4B
[11:17:43] $GNRMC,151743.560,A,4020.8229255,N,08007.7300800,W,000.0,000.0,260425,,,F,V*18
[11:17:43] $GPGGA,151743.600,4020.8229254,N,08007.7300801,W,5,25,0.6,-105.019,M,-33.185,M,,0000*4E
[11:17:43] $GNRMC,151743.600,A,4020.8229254,N,08007.7300801,W,000.0,000.0,260425,,,F,V*1D
[11:17:43] $GPGGA,151743.640,4020.8229252,N,08007.7300802,W,5,25,0.6,-105.018,M,-33.185,M,,0000*4E
[11:17:43] $GNRMC,151743.640,A,4020.8229252,N,08007.7300802,W,000.0,000.0,260425,,,F,V*1C
[11:17:43] $GPGGA,151743.680,4020.8229251,N,08007.7300802,W,5,25,0.6,-105.017,M,-33.185,M,,0000*4E
[11:17:43] $GNRMC,151743.680,A,4020.8229251,N,08007.7300802,W,000.0,000.0,260425,,,F,V*13
[11:17:43] $GPGGA,151743.720,4020.8229250,N,08007.7300803,W,5,25,0.6,-105.016,M,-33.185,M,,0000*44
[11:17:43] $GNRMC,151743.720,A,4020.8229250,N,08007.7300803,W,000.0,000.0,260425,,,F,V*18
[11:17:43] $GPGGA,151743.760,4020.8229248,N,08007.7300804,W,5,25,0.6,-105.015,M,-33.185,M,,0000*4D
[11:17:43] $GNRMC,151743.760,A,4020.8229248,N,08007.7300804,W,000.0,000.0,260425,,,F,V*12
[11:17:43] $GPGGA,151743.800,4020.8229247,N,08007.7300804,W,5,25,0.6,-105.014,M,-33.185,M,,0000*4A
[11:17:43] $GNRMC,151743.800,A,4020.8229247,N,08007.7300804,W,000.0,000.0,260425,,,F,V*14
[11:17:43] $GPGGA,151743.840,4020.8229246,N,08007.7300805,W,5,25,0.6,-105.014,M,-33.185,M,,0000*4E
[11:17:43] $GNRMC,151743.840,A,4020.8229246,N,08007.7300805,W,000.0,000.0,260425,,,F,V*10
[11:17:43] $GPGGA,151743.880,4020.8229245,N,08007.7300806,W,5,25,0.6,-105.013,M,-33.185,M,,0000*45
[11:17:43] $GNRMC,151743.880,A,4020.8229245,N,08007.7300806,W,000.0,000.0,260425,,,F,V*1C
[11:17:43] $GPGGA,151743.920,4020.8229243,N,08007.7300806,W,5,25,0.6,-105.012,M,-33.185,M,,0000*49
[11:17:43] $GNRMC,151743.920,A,4020.8229243,N,08007.7300806,W,000.0,000.0,260425,,,F,V*11
[11:17:43] $GPGGA,151743.960,4020.8229242,N,08007.7300807,W,5,25,0.6,-105.011,M,-33.185,M,,0000*4E
[11:17:43] $GNRMC,151743.960,A,4020.8229242,N,08007.7300807,W,000.0,000.0,260425,,,F,V*15
[11:17:44] $GNRMC,151744.000,A,4020.8229288,N,08007.7300717,W,000.0,000.0,260425,,,F,V*15
[11:17:44] $GPGGA,151744.040,4020.8229288,N,08007.7300719,W,5,25,0.6,-105.037,M,-33.185,M,,0000*40
[11:17:44] $GNRMC,151744.040,A,4020.8229288,N,08007.7300719,W,000.1,000.0,260425,,,F,V*1E
[11:17:44] $GPGGA,151744.080,4020.8229287,N,08007.7300721,W,5,25,0.6,-105.036,M,-33.185,M,,0000*49
[11:17:44] $GNRMC,151744.080,A,4020.8229287,N,08007.7300721,W,000.1,000.0,260425,,,F,V*16
[11:17:44] $GPGGA,151744.120,4020.8229286,N,08007.7300724,W,5,25,0.6,-105.035,M,-33.185,M,,0000*45
[11:17:44] $GNRMC,151744.120,A,4020.8229286,N,08007.7300724,W,000.1,000.0,260425,,,F,V*19
[11:17:44] $GPGGA,151744.160,4020.8229285,N,08007.7300726,W,5,25,0.6,-105.034,M,-33.185,M,,0000*41
[11:17:44] $GNRMC,151744.160,A,4020.8229285,N,08007.7300726,W,000.1,000.0,260425,,,F,V*1C
[11:17:44] $GPGGA,151744.200,4020.8229284,N,08007.7300728,W,5,25,0.6,-105.033,M,-33.185,M,,0000*4C
[11:17:44] $GNRMC,151744.200,A,4020.8229284,N,08007.7300728,W,000.1,000.0,260425,,,F,V*16
[11:17:44] $GPGGA,151744.240,4020.8229284,N,08007.7300730,W,5,25,0.6,-105.032,M,-33.185,M,,0000*40
[11:17:44] $GNRMC,151744.240,A,4020.8229284,N,08007.7300730,W,000.1,000.0,260425,,,F,V*1B
[11:17:44] $GPGGA,151744.280,4020.8229283,N,08007.7300732,W,5,25,0.6,-105.031,M,-33.185,M,,0000*4A
[11:17:44] $GNRMC,151744.280,A,4020.8229283,N,08007.7300732,W,000.1,000.0,260425,,,F,V*12
[11:17:44] $GPGGA,151744.320,4020.8229282,N,08007.7300735,W,5,25,0.6,-105.030,M,-33.185,M,,0000*46
[11:17:44] $GNRMC,151744.320,A,4020.8229282,N,08007.7300735,W,000.1,000.0,260425,,,F,V*1F
[11:17:44] $GPGGA,151744.360,4020.8229281,N,08007.7300737,W,5,25,0.6,-105.029,M,-33.185,M,,0000*4B
[11:17:44] $GNRMC,151744.360,A,4020.8229281,N,08007.7300737,W,000.1,000.0,260425,,,F,V*1A
[11:17:44] $GPGGA,151744.400,4020.8229280,N,08007.7300739,W,5,25,0.6,-105.028,M,-33.185,M,,0000*44
[11:17:44] $GNRMC,151744.400,A,4020.8229280,N,08007.7300739,W,000.1,000.0,260425,,,F,V*14
[11:17:44] $GPGGA,151744.440,4020.8229280,N,08007.7300741,W,5,25,0.6,-105.027,M,-33.185,M,,0000*40
[11:17:44] $GNRMC,151744.440,A,4020.8229280,N,08007.7300741,W,000.1,000.0,260425,,,F,V*1F
[11:17:44] $GPGGA,151744.480,4020.8229279,N,08007.7300743,W,5,25,0.6,-105.026,M,-33.185,M,,0000*49
[11:17:44] $GNRMC,151744.480,A,4020.8229279,N,08007.7300743,W,000.1,000.0,260425,,,F,V*17
[11:17:44] $GPGGA,151744.520,4020.8229278,N,08007.7300746,W,5,25,0.6,-105.025,M,-33.185,M,,0000*45
[11:17:44] $GNRMC,151744.520,A,4020.8229278,N,08007.7300746,W,000.1,000.0,260425,,,F,V*18
[11:17:44] $GPGGA,151744.560,4020.8229277,N,08007.7300748,W,5,25,0.6,-105.024,M,-33.185,M,,0000*41
[11:17:44] $GNRMC,151744.560,A,4020.8229277,N,08007.7300748,W,000.1,000.0,260425,,,F,V*1D
[11:17:44] $GPGGA,151744.600,4020.8229276,N,08007.7300750,W,5,25,0.6,-105.023,M,-33.185,M,,0000*4B
[11:17:44] $GNRMC,151744.600,A,4020.8229276,N,08007.7300750,W,000.1,000.0,260425,,,F,V*10
[11:17:44] $GPGGA,151744.640,4020.8229275,N,08007.7300752,W,5,25,0.6,-105.022,M,-33.185,M,,0000*4F
[11:17:44] $GNRMC,151744.640,A,4020.8229275,N,08007.7300752,W,000.1,000.0,260425,,,F,V*15
[11:17:44] $GPGGA,151744.680,4020.8229275,N,08007.7300754,W,5,25,0.6,-105.021,M,-33.185,M,,0000*46
[11:17:44] $GNRMC,151744.680,A,4020.8229275,N,08007.7300754,W,000.1,000.0,260425,,,F,V*1F
[11:17:44] $GPGGA,151744.720,4020.8229274,N,08007.7300757,W,5,25,0.6,-105.020,M,-33.185,M,,0000*4E
[11:17:44] $GNRMC,151744.720,A,4020.8229274,N,08007.7300757,W,000.1,000.0,260425,,,F,V*16
[11:17:44] $GPGGA,151744.760,4020.8229273,N,08007.7300759,W,5,25,0.6,-105.019,M,-33.185,M,,0000*49
[11:17:44] $GNRMC,151744.760,A,4020.8229273,N,08007.7300759,W,000.1,000.0,260425,,,F,V*1B
[11:17:44] $GPGGA,151744.800,4020.8229272,N,08007.7300761,W,5,25,0.6,-105.018,M,-33.185,M,,0000*4B
[11:17:44] $GNRMC,151744.800,A,4020.8229272,N,08007.7300761,W,000.1,000.0,260425,,,F,V*18
[11:17:44] $GPGGA,151744.840,4020.8229271,N,08007.7300763,W,5,25,0.6,-105.017,M,-33.185,M,,0000*41
[11:17:44] $GNRMC,151744.840,A,4020.8229271,N,08007.7300763,W,000.1,000.0,260425,,,F,V*1D
[11:17:44] $GPGGA,151744.880,4020.8229271,N,08007.7300765,W,5,25,0.6,-105.016,M,-33.185,M,,0000*4A
[11:17:44] $GNRMC,151744.880,A,4020.8229271,N,08007.7300765,W,000.1,000.0,260425,,,F,V*17
[11:17:44] $GPGGA,151744.920,4020.8229270,N,08007.7300768,W,5,25,0.6,-105.015,M,-33.185,M,,0000*4E
[11:17:44] $GNRMC,151744.920,A,4020.8229270,N,08007.7300768,W,000.1,000.0,260425,,,F,V*10
[11:17:44] $GPGGA,151744.960,4020.8229269,N,08007.7300770,W,5,25,0.6,-105.014,M,-33.185,M,,0000*4A
[11:17:44] $GNRMC,151744.960,A,4020.8229269,N,08007.7300770,W,000.1,000.0,260425,,,F,V*15
[11:17:45] $GNRMC,151745.000,A,4020.8229322,N,08007.7300686,W,000.0,000.0,260425,,,F,V*1C
[11:17:45] $GPGGA,151745.040,4020.8229321,N,08007.7300685,W,5,25,0.6,-105.040,M,-33.185,M,,0000*47
[11:17:45] $GNRMC,151745.040,A,4020.8229321,N,08007.7300685,W,000.1,000.0,260425,,,F,V*19
[11:17:45] $GPGGA,151745.080,4020.8229319,N,08007.7300684,W,5,25,0.6,-105.038,M,-33.185,M,,0000*4E
[11:17:45] $GNRMC,151745.080,A,4020.8229319,N,08007.7300684,W,000.1,000.0,260425,,,F,V*1F
[11:17:45] $GPGGA,151745.120,4020.8229317,N,08007.7300682,W,5,25,0.6,-105.037,M,-33.185,M,,0000*42
[11:17:45] $GNRMC,151745.120,A,4020.8229317,N,08007.7300682,W,000.1,000.0,260425,,,F,V*1C
[11:17:45] $GPGGA,151745.160,4020.8229316,N,08007.7300681,W,5,25,0.6,-105.035,M,-33.185,M,,0000*46
[11:17:45] $GNRMC,151745.160,A,4020.8229316,N,08007.7300681,W,000.1,000.0,260425,,,F,V*1A
[11:17:45] $GPGGA,151745.200,4020.8229314,N,08007.7300680,W,5,25,0.6,-105.034,M,-33.185,M,,0000*41
[11:17:45] $GNRMC,151745.200,A,4020.8229314,N,08007.7300680,W,000.1,000.0,260425,,,F,V*1C
[11:17:45] $GPGGA,151745.240,4020.8229312,N,08007.7300679,W,5,25,0.6,-105.032,M,-33.185,M,,0000*43
[11:17:45] $GNRMC,151745.240,A,4020.8229312,N,08007.7300679,W,000.1,000.0,260425,,,F,V*18
[11:17:45] $GPGGA,151745.280,4020.8229311,N,08007.7300677,W,5,25,0.6,-105.031,M,-33.185,M,,0000*41
[11:17:45] $GNRMC,151745.280,A,4020.8229311,N,08007.7300677,W,000.1,000.0,260425,,,F,V*19
[11:17:45] $GPGGA,151745.320,4020.8229309,N,08007.7300676,W,5,25,0.6,-105.029,M,-33.185,M,,0000*4B
[11:17:45] $GNRMC,151745.320,A,4020.8229309,N,08007.7300676,W,000.1,000.0,260425,,,F,V*1A
[11:17:45] $GPGGA,151745.360,4020.8229307,N,08007.7300675,W,5,25,0.6,-105.028,M,-33.185,M,,0000*43
[11:17:45] $GNRMC,151745.360,A,4020.8229307,N,08007.7300675,W,000.1,000.0,260425,,,F,V*13
[11:17:45] $GPGGA,151745.400,4020.8229306,N,08007.7300673,W,5,25,0.6,-105.026,M,-33.185,M,,0000*4B
[11:17:45] $GNRMC,151745.400,A,4020.8229306,N,08007.7300673,W,000.1,000.0,260425,,,F,V*15
[11:17:45] $GPGGA,151745.440,4020.8229304,N,08007.7300672,W,5,25,0.6,-105.025,M,-33.185,M,,0000*4F
[11:17:45] $GNRMC,151745.440,A,4020.8229304,N,08007.7300672,W,000.1,000.0,260425,,,F,V*12
[11:17:45] $GPGGA,151745.480,4020.8229302,N,08007.7300671,W,5,25,0.6,-105.024,M,-33.185,M,,0000*47
[11:17:45] $GNRMC,151745.480,A,4020.8229302,N,08007.7300671,W,000.1,000.0,260425,,,F,V*1B
[11:17:45] $GPGGA,151745.520,4020.8229301,N,08007.7300670,W,5,25,0.6,-105.022,M,-33.185,M,,0000*48
[11:17:45] $GNRMC,151745.520,A,4020.8229301,N,08007.7300670,W,000.1,000.0,260425,,,F,V*12
[11:17:45] $GPGGA,151745.560,4020.8229299,N,08007.7300668,W,5,25,0.6,-105.021,M,-33.185,M,,0000*46
[11:17:45] $GNRMC,151745.560,A,4020.8229299,N,08007.7300668,W,000.1,000.0,260425,,,F,V*1F
[11:17:45] $GPGGA,151745.600,4020.8229297,N,08007.7300667,W,5,25,0.6,-105.019,M,-33.185,M,,0000*49
[11:17:45] $GNRMC,151745.600,A,4020.8229297,N,08007.7300667,W,000.1,000.0,260425,,,F,V*1B
[11:17:45] $GPGGA,151745.640,4020.8229295,N,08007.7300666,W,5,25,0.6,-105.018,M,-33.185,M,,0000*4F
[11:17:45] $GNRMC,151745.640,A,4020.8229295,N,08007.7300666,W,000.1,000.0,260425,,,F,V*1C
[11:17:45] $GPGGA,151745.680,4020.8229294,N,08007.7300664,W,5,25,0.6,-105.016,M,-33.185,M,,0000*4E
[11:17:45] $GNRMC,151745.680,A,4020.8229294,N,08007.7300664,W,000.1,000.0,260425,,,F,V*13
[11:17:45] $GPGGA,151745.720,4020.8229292,N,08007.7300663,W,5,25,0.6,-105.015,M,-33.185,M,,0000*47
[11:17:45] $GNRMC,151745.720,A,4020.8229292,N,08007.7300663,W,000.1,000.0,260425,,,F,V*19
[11:17:45] $GPGGA,151745.760,4020.8229290,N,08007.7300662,W,5,25,0.6,-105.013,M,-33.185,M,,0000*46
[11:17:45] $GNRMC,151745.760,A,4020.8229290,N,08007.7300662,W,000.1,000.0,260425,,,F,V*1E
[11:17:45] $GPGGA,151745.800,4020.8229289,N,08007.7300661,W,5,25,0.6,-105.012,M,-33.185,M,,0000*45
[11:17:45] $GNRMC,151745.800,A,4020.8229289,N,08007.7300661,W,000.1,000.0,260425,,,F,V*1C
[11:17:45] $GPGGA,151745.840,4020.8229287,N,08007.7300659,W,5,25,0.6,-105.011,M,-33.185,M,,0000*47
[11:17:45] $GNRMC,151745.840,A,4020.8229287,N,08007.7300659,W,000.1,000.0,260425,,,F,V*1D
[11:17:45] $GPGGA,151745.880,4020.8229285,N,08007.7300658,W,5,25,0.6,-105.009,M,-33.185,M,,0000*41
[11:17:45] $GNRMC,151745.880,A,4020.8229285,N,08007.7300658,W,000.1,000.0,260425,,,F,V*12
[11:17:45] $GPGGA,151745.920,4020.8229284,N,08007.7300657,W,5,25,0.6,-105.008,M,-33.185,M,,0000*45
[11:17:45] $GNRMC,151745.920,A,4020.8229284,N,08007.7300657,W,000.1,000.0,260425,,,F,V*17
[11:17:45] $GPGGA,151745.960,4020.8229282,N,08007.7300655,W,5,25,0.6,-105.006,M,-33.185,M,,0000*4B
[11:17:45] $GNRMC,151745.960,A,4020.8229282,N,08007.7300655,W,000.1,000.0,260425,,,F,V*17
[11:17:46] $GNRMC,151746.000,A,4020.8229319,N,08007.7300681,W,000.0,000.0,260425,,,F,V*10
[11:17:46] $GPGGA,151746.040,4020.8229317,N,08007.7300682,W,5,25,0.6,-105.050,M,-33.185,M,,0000*47
[11:17:46] $GNRMC,151746.040,A,4020.8229317,N,08007.7300682,W,000.1,000.0,260425,,,F,V*18
[11:17:46] $GPGGA,151746.080,4020.8229315,N,08007.7300684,W,5,25,0.6,-105.049,M,-33.185,M,,0000*47
[11:17:46] $GNRMC,151746.080,A,4020.8229315,N,08007.7300684,W,000.1,000.0,260425,,,F,V*10
[11:17:46] $GPGGA,151746.120,4020.8229313,N,08007.7300685,W,5,25,0.6,-105.048,M,-33.185,M,,0000*4A
[11:17:46] $GNRMC,151746.120,A,4020.8229313,N,08007.7300685,W,000.1,000.0,260425,,,F,V*1C
[11:17:46] $GPGGA,151746.160,4020.8229311,N,08007.7300687,W,5,25,0.6,-105.047,M,-33.185,M,,0000*41
[11:17:46] $GNRMC,151746.160,A,4020.8229311,N,08007.7300687,W,000.1,000.0,260425,,,F,V*18
[11:17:46] $GPGGA,151746.200,4020.8229308,N,08007.7300689,W,5,25,0.6,-105.046,M,-33.185,M,,0000*43
[11:17:46] $GNRMC,151746.200,A,4020.8229308,N,08007.7300689,W,000.1,000.0,260425,,,F,V*1B
[11:17:46] $GPGGA,151746.240,4020.8229306,N,08007.7300690,W,5,25,0.6,-105.045,M,-33.185,M,,0000*42
[11:17:46] $GNRMC,151746.240,A,4020.8229306,N,08007.7300690,W,000.1,000.0,260425,,,F,V*19
[11:17:46] $GPGGA,151746.280,4020.8229304,N,08007.7300692,W,5,25,0.6,-105.044,M,-33.185,M,,0000*4F
[11:17:46] $GNRMC,151746.280,A,4020.8229304,N,08007.7300692,W,000.1,000.0,260425,,,F,V*15
[11:17:46] $GPGGA,151746.320,4020.8229302,N,08007.7300693,W,5,25,0.6,-105.043,M,-33.185,M,,0000*44
[11:17:46] $GNRMC,151746.320,A,4020.8229302,N,08007.7300693,W,000.1,000.0,260425,,,F,V*19
[11:17:46] $GPGGA,151746.360,4020.8229300,N,08007.7300695,W,5,25,0.6,-105.042,M,-33.185,M,,0000*45
[11:17:46] $GNRMC,151746.360,A,4020.8229300,N,08007.7300695,W,000.1,000.0,260425,,,F,V*19
[11:17:46] $GPGGA,151746.400,4020.8229298,N,08007.7300697,W,5,25,0.6,-105.041,M,-33.185,M,,0000*45
[11:17:46] $GNRMC,151746.400,A,4020.8229298,N,08007.7300697,W,000.1,000.0,260425,,,F,V*1A
[11:17:46] $GPGGA,151746.440,4020.8229296,N,08007.7300698,W,5,25,0.6,-105.040,M,-33.185,M,,0000*41
[11:17:46] $GNRMC,151746.440,A,4020.8229296,N,08007.7300698,W,000.1,000.0,260425,,,F,V*1F
[11:17:46] $GPGGA,151746.480,4020.8229294,N,08007.7300700,W,5,25,0.6,-105.039,M,-33.185,M,,0000*41
[11:17:46] $GNRMC,151746.480,A,4020.8229294,N,08007.7300700,W,000.1,000.0,260425,,,F,V*11
[11:17:46] $GPGGA,151746.520,4020.8229292,N,08007.7300701,W,5,25,0.6,-105.038,M,-33.185,M,,0000*4C
[11:17:46] $GNRMC,151746.520,A,4020.8229292,N,08007.7300701,W,000.1,000.0,260425,,,F,V*1D
[11:17:46] $GPGGA,151746.560,4020.8229289,N,08007.7300703,W,5,25,0.6,-105.037,M,-33.185,M,,0000*4F
[11:17:46] $GNRMC,151746.560,A,4020.8229289,N,08007.7300703,W,000.1,000.0,260425,,,F,V*11
[11:17:46] $GPGGA,151746.600,4020.8229287,N,08007.7300704,W,5,25,0.6,-105.036,M,-33.185,M,,0000*42
[11:17:46] $GNRMC,151746.600,A,4020.8229287,N,08007.7300704,W,000.1,000.0,260425,,,F,V*1D
[11:17:46] $GPGGA,151746.640,4020.8229285,N,08007.7300706,W,5,25,0.6,-105.035,M,-33.185,M,,0000*45
[11:17:46] $GNRMC,151746.640,A,4020.8229285,N,08007.7300706,W,000.1,000.0,260425,,,F,V*19
[11:17:46] $GPGGA,151746.680,4020.8229283,N,08007.7300708,W,5,25,0.6,-105.034,M,-33.185,M,,0000*40
[11:17:46] $GNRMC,151746.680,A,4020.8229283,N,08007.7300708,W,000.1,000.0,260425,,,F,V*1D
[11:17:46] $GPGGA,151746.720,4020.8229281,N,08007.7300709,W,5,25,0.6,-105.033,M,-33.185,M,,0000*4F
[11:17:46] $GNRMC,151746.720,A,4020.8229281,N,08007.7300709,W,000.1,000.0,260425,,,F,V*15
[11:17:46] $GPGGA,151746.760,4020.8229279,N,08007.7300711,W,5,25,0.6,-105.032,M,-33.185,M,,0000*44
[11:17:46] $GNRMC,151746.760,A,4020.8229279,N,08007.7300711,W,000.1,000.0,260425,,,F,V*1F
[11:17:46] $GPGGA,151746.800,4020.8229277,N,08007.7300712,W,5,25,0.6,-105.031,M,-33.185,M,,0000*43
[11:17:46] $GNRMC,151746.800,A,4020.8229277,N,08007.7300712,W,000.1,000.0,260425,,,F,V*1B
[11:17:46] $GPGGA,151746.840,4020.8229275,N,08007.7300714,W,5,25,0.6,-105.030,M,-33.185,M,,0000*42
[11:17:46] $GNRMC,151746.840,A,4020.8229275,N,08007.7300714,W,000.1,000.0,260425,,,F,V*1B
[11:17:46] $GPGGA,151746.880,4020.8229272,N,08007.7300716,W,5,25,0.6,-105.029,M,-33.185,M,,0000*43
[11:17:46] $GNRMC,151746.880,A,4020.8229272,N,08007.7300716,W,000.1,000.0,260425,,,F,V*12
[11:17:46] $GPGGA,151746.920,4020.8229270,N,08007.7300717,W,5,25,0.6,-105.028,M,-33.185,M,,0000*4A
[11:17:46] $GNRMC,151746.920,A,4020.8229270,N,08007.7300717,W,000.1,000.0,260425,,,F,V*1A
[11:17:46] $GPGGA,151746.960,4020.8229268,N,08007.7300719,W,5,25,0.6,-105.027,M,-33.185,M,,0000*46
[11:17:46] $GNRMC,151746.960,A,4020.8229268,N,08007.7300719,W,000.1,000.0,260425,,,F,V*19
[11:17:47] $GNRMC,151747.000,A,4020.8229326,N,08007.7300634,W,000.0,000.0,260425,,,F,V*13
[11:17:47] $GPGGA,151747.040,4020.8229325,N,08007.7300633,W,5,25,0.6,-105.046,M,-33.185,M,,0000*4A
[11:17:47] $GNRMC,151747.040,A,4020.8229325,N,08007.7300633,W,000.0,000.0,260425,,,F,V*13
[11:17:47] $GPGGA,151747.080,4020.8229324,N,08007.7300633,W,5,25,0.6,-105.045,M,-33.185,M,,0000*44
[11:17:47] $GNRMC,151747.080,A,4020.8229324,N,08007.7300633,W,000.0,000.0,260425,,,F,V*1E
[11:17:47] $GPGGA,151747.120,4020.8229322,N,08007.7300632,W,5,25,0.6,-105.044,M,-33.185,M,,0000*49
[11:17:47] $GNRMC,151747.120,A,4020.8229322,N,08007.7300632,W,000.0,000.0,260425,,,F,V*12
[11:17:47] $GPGGA,151747.160,4020.8229321,N,08007.7300632,W,5,25,0.6,-105.043,M,-33.185,M,,0000*49
[11:17:47] $GNRMC,151747.160,A,4020.8229321,N,08007.7300632,W,000.0,000.0,260425,,,F,V*15
[11:17:47] $GPGGA,151747.200,4020.8229320,N,08007.7300632,W,5,25,0.6,-105.042,M,-33.185,M,,0000*4C
[11:17:47] $GNRMC,151747.200,A,4020.8229320,N,08007.7300632,W,000.0,000.0,260425,,,F,V*11
[11:17:47] $GPGGA,151747.240,4020.8229319,N,08007.7300631,W,5,25,0.6,-105.041,M,-33.185,M,,0000*42
[11:17:47] $GNRMC,151747.240,A,4020.8229319,N,08007.7300631,W,000.0,000.0,260425,,,F,V*1C
[11:17:47] $GPGGA,151747.280,4020.8229318,N,08007.7300631,W,5,25,0.6,-105.040,M,-33.185,M,,0000*4E
[11:17:47] $GNRMC,151747.280,A,4020.8229318,N,08007.7300631,W,000.0,000.0,260425,,,F,V*11
[11:17:47] $GPGGA,151747.320,4020.8229316,N,08007.7300630,W,5,25,0.6,-105.039,M,-33.185,M,,0000*44
[11:17:47] $GNRMC,151747.320,A,4020.8229316,N,08007.7300630,W,000.0,000.0,260425,,,F,V*15
[11:17:47] $GPGGA,151747.360,4020.8229315,N,08007.7300630,W,5,25,0.6,-105.038,M,-33.185,M,,0000*42
[11:17:47] $GNRMC,151747.360,A,4020.8229315,N,08007.7300630,W,000.0,000.0,260425,,,F,V*12
[11:17:47] $GPGGA,151747.400,4020.8229314,N,08007.7300629,W,5,25,0.6,-105.037,M,-33.185,M,,0000*45
[11:17:47] $GNRMC,151747.400,A,4020.8229314,N,08007.7300629,W,000.0,000.0,260425,,,F,V*1A
[11:17:47] $GPGGA,151747.440,4020.8229313,N,08007.7300629,W,5,25,0.6,-105.036,M,-33.185,M,,0000*47
[11:17:47] $GNRMC,151747.440,A,4020.8229313,N,08007.7300629,W,000.0,000.0,260425,,,F,V*19
[11:17:47] $GPGGA,151747.480,4020.8229312,N,08007.7300628,W,5,25,0.6,-105.035,M,-33.185,M,,0000*48
[11:17:47] $GNRMC,151747.480,A,4020.8229312,N,08007.7300628,W,000.0,000.0,260425,,,F,V*15
[11:17:47] $GPGGA,151747.520,4020.8229311,N,08007.7300628,W,5,25,0.6,-105.034,M,-33.185,M,,0000*41
[11:17:47] $GNRMC,151747.520,A,4020.8229311,N,08007.7300628,W,000.0,000.0,260425,,,F,V*1D
[11:17:47] $GPGGA,151747.560,4020.8229309,N,08007.7300628,W,5,25,0.6,-105.033,M,-33.185,M,,0000*4B
[11:17:47] $GNRMC,151747.560,A,4020.8229309,N,08007.7300628,W,000.0,000.0,260425,,,F,V*10
[11:17:47] $GPGGA,151747.600,4020.8229308,N,08007.7300627,W,5,25,0.6,-105.032,M,-33.185,M,,0000*41
[11:17:47] $GNRMC,151747.600,A,4020.8229308,N,08007.7300627,W,000.0,000.0,260425,,,F,V*1B
[11:17:47] $GPGGA,151747.640,4020.8229307,N,08007.7300627,W,5,25,0.6,-105.031,M,-33.185,M,,0000*49
[11:17:47] $GNRMC,151747.640,A,4020.8229307,N,08007.7300627,W,000.0,000.0,260425,,,F,V*10
[11:17:47] $GPGGA,151747.680,4020.8229306,N,08007.7300626,W,5,25,0.6,-105.030,M,-33.185,M,,0000*44
[11:17:47] $GNRMC,151747.680,A,4020.8229306,N,08007.7300626,W,000.0,000.0,260425,,,F,V*1C
[11:17:47] $GPGGA,151747.720,4020.8229305,N,08007.7300626,W,5,25,0.6,-105.029,M,-33.185,M,,0000*44
[11:17:47] $GNRMC,151747.720,A,4020.8229305,N,08007.7300626,W,000.0,000.0,260425,,,F,V*14
[11:17:47] $GPGGA,151747.760,4020.8229303,N,08007.7300625,W,5,25,0.6,-105.028,M,-33.185,M,,0000*44
[11:17:47] $GNRMC,151747.760,A,4020.8229303,N,08007.7300625,W,000.0,000.0,260425,,,F,V*15
[11:17:47] $GPGGA,151747.800,4020.8229302,N,08007.7300625,W,5,25,0.6,-105.027,M,-33.185,M,,0000*43
[11:17:47] $GNRMC,151747.800,A,4020.8229302,N,08007.7300625,W,000.0,000.0,260425,,,F,V*1D
[11:17:47] $GPGGA,151747.840,4020.8229301,N,08007.7300625,W,5,25,0.6,-105.026,M,-33.185,M,,0000*45
[11:17:47] $GNRMC,151747.840,A,4020.8229301,N,08007.7300625,W,000.0,000.0,260425,,,F,V*1A
[11:17:47] $GPGGA,151747.880,4020.8229300,N,08007.7300624,W,5,25,0.6,-105.025,M,-33.185,M,,0000*4A
[11:17:47] $GNRMC,151747.880,A,4020.8229300,N,08007.7300624,W,000.0,000.0,260425,,,F,V*16
[11:17:47] $GPGGA,151747.920,4020.8229299,N,08007.7300624,W,5,25,0.6,-105.024,M,-33.185,M,,0000*41
[11:17:47] $GNRMC,151747.920,A,4020.8229299,N,08007.7300624,W,000.0,000.0,260425,,,F,V*1C
[11:17:47] $GPGGA,151747.960,4020.8229297,N,08007.7300623,W,5,25,0.6,-105.023,M,-33.185,M,,0000*4B
[11:17:47] $GNRMC,151747.960,A,4020.8229297,N,08007.7300623,W,000.0,000.0,260425,,,F,V*11
[11:17:48] $GNRMC,151748.000,A,4020.8229321,N,08007.7300659,W,000.0,000.0,260425,,,F,V*10
[11:17:48] $GPGGA,151748.040,4020.8229319,N,08007.7300659,W,5,25,0.6,-105.057,M,-33.185,M,,0000*46
[11:17:48] $GNRMC,151748.040,A,4020.8229319,N,08007.7300659,W,000.1,000.0,260425,,,F,V*1E
[11:17:48] $GPGGA,151748.080,4020.8229318,N,08007.7300659,W,5,25,0.6,-105.056,M,-33.185,M,,0000*4A
[11:17:48] $GNRMC,151748.080,A,4020.8229318,N,08007.7300659,W,000.1,000.0,260425,,,F,V*13
[11:17:48] $GPGGA,151748.120,4020.8229316,N,08007.7300659,W,5,25,0.6,-105.055,M,-33.185,M,,0000*4C
[11:17:48] $GNRMC,151748.120,A,4020.8229316,N,08007.7300659,W,000.1,000.0,260425,,,F,V*16
[11:17:48] $GPGGA,151748.160,4020.8229314,N,08007.7300660,W,5,25,0.6,-105.054,M,-33.185,M,,0000*41
[11:17:48] $GNRMC,151748.160,A,4020.8229314,N,08007.7300660,W,000.1,000.0,260425,,,F,V*1A
[11:17:48] $GPGGA,151748.200,4020.8229312,N,08007.7300660,W,5,25,0.6,-105.053,M,-33.185,M,,0000*45
[11:17:48] $GNRMC,151748.200,A,4020.8229312,N,08007.7300660,W,000.1,000.0,260425,,,F,V*19
[11:17:48] $GPGGA,151748.240,4020.8229311,N,08007.7300660,W,5,25,0.6,-105.052,M,-33.185,M,,0000*43
[11:17:48] $GNRMC,151748.240,A,4020.8229311,N,08007.7300660,W,000.1,000.0,260425,,,F,V*1E
[11:17:48] $GPGGA,151748.280,4020.8229309,N,08007.7300660,W,5,25,0.6,-105.051,M,-33.185,M,,0000*45
[11:17:48] $GNRMC,151748.280,A,4020.8229309,N,08007.7300660,W,000.1,000.0,260425,,,F,V*1B
[11:17:48] $GPGGA,151748.320,4020.8229307,N,08007.7300660,W,5,25,0.6,-105.049,M,-33.185,M,,0000*49
[11:17:48] $GNRMC,151748.320,A,4020.8229307,N,08007.7300660,W,000.1,000.0,260425,,,F,V*1E
[11:17:48] $GPGGA,151748.360,4020.8229306,N,08007.7300660,W,5,25,0.6,-105.048,M,-33.185,M,,0000*4D
[11:17:48] $GNRMC,151748.360,A,4020.8229306,N,08007.7300660,W,000.1,000.0,260425,,,F,V*1B
[11:17:48] $GPGGA,151748.400,4020.8229304,N,08007.7300660,W,5,25,0.6,-105.047,M,-33.185,M,,0000*41
[11:17:48] $GNRMC,151748.400,A,4020.8229304,N,08007.7300660,W,000.1,000.0,260425,,,F,V*18
[11:17:48] $GPGGA,151748.440,4020.8229302,N,08007.7300660,W,5,25,0.6,-105.046,M,-33.185,M,,0000*42
[11:17:48] $GNRMC,151748.440,A,4020.8229302,N,08007.7300660,W,000.1,000.0,260425,,,F,V*1A
[11:17:48] $GPGGA,151748.480,4020.8229301,N,08007.7300660,W,5,25,0.6,-105.045,M,-33.185,M,,0000*4E
[11:17:48] $GNRMC,151748.480,A,4020.8229301,N,08007.7300660,W,000.1,000.0,260425,,,F,V*15
[11:17:48] $GPGGA,151748.520,4020.8229299,N,08007.7300660,W,5,25,0.6,-105.044,M,-33.185,M,,0000*44
[11:17:48] $GNRMC,151748.520,A,4020.8229299,N,08007.7300660,W,000.1,000.0,260425,,,F,V*1E
[11:17:48] $GPGGA,151748.560,4020.8229297,N,08007.7300660,W,5,25,0.6,-105.043,M,-33.185,M,,0000*49
[11:17:48] $GNRMC,151748.560,A,4020.8229297,N,08007.7300660,W,000.1,000.0,260425,,,F,V*14
[11:17:48] $GPGGA,151748.600,4020.8229296,N,08007.7300660,W,5,25,0.6,-105.042,M,-33.185,M,,0000*4C
[11:17:48] $GNRMC,151748.600,A,4020.8229296,N,08007.7300660,W,000.1,000.0,260425,,,F,V*10
[11:17:48] $GPGGA,151748.640,4020.8229294,N,08007.7300660,W,5,25,0.6,-105.040,M,-33.185,M,,0000*48
[11:17:48] $GNRMC,151748.640,A,4020.8229294,N,08007.7300660,W,000.1,000.0,260425,,,F,V*16
[11:17:48] $GPGGA,151748.680,4020.8229292,N,08007.7300660,W,5,25,0.6,-105.039,M,-33.185,M,,0000*4C
[11:17:48] $GNRMC,151748.680,A,4020.8229292,N,08007.7300660,W,000.1,000.0,260425,,,F,V*1C
[11:17:48] $GPGGA,151748.720,4020.8229290,N,08007.7300660,W,5,25,0.6,-105.038,M,-33.185,M,,0000*44
[11:17:48] $GNRMC,151748.720,A,4020.8229290,N,08007.7300660,W,000.1,000.0,260425,,,F,V*15
[11:17:48] $GPGGA,151748.760,4020.8229289,N,08007.7300660,W,5,25,0.6,-105.037,M,-33.185,M,,0000*47
[11:17:48] $GNRMC,151748.760,A,4020.8229289,N,08007.7300660,W,000.1,000.0,260425,,,F,V*19
[11:17:48] $GPGGA,151748.800,4020.8229287,N,08007.7300660,W,5,25,0.6,-105.036,M,-33.185,M,,0000*41
[11:17:48] $GNRMC,151748.800,A,4020.8229287,N,08007.7300660,W,000.1,000.0,260425,,,F,V*1E
[11:17:48] $GPGGA,151748.840,4020.8229285,N,08007.7300660,W,5,25,0.6,-105.035,M,-33.185,M,,0000*44
[11:17:48] $GNRMC,151748.840,A,4020.8229285,N,08007.7300660,W,000.1,000.0,260425,,,F,V*18
[11:17:48] $GPGGA,151748.880,4020.8229284,N,08007.7300660,W,5,25,0.6,-105.034,M,-33.185,M,,0000*48
[11:17:48] $GNRMC,151748.880,A,4020.8229284,N,08007.7300660,W,000.1,000.0,260425,,,F,V*15
[11:17:48] $GPGGA,151748.920,4020.8229282,N,08007.7300660,W,5,25,0.6,-105.033,M,-33.185,M,,0000*42
[11:17:48] $GNRMC,151748.920,A,4020.8229282,N,08007.7300660,W,000.1,000.0,260425,,,F,V*18
[11:17:48] $GPGGA,151748.960,4020.8229280,N,08007.7300660,W,5,25,0.6,-105.032,M,-33.185,M,,0000*45
[11:17:48] $GNRMC,151748.960,A,4020.8229280,N,08007.7300660,W,000.1,000.0,260425,,,F,V*1E
[11:17:49] $GNRMC,151749.000,A,4020.8229354,N,08007.7300700,W,000.0,000.0,260425,,,F,V*1E
[11:17:49] $GPGGA,151749.040,4020.8229353,N,08007.7300700,W,5,25,0.6,-105.069,M,-33.185,M,,0000*49
[11:17:49] $GNRMC,151749.040,A,4020.8229353,N,08007.7300700,W,000.1,000.0,260425,,,F,V*1C
[11:17:49] $GPGGA,151749.080,4020.8229351,N,08007.7300700,W,5,25,0.6,-105.068,M,-33.185,M,,0000*46
[11:17:49] $GNRMC,151749.080,A,4020.8229351,N,08007.7300700,W,000.1,000.0,260425,,,F,V*12
[11:17:49] $GPGGA,151749.120,4020.8229349,N,08007.7300700,W,5,25,0.6,-105.067,M,-33.185,M,,0000*4B
[11:17:49] $GNRMC,151749.120,A,4020.8229349,N,08007.7300700,W,000.1,000.0,260425,,,F,V*10
[11:17:49] $GPGGA,151749.160,4020.8229348,N,08007.7300700,W,5,25,0.6,-105.066,M,-33.185,M,,0000*4F
[11:17:49] $GNRMC,151749.160,A,4020.8229348,N,08007.7300700,W,000.1,000.0,260425,,,F,V*15
[11:17:49] $GPGGA,151749.200,4020.8229346,N,08007.7300701,W,5,25,0.6,-105.065,M,-33.185,M,,0000*46
[11:17:49] $GNRMC,151749.200,A,4020.8229346,N,08007.7300701,W,000.1,000.0,260425,,,F,V*1F
[11:17:49] $GPGGA,151749.240,4020.8229345,N,08007.7300701,W,5,25,0.6,-105.064,M,-33.185,M,,0000*40
[11:17:49] $GNRMC,151749.240,A,4020.8229345,N,08007.7300701,W,000.1,000.0,260425,,,F,V*18
[11:17:49] $GPGGA,151749.280,4020.8229343,N,08007.7300701,W,5,25,0.6,-105.063,M,-33.185,M,,0000*4D
[11:17:49] $GNRMC,151749.280,A,4020.8229343,N,08007.7300701,W,000.1,000.0,260425,,,F,V*12
[11:17:49] $GPGGA,151749.320,4020.8229341,N,08007.7300701,W,5,25,0.6,-105.062,M,-33.185,M,,0000*45
[11:17:49] $GNRMC,151749.320,A,4020.8229341,N,08007.7300701,W,000.1,000.0,260425,,,F,V*1B
[11:17:49] $GPGGA,151749.360,4020.8229340,N,08007.7300701,W,5,25,0.6,-105.061,M,-33.185,M,,0000*43
[11:17:49] $GNRMC,151749.360,A,4020.8229340,N,08007.7300701,W,000.1,000.0,260425,,,F,V*1E
[11:17:49] $GPGGA,151749.400,4020.8229338,N,08007.7300701,W,5,25,0.6,-105.060,M,-33.185,M,,0000*4C
[11:17:49] $GNRMC,151749.400,A,4020.8229338,N,08007.7300701,W,000.1,000.0,260425,,,F,V*10
[11:17:49] $GPGGA,151749.440,4020.8229336,N,08007.7300701,W,5,25,0.6,-105.059,M,-33.185,M,,0000*4C
[11:17:49] $GNRMC,151749.440,A,4020.8229336,N,08007.7300701,W,000.1,000.0,260425,,,F,V*1A
[11:17:49] $GPGGA,151749.480,4020.8229335,N,08007.7300701,W,5,25,0.6,-105.058,M,-33.185,M,,0000*42
[11:17:49] $GNRMC,151749.480,A,4020.8229335,N,08007.7300701,W,000.1,000.0,260425,,,F,V*15
[11:17:49] $GPGGA,151749.520,4020.8229333,N,08007.7300701,W,5,25,0.6,-105.057,M,-33.185,M,,0000*40
[11:17:49] $GNRMC,151749.520,A,4020.8229333,N,08007.7300701,W,000.1,000.0,260425,,,F,V*18
[11:17:49] $GPGGA,151749.560,4020.8229331,N,08007.7300702,W,5,25,0.6,-105.055,M,-33.185,M,,0000*47
[11:17:49] $GNRMC,151749.560,A,4020.8229331,N,08007.7300702,W,000.1,000.0,260425,,,F,V*1D
[11:17:49] $GPGGA,151749.600,4020.8229330,N,08007.7300702,W,5,25,0.6,-105.054,M,-33.185,M,,0000*42
[11:17:49] $GNRMC,151749.600,A,4020.8229330,N,08007.7300702,W,000.1,000.0,260425,,,F,V*19
[11:17:49] $GPGGA,151749.640,4020.8229328,N,08007.7300702,W,5,25,0.6,-105.053,M,-33.185,M,,0000*48
[11:17:49] $GNRMC,151749.640,A,4020.8229328,N,08007.7300702,W,000.1,000.0,260425,,,F,V*14
[11:17:49] $GPGGA,151749.680,4020.8229326,N,08007.7300702,W,5,25,0.6,-105.052,M,-33.185,M,,0000*4B
[11:17:49] $GNRMC,151749.680,A,4020.8229326,N,08007.7300702,W,000.1,000.0,260425,,,F,V*16
[11:17:49] $GPGGA,151749.720,4020.8229325,N,08007.7300702,W,5,25,0.6,-105.051,M,-33.185,M,,0000*40
[11:17:49] $GNRMC,151749.720,A,4020.8229325,N,08007.7300702,W,000.1,000.0,260425,,,F,V*1E
[11:17:49] $GPGGA,151749.760,4020.8229323,N,08007.7300702,W,5,25,0.6,-105.050,M,-33.185,M,,0000*43
[11:17:49] $GNRMC,151749.760,A,4020.8229323,N,08007.7300702,W,000.1,000.0,260425,,,F,V*1C
[11:17:49] $GPGGA,151749.800,4020.8229321,N,08007.7300702,W,5,25,0.6,-105.049,M,-33.185,M,,0000*40
[11:17:49] $GNRMC,151749.800,A,4020.8229321,N,08007.7300702,W,000.1,000.0,260425,,,F,V*17
[11:17:49] $GPGGA,151749.840,4020.8229320,N,08007.7300702,W,5,25,0.6,-105.048,M,-33.185,M,,0000*44
[11:17:49] $GNRMC,151749.840,A,4020.8229320,N,08007.7300702,W,000.1,000.0,260425,,,F,V*12
[11:17:49] $GPGGA,151749.880,4020.8229318,N,08007.7300702,W,5,25,0.6,-105.047,M,-33.185,M,,0000*4C
[11:17:49] $GNRMC,151749.880,A,4020.8229318,N,08007.7300702,W,000.1,000.0,260425,,,F,V*15
[11:17:49] $GPGGA,151749.920,4020.8229316,N,08007.7300703,W,5,25,0.6,-105.046,M,-33.185,M,,0000*49
[11:17:49] $GNRMC,151749.920,A,4020.8229316,N,08007.7300703,W,000.1,000.0,260425,,,F,V*11
[11:17:49] $GPGGA,151749.960,4020.8229315,N,08007.7300703,W,5,25,0.6,-105.045,M,-33.185,M,,0000*4D
[11:17:49] $GNRMC,151749.960,A,4020.8229315,N,08007.7300703,W,000.1,000.0,260425,,,F,V*16
[11:17:50] $GPGGA,151750.000,4020.8229334,N,08007.7300656,W,5,25,0.6,-105.143,M,-33.100,M,1.000,0000*6D
[11:17:50] $GNRMC,151750.000,A,4020.8229334,N,08007.7300656,W,000.0,000.0,260425,,,F,V*12
[11:17:50] $GPGGA,151750.040,4020.8229332,N,08007.7300656,W,5,25,0.6,-105.057,M,-33.185,M,,0000*49
[11:17:50] $GNRMC,151750.040,A,4020.8229332,N,08007.7300656,W,000.0,000.0,260425,,,F,V*10
[11:17:50] $GPGGA,151750.080,4020.8229331,N,08007.7300656,W,5,25,0.6,-105.056,M,-33.185,M,,0000*47
[11:17:50] $GNRMC,151750.080,A,4020.8229331,N,08007.7300656,W,000.0,000.0,260425,,,F,V*1F
[11:17:50] $GPGGA,151750.120,4020.8229329,N,08007.7300656,W,5,25,0.6,-105.055,M,-33.185,M,,0000*46
[11:17:50] $GNRMC,151750.120,A,4020.8229329,N,08007.7300656,W,000.0,000.0,260425,,,F,V*1D
[11:17:50] $GPGGA,151750.160,4020.8229328,N,08007.7300656,W,5,25,0.6,-105.054,M,-33.185,M,,0000*42
[11:17:50] $GNRMC,151750.160,A,4020.8229328,N,08007.7300656,W,000.0,000.0,260425,,,F,V*18
[11:17:50] $GPGGA,151750.200,4020.8229326,N,08007.7300656,W,5,25,0.6,-105.053,M,-33.185,M,,0000*4E
[11:17:50] $GNRMC,151750.200,A,4020.8229326,N,08007.7300656,W,000.0,000.0,260425,,,F,V*13
[11:17:50] $GPGGA,151750.240,4020.8229324,N,08007.7300656,W,5,25,0.6,-105.052,M,-33.185,M,,0000*49
[11:17:50] $GNRMC,151750.240,A,4020.8229324,N,08007.7300656,W,000.0,000.0,260425,,,F,V*15
[11:17:50] $GPGGA,151750.280,4020.8229323,N,08007.7300656,W,5,25,0.6,-105.051,M,-33.185,M,,0000*41
[11:17:50] $GNRMC,151750.280,A,4020.8229323,N,08007.7300656,W,000.0,000.0,260425,,,F,V*1E
[11:17:50] $GPGGA,151750.320,4020.8229321,N,08007.7300657,W,5,25,0.6,-105.050,M,-33.185,M,,0000*48
[11:17:50] $GNRMC,151750.320,A,4020.8229321,N,08007.7300657,W,000.0,000.0,260425,,,F,V*16
[11:17:50] $GPGGA,151750.360,4020.8229319,N,08007.7300657,W,5,25,0.6,-105.049,M,-33.185,M,,0000*4F
[11:17:50] $GNRMC,151750.360,A,4020.8229319,N,08007.7300657,W,000.0,000.0,260425,,,F,V*19
[11:17:50] $GPGGA,151750.400,4020.8229318,N,08007.7300657,W,5,25,0.6,-105.049,M,-33.185,M,,0000*4F
[11:17:50] $GNRMC,151750.400,A,4020.8229318,N,08007.7300657,W,000.0,000.0,260425,,,F,V*19
[11:17:50] $GPGGA,151750.440,4020.8229316,N,08007.7300657,W,5,25,0.6,-105.048,M,-33.185,M,,0000*44
[11:17:50] $GNRMC,151750.440,A,4020.8229316,N,08007.7300657,W,000.0,000.0,260425,,,F,V*13
[11:17:50] $GPGGA,151750.480,4020.8229315,N,08007.7300657,W,5,25,0.6,-105.047,M,-33.185,M,,0000*44
[11:17:50] $GNRMC,151750.480,A,4020.8229315,N,08007.7300657,W,000.0,000.0,260425,,,F,V*1C
[11:17:50] $GPGGA,151750.520,4020.8229313,N,08007.7300657,W,5,25,0.6,-105.046,M,-33.185,M,,0000*48
[11:17:50] $GNRMC,151750.520,A,4020.8229313,N,08007.7300657,W,000.0,000.0,260425,,,F,V*11
[11:17:50] $GPGGA,151750.560,4020.8229311,N,08007.7300657,W,5,25,0.6,-105.045,M,-33.185,M,,0000*4D
[11:17:50] $GNRMC,151750.560,A,4020.8229311,N,08007.7300657,W,000.0,000.0,260425,,,F,V*17
[11:17:50] $GPGGA,151750.600,4020.8229310,N,08007.7300657,W,5,25,0.6,-105.044,M,-33.185,M,,0000*48
[11:17:50] $GNRMC,151750.600,A,4020.8229310,N,08007.7300657,W,000.0,000.0,260425,,,F,V*13
[11:17:50] $GPGGA,151750.640,4020.8229308,N,08007.7300658,W,5,25,0.6,-105.043,M,-33.185,M,,0000*4D
[11:17:50] $GNRMC,151750.640,A,4020.8229308,N,08007.7300658,W,000.0,000.0,260425,,,F,V*11
[11:17:50] $GPGGA,151750.680,4020.8229307,N,08007.7300658,W,5,25,0.6,-105.042,M,-33.185,M,,0000*4F
[11:17:50] $GNRMC,151750.680,A,4020.8229307,N,08007.7300658,W,000.0,000.0,260425,,,F,V*12
[11:17:50] $GPGGA,151750.720,4020.8229305,N,08007.7300658,W,5,25,0.6,-105.041,M,-33.185,M,,0000*45
[11:17:50] $GNRMC,151750.720,A,4020.8229305,N,08007.7300658,W,000.0,000.0,260425,,,F,V*1B
[11:17:50] $GPGGA,151750.760,4020.8229303,N,08007.7300658,W,5,25,0.6,-105.040,M,-33.185,M,,0000*46
[11:17:50] $GNRMC,151750.760,A,4020.8229303,N,08007.7300658,W,000.0,000.0,260425,,,F,V*19
[11:17:50] $GPGGA,151750.800,4020.8229302,N,08007.7300658,W,5,25,0.6,-105.039,M,-33.185,M,,0000*40
[11:17:50] $GNRMC,151750.800,A,4020.8229302,N,08007.7300658,W,000.0,000.0,260425,,,F,V*11
[11:17:50] $GPGGA,151750.840,4020.8229300,N,08007.7300658,W,5,25,0.6,-105.038,M,-33.185,M,,0000*47
[11:17:50] $GNRMC,151750.840,A,4020.8229300,N,08007.7300658,W,000.0,000.0,260425,,,F,V*17
[11:17:50] $GPGGA,151750.880,4020.8229299,N,08007.7300658,W,5,25,0.6,-105.037,M,-33.185,M,,0000*45
[11:17:50] $GNRMC,151750.880,A,4020.8229299,N,08007.7300658,W,000.0,000.0,260425,,,F,V*1A
[11:17:50] $GPGGA,151750.920,4020.8229297,N,08007.7300658,W,5,25,0.6,-105.036,M,-33.185,M,,0000*41
[11:17:50] $GNRMC,151750.920,A,4020.8229297,N,08007.7300658,W,000.0,000.0,260425,,,F,V*1F
[11:17:50] $GPGGA,151750.960,4020.8229295,N,08007.7300659,W,5,25,0.6,-105.035,M,-33.185,M,,0000*45
[11:17:50] $GNRMC,151750.960,A,4020.8229295,N,08007.7300659,W,000.0,000.0,260425,,,F,V*18
[11:17:51] $GNRMC,151751.000,A,4020.8229345,N,08007.7300650,W,000.0,000.0,260425,,,F,V*13
[11:17:51] $GPGGA,151751.040,4020.8229343,N,08007.7300649,W,5,25,0.6,-105.063,M,-33.185,M,,0000*47
[11:17:51] $GNRMC,151751.040,A,4020.8229343,N,08007.7300649,W,000.1,000.0,260425,,,F,V*18
[11:17:51] $GPGGA,151751.080,4020.8229341,N,08007.7300648,W,5,25,0.6,-105.062,M,-33.185,M,,0000*49
[11:17:51] $GNRMC,151751.080,A,4020.8229341,N,08007.7300648,W,000.1,000.0,260425,,,F,V*17
[11:17:51] $GPGGA,151751.120,4020.8229340,N,08007.7300648,W,5,25,0.6,-105.061,M,-33.185,M,,0000*40
[11:17:51] $GNRMC,151751.120,A,4020.8229340,N,08007.7300648,W,000.1,000.0,260425,,,F,V*1D
[11:17:51] $GPGGA,151751.160,4020.8229338,N,08007.7300647,W,5,25,0.6,-105.059,M,-33.185,M,,0000*4F
[11:17:51] $GNRMC,151751.160,A,4020.8229338,N,08007.7300647,W,000.1,000.0,260425,,,F,V*19
[11:17:51] $GPGGA,151751.200,4020.8229336,N,08007.7300646,W,5,25,0.6,-105.058,M,-33.185,M,,0000*44
[11:17:51] $GNRMC,151751.200,A,4020.8229336,N,08007.7300646,W,000.1,000.0,260425,,,F,V*13
[11:17:51] $GPGGA,151751.240,4020.8229334,N,08007.7300645,W,5,25,0.6,-105.057,M,-33.185,M,,0000*4E
[11:17:51] $GNRMC,151751.240,A,4020.8229334,N,08007.7300645,W,000.1,000.0,260425,,,F,V*16
[11:17:51] $GPGGA,151751.280,4020.8229333,N,08007.7300645,W,5,25,0.6,-105.056,M,-33.185,M,,0000*44
[11:17:51] $GNRMC,151751.280,A,4020.8229333,N,08007.7300645,W,000.1,000.0,260425,,,F,V*1D
[11:17:51] $GPGGA,151751.320,4020.8229331,N,08007.7300644,W,5,25,0.6,-105.055,M,-33.185,M,,0000*4F
[11:17:51] $GNRMC,151751.320,A,4020.8229331,N,08007.7300644,W,000.1,000.0,260425,,,F,V*15
[11:17:51] $GPGGA,151751.360,4020.8229329,N,08007.7300643,W,5,25,0.6,-105.054,M,-33.185,M,,0000*44
[11:17:51] $GNRMC,151751.360,A,4020.8229329,N,08007.7300643,W,000.1,000.0,260425,,,F,V*1F
[11:17:51] $GPGGA,151751.400,4020.8229328,N,08007.7300643,W,5,25,0.6,-105.052,M,-33.185,M,,0000*42
[11:17:51] $GNRMC,151751.400,A,4020.8229328,N,08007.7300643,W,000.1,000.0,260425,,,F,V*1F
[11:17:51] $GPGGA,151751.440,4020.8229326,N,08007.7300642,W,5,25,0.6,-105.051,M,-33.185,M,,0000*4A
[11:17:51] $GNRMC,151751.440,A,4020.8229326,N,08007.7300642,W,000.1,000.0,260425,,,F,V*14
[11:17:51] $GPGGA,151751.480,4020.8229324,N,08007.7300641,W,5,25,0.6,-105.050,M,-33.185,M,,0000*46
[11:17:51] $GNRMC,151751.480,A,4020.8229324,N,08007.7300641,W,000.1,000.0,260425,,,F,V*19
[11:17:51] $GPGGA,151751.520,4020.8229322,N,08007.7300640,W,5,25,0.6,-105.049,M,-33.185,M,,0000*42
[11:17:51] $GNRMC,151751.520,A,4020.8229322,N,08007.7300640,W,000.1,000.0,260425,,,F,V*15
[11:17:51] $GPGGA,151751.560,4020.8229321,N,08007.7300640,W,5,25,0.6,-105.048,M,-33.185,M,,0000*44
[11:17:51] $GNRMC,151751.560,A,4020.8229321,N,08007.7300640,W,000.1,000.0,260425,,,F,V*12
[11:17:51] $GPGGA,151751.600,4020.8229319,N,08007.7300639,W,5,25,0.6,-105.046,M,-33.185,M,,0000*4A
[11:17:51] $GNRMC,151751.600,A,4020.8229319,N,08007.7300639,W,000.1,000.0,260425,,,F,V*12
[11:17:51] $GPGGA,151751.640,4020.8229317,N,08007.7300638,W,5,25,0.6,-105.045,M,-33.185,M,,0000*42
[11:17:51] $GNRMC,151751.640,A,4020.8229317,N,08007.7300638,W,000.1,000.0,260425,,,F,V*19
[11:17:51] $GPGGA,151751.680,4020.8229315,N,08007.7300637,W,5,25,0.6,-105.044,M,-33.185,M,,0000*42
[11:17:51] $GNRMC,151751.680,A,4020.8229315,N,08007.7300637,W,000.1,000.0,260425,,,F,V*18
[11:17:51] $GPGGA,151751.720,4020.8229314,N,08007.7300637,W,5,25,0.6,-105.043,M,-33.185,M,,0000*4F
[11:17:51] $GNRMC,151751.720,A,4020.8229314,N,08007.7300637,W,000.1,000.0,260425,,,F,V*12
[11:17:51] $GPGGA,151751.760,4020.8229312,N,08007.7300636,W,5,25,0.6,-105.042,M,-33.185,M,,0000*4D
[11:17:51] $GNRMC,151751.760,A,4020.8229312,N,08007.7300636,W,000.1,000.0,260425,,,F,V*11
[11:17:51] $GPGGA,151751.800,4020.8229310,N,08007.7300635,W,5,25,0.6,-105.041,M,-33.185,M,,0000*46
[11:17:51] $GNRMC,151751.800,A,4020.8229310,N,08007.7300635,W,000.1,000.0,260425,,,F,V*19
[11:17:51] $GPGGA,151751.840,4020.8229308,N,08007.7300634,W,5,25,0.6,-105.039,M,-33.185,M,,0000*45
[11:17:51] $GNRMC,151751.840,A,4020.8229308,N,08007.7300634,W,000.1,000.0,260425,,,F,V*15
[11:17:51] $GPGGA,151751.880,4020.8229307,N,08007.7300634,W,5,25,0.6,-105.038,M,-33.185,M,,0000*47
