[13:12:31] $GNRMC,171231.000,A,4020.7226827,N,08007.7262499,W,000.0,000.0,260425,,,A,V*18
[13:12:31] $GPGGA,101518.240,4020.7226827,N,08007.7262499,W,1,27,0.5,327.574,M,-33.184,M,,0000*64
[13:12:31] $GNRMC,101518.240,A,4020.7226827,N,08007.7262499,W,000.0,000.0,150625,,,A,V*17
[13:12:31] $GPGGA,171231.040,4020.7226827,N,08007.7262503,W,1,27,0.5,327.574,M,-33.184,M,,0000*6F
[13:12:31] $GNRMC,171231.040,A,4020.7226827,N,08007.7262503,W,000.0,000.0,260425,,,A,V*1E
[13:12:31] $GPGGA,171231.080,4020.7226827,N,08007.7262508,W,1,27,0.5,327.574,M,-33.184,M,,0000*68
[13:12:31] $GNRMC,171231.080,A,4020.7226827,N,08007.7262508,W,000.0,000.0,260425,,,A,V*19
[13:12:31] $GPGGA,171231.120,4020.7226826,N,08007.7262512,W,1,27,0.5,327.574,M,-33.184,M,,0000*69
[13:12:31] $GNRMC,171231.120,A,4020.7226826,N,08007.7262512,W,000.0,000.0,260425,,,A,V*18
[13:12:31] $GPGGA,171231.160,4020.7226826,N,08007.7262516,W,1,27,0.5,327.574,M,-33.184,M,,0000*69
[13:12:31] $GNRMC,171231.160,A,4020.7226826,N,08007.7262516,W,000.0,000.0,260425,,,A,V*18
[13:12:31] $GPGGA,171231.200,4020.7226826,N,08007.7262521,W,1,27,0.5,327.574,M,-33.184,M,,0000*68
[13:12:31] $GNRMC,171231.200,A,4020.7226826,N,08007.7262521,W,000.0,000.0,260425,,,A,V*19
[13:12:31] $GPGGA,171231.240,4020.7226826,N,08007.7262525,W,1,27,0.5,327.574,M,-33.184,M,,0000*68
[13:12:31] $GNRMC,171231.240,A,4020.7226826,N,08007.7262525,W,000.0,000.0,260425,,,A,V*19
[13:12:31] $GPGGA,171231.280,4020.7226826,N,08007.7262529,W,1,27,0.5,327.574,M,-33.184,M,,0000*68
[13:12:31] $GNRMC,171231.280,A,4020.7226826,N,08007.7262529,W,000.0,000.0,260425,,,A,V*19
[13:12:31] $GPGGA,171231.320,4020.7226825,N,08007.7262534,W,1,27,0.5,327.574,M,-33.184,M,,0000*6C
[13:12:31] $GNRMC,171231.320,A,4020.7226825,N,08007.7262534,W,000.0,000.0,260425,,,A,V*1D
[13:12:31] $GPGGA,171231.360,4020.7226825,N,08007.7262538,W,1,27,0.5,327.574,M,-33.184,M,,0000*64
[13:12:31] $GNRMC,171231.360,A,4020.7226825,N,08007.7262538,W,000.0,000.0,260425,,,A,V*15
[13:12:31] $GPGGA,171231.400,4020.7226825,N,08007.7262542,W,1,27,0.5,327.573,M,-33.184,M,,0000*6F
[13:12:31] $GNRMC,171231.400,A,4020.7226825,N,08007.7262542,W,000.0,000.0,260425,,,A,V*19
[13:12:31] $GPGGA,171231.440,4020.7226825,N,08007.7262547,W,1,27,0.5,327.573,M,-33.184,M,,0000*6E
[13:12:31] $GNRMC,171231.440,A,4020.7226825,N,08007.7262547,W,000.0,000.0,260425,,,A,V*18
[13:12:31] $GPGGA,171231.480,4020.7226825,N,08007.7262551,W,1,27,0.5,327.573,M,-33.184,M,,0000*65
[13:12:31] $GNRMC,171231.480,A,4020.7226825,N,08007.7262551,W,000.0,000.0,260425,,,A,V*13
[13:12:31] $GPGGA,171231.520,4020.7226824,N,08007.7262555,W,1,27,0.5,327.573,M,-33.184,M,,0000*6B
[13:12:31] $GNRMC,171231.520,A,4020.7226824,N,08007.7262555,W,000.0,000.0,260425,,,A,V*1D
[13:12:31] $GPGGA,171231.560,4020.7226824,N,08007.7262560,W,1,27,0.5,327.573,M,-33.184,M,,0000*69
[13:12:31] $GNRMC,171231.560,A,4020.7226824,N,08007.7262560,W,000.0,000.0,260425,,,A,V*1F
[13:12:31] $GPGGA,171231.600,4020.7226824,N,08007.7262564,W,1,27,0.5,327.573,M,-33.184,M,,0000*68
[13:12:31] $GNRMC,171231.600,A,4020.7226824,N,08007.7262564,W,000.0,000.0,260425,,,A,V*1E
[13:12:31] $GPGGA,171231.640,4020.7226824,N,08007.7262568,W,1,27,0.5,327.573,M,-33.184,M,,0000*60
[13:12:31] $GNRMC,171231.640,A,4020.7226824,N,08007.7262568,W,000.0,000.0,260425,,,A,V*16
[13:12:31] $GPGGA,171231.680,4020.7226824,N,08007.7262573,W,1,27,0.5,327.573,M,-33.184,M,,0000*66
[13:12:31] $GNRMC,171231.680,A,4020.7226824,N,08007.7262573,W,000.0,000.0,260425,,,A,V*10
[13:12:31] $GPGGA,171231.720,4020.7226823,N,08007.7262577,W,1,27,0.5,327.573,M,-33.184,M,,0000*6E
[13:12:31] $GNRMC,171231.720,A,4020.7226823,N,08007.7262577,W,000.0,000.0,260425,,,A,V*18
[13:12:31] $GPGGA,171231.760,4020.7226823,N,08007.7262581,W,1,27,0.5,327.573,M,-33.184,M,,0000*63
[13:12:31] $GNRMC,171231.760,A,4020.7226823,N,08007.7262581,W,000.0,000.0,260425,,,A,V*15
[13:12:31] $GPGGA,171231.800,4020.7226823,N,08007.7262585,W,1,27,0.5,327.573,M,-33.184,M,,0000*6E
[13:12:31] $GNRMC,171231.800,A,4020.7226823,N,08007.7262585,W,000.0,000.0,260425,,,A,V*18
[13:12:31] $GPGGA,171231.840,4020.7226823,N,08007.7262590,W,1,27,0.5,327.573,M,-33.184,M,,0000*6E
[13:12:31] $GNRMC,171231.840,A,4020.7226823,N,08007.7262590,W,000.0,000.0,260425,,,A,V*18
[13:12:31] $GPGGA,171231.880,4020.7226823,N,08007.7262594,W,1,27,0.5,327.573,M,-33.184,M,,0000*66
[13:12:31] $GNRMC,171231.880,A,4020.7226823,N,08007.7262594,W,000.0,000.0,260425,,,A,V*10
[13:12:31] $GPGGA,171231.920,4020.7226822,N,08007.7262598,W,1,27,0.5,327.573,M,-33.184,M,,0000*60
[13:12:31] $GNRMC,171231.920,A,4020.7226822,N,08007.7262598,W,000.0,000.0,260425,,,A,V*16
[13:12:32] $GNRMC,171232.000,A,4020.7226826,N,08007.7262516,W,000.0,000.0,260425,,,A,V*1C
[13:12:32] $GPGGA,101519.240,4020.7226826,N,08007.7262516,W,1,27,0.5,327.578,M,-33.184,M,,0000*6E
[13:12:32] $GNRMC,101519.240,A,4020.7226826,N,08007.7262516,W,000.0,000.0,150625,,,A,V*11
[13:12:32] $GPGGA,171232.040,4020.7226826,N,08007.7262518,W,1,27,0.5,327.578,M,-33.184,M,,0000*6B
[13:12:32] $GNRMC,171232.040,A,4020.7226826,N,08007.7262518,W,000.0,000.0,260425,,,A,V*16
[13:12:32] $GPGGA,171232.080,4020.7226825,N,08007.7262520,W,1,27,0.5,327.579,M,-33.184,M,,0000*6E
[13:12:32] $GNRMC,171232.080,A,4020.7226825,N,08007.7262520,W,000.0,000.0,260425,,,A,V*12
[13:12:32] $GPGGA,171232.120,4020.7226825,N,08007.7262523,W,1,27,0.5,327.579,M,-33.184,M,,0000*66
[13:12:32] $GNRMC,171232.120,A,4020.7226825,N,08007.7262523,W,000.0,000.0,260425,,,A,V*1A
[13:12:32] $GPGGA,171232.160,4020.7226825,N,08007.7262525,W,1,27,0.5,327.579,M,-33.184,M,,0000*64
[13:12:32] $GNRMC,171232.160,A,4020.7226825,N,08007.7262525,W,000.0,000.0,260425,,,A,V*18
[13:12:32] $GPGGA,171232.200,4020.7226824,N,08007.7262527,W,1,27,0.5,327.580,M,-33.184,M,,0000*64
[13:12:32] $GNRMC,171232.200,A,4020.7226824,N,08007.7262527,W,000.0,000.0,260425,,,A,V*1E
[13:12:32] $GPGGA,171232.240,4020.7226824,N,08007.7262530,W,1,27,0.5,327.580,M,-33.184,M,,0000*66
[13:12:32] $GNRMC,171232.240,A,4020.7226824,N,08007.7262530,W,000.0,000.0,260425,,,A,V*1C
[13:12:32] $GPGGA,171232.280,4020.7226824,N,08007.7262532,W,1,27,0.5,327.580,M,-33.184,M,,0000*68
[13:12:32] $GNRMC,171232.280,A,4020.7226824,N,08007.7262532,W,000.0,000.0,260425,,,A,V*12
[13:12:32] $GPGGA,171232.320,4020.7226823,N,08007.7262534,W,1,27,0.5,327.580,M,-33.184,M,,0000*62
[13:12:32] $GNRMC,171232.320,A,4020.7226823,N,08007.7262534,W,000.0,000.0,260425,,,A,V*18
[13:12:32] $GPGGA,171232.360,4020.7226823,N,08007.7262537,W,1,27,0.5,327.581,M,-33.184,M,,0000*64
[13:12:32] $GNRMC,171232.360,A,4020.7226823,N,08007.7262537,W,000.0,000.0,260425,,,A,V*1F
[13:12:32] $GPGGA,171232.400,4020.7226823,N,08007.7262539,W,1,27,0.5,327.581,M,-33.184,M,,0000*6B
[13:12:32] $GNRMC,171232.400,A,4020.7226823,N,08007.7262539,W,000.0,000.0,260425,,,A,V*10
[13:12:32] $GPGGA,171232.440,4020.7226822,N,08007.7262541,W,1,27,0.5,327.581,M,-33.184,M,,0000*61
[13:12:32] $GNRMC,171232.440,A,4020.7226822,N,08007.7262541,W,000.0,000.0,260425,,,A,V*1A
[13:12:32] $GPGGA,171232.480,4020.7226822,N,08007.7262544,W,1,27,0.5,327.582,M,-33.184,M,,0000*6B
[13:12:32] $GNRMC,171232.480,A,4020.7226822,N,08007.7262544,W,000.0,000.0,260425,,,A,V*13
[13:12:32] $GPGGA,171232.520,4020.7226822,N,08007.7262546,W,1,27,0.5,327.582,M,-33.184,M,,0000*62
[13:12:32] $GNRMC,171232.520,A,4020.7226822,N,08007.7262546,W,000.0,000.0,260425,,,A,V*1A
[13:12:32] $GPGGA,171232.560,4020.7226822,N,08007.7262548,W,1,27,0.5,327.582,M,-33.184,M,,0000*68
[13:12:32] $GNRMC,171232.560,A,4020.7226822,N,08007.7262548,W,000.0,000.0,260425,,,A,V*10
[13:12:32] $GPGGA,171232.600,4020.7226821,N,08007.7262550,W,1,27,0.5,327.582,M,-33.184,M,,0000*67
[13:12:32] $GNRMC,171232.600,A,4020.7226821,N,08007.7262550,W,000.0,000.0,260425,,,A,V*1F
[13:12:32] $GPGGA,171232.640,4020.7226821,N,08007.7262553,W,1,27,0.5,327.583,M,-33.184,M,,0000*61
[13:12:32] $GNRMC,171232.640,A,4020.7226821,N,08007.7262553,W,000.0,000.0,260425,,,A,V*18
[13:12:32] $GPGGA,171232.680,4020.7226821,N,08007.7262555,W,1,27,0.5,327.583,M,-33.184,M,,0000*6B
[13:12:32] $GNRMC,171232.680,A,4020.7226821,N,08007.7262555,W,000.0,000.0,260425,,,A,V*12
[13:12:32] $GPGGA,171232.720,4020.7226820,N,08007.7262557,W,1,27,0.5,327.583,M,-33.184,M,,0000*63
[13:12:32] $GNRMC,171232.720,A,4020.7226820,N,08007.7262557,W,000.0,000.0,260425,,,A,V*1A
[13:12:32] $GPGGA,171232.760,4020.7226820,N,08007.7262560,W,1,27,0.5,327.584,M,-33.184,M,,0000*64
[13:12:32] $GNRMC,171232.760,A,4020.7226820,N,08007.7262560,W,000.0,000.0,260425,,,A,V*1A
[13:12:32] $GPGGA,171232.800,4020.7226820,N,08007.7262562,W,1,27,0.5,327.584,M,-33.184,M,,0000*6F
[13:12:32] $GNRMC,171232.800,A,4020.7226820,N,08007.7262562,W,000.0,000.0,260425,,,A,V*11
[13:12:32] $GPGGA,171232.840,4020.7226819,N,08007.7262564,W,1,27,0.5,327.584,M,-33.184,M,,0000*67
[13:12:32] $GNRMC,171232.840,A,4020.7226819,N,08007.7262564,W,000.0,000.0,260425,,,A,V*19
[13:12:32] $GPGGA,171232.880,4020.7226819,N,08007.7262567,W,1,27,0.5,327.585,M,-33.184,M,,0000*69
[13:12:32] $GNRMC,171232.880,A,4020.7226819,N,08007.7262567,W,000.0,000.0,260425,,,A,V*16
[13:12:32] $GPGGA,171232.920,4020.7226819,N,08007.7262569,W,1,27,0.5,327.585,M,-33.184,M,,0000*6C
[13:12:32] $GNRMC,171232.920,A,4020.7226819,N,08007.7262569,W,000.0,000.0,260425,,,A,V*13
[13:12:33] $GNRMC,171233.000,A,4020.7226831,N,08007.7262534,W,000.0,000.0,260425,,,A,V*1B
[13:12:33] $GPGGA,101520.240,4020.7226831,N,08007.7262534,W,1,27,0.5,327.580,M,-33.184,M,,0000*65
[13:12:33] $GNRMC,101520.240,A,4020.7226831,N,08007.7262534,W,000.0,000.0,150625,,,A,V*1D
[13:12:33] $GPGGA,171233.040,4020.7226830,N,08007.7262536,W,1,27,0.5,327.580,M,-33.184,M,,0000*66
[13:12:33] $GNRMC,171233.040,A,4020.7226830,N,08007.7262536,W,000.0,000.0,260425,,,A,V*1C
[13:12:33] $GPGGA,171233.080,4020.7226829,N,08007.7262538,W,1,27,0.5,327.580,M,-33.184,M,,0000*6C
[13:12:33] $GNRMC,171233.080,A,4020.7226829,N,08007.7262538,W,000.0,000.0,260425,,,A,V*16
[13:12:33] $GPGGA,171233.120,4020.7226828,N,08007.7262540,W,1,27,0.5,327.581,M,-33.184,M,,0000*68
[13:12:33] $GNRMC,171233.120,A,4020.7226828,N,08007.7262540,W,000.0,000.0,260425,,,A,V*13
[13:12:33] $GPGGA,171233.160,4020.7226827,N,08007.7262543,W,1,27,0.5,327.581,M,-33.184,M,,0000*60
[13:12:33] $GNRMC,171233.160,A,4020.7226827,N,08007.7262543,W,000.0,000.0,260425,,,A,V*1B
[13:12:33] $GPGGA,171233.200,4020.7226826,N,08007.7262545,W,1,27,0.5,327.582,M,-33.184,M,,0000*61
[13:12:33] $GNRMC,171233.200,A,4020.7226826,N,08007.7262545,W,000.0,000.0,260425,,,A,V*19
[13:12:33] $GPGGA,171233.240,4020.7226825,N,08007.7262547,W,1,27,0.5,327.582,M,-33.184,M,,0000*64
[13:12:33] $GNRMC,171233.240,A,4020.7226825,N,08007.7262547,W,000.0,000.0,260425,,,A,V*1C
[13:12:33] $GPGGA,171233.280,4020.7226824,N,08007.7262549,W,1,27,0.5,327.583,M,-33.184,M,,0000*66
[13:12:33] $GNRMC,171233.280,A,4020.7226824,N,08007.7262549,W,000.0,000.0,260425,,,A,V*1F
[13:12:33] $GPGGA,171233.320,4020.7226823,N,08007.7262551,W,1,27,0.5,327.583,M,-33.184,M,,0000*63
[13:12:33] $GNRMC,171233.320,A,4020.7226823,N,08007.7262551,W,000.0,000.0,260425,,,A,V*1A
[13:12:33] $GPGGA,171233.360,4020.7226822,N,08007.7262553,W,1,27,0.5,327.583,M,-33.184,M,,0000*64
[13:12:33] $GNRMC,171233.360,A,4020.7226822,N,08007.7262553,W,000.0,000.0,260425,,,A,V*1D
[13:12:33] $GPGGA,171233.400,4020.7226821,N,08007.7262555,W,1,27,0.5,327.584,M,-33.184,M,,0000*67
[13:12:33] $GNRMC,171233.400,A,4020.7226821,N,08007.7262555,W,000.0,000.0,260425,,,A,V*19
[13:12:33] $GPGGA,171233.440,4020.7226820,N,08007.7262557,W,1,27,0.5,327.584,M,-33.184,M,,0000*60
[13:12:33] $GNRMC,171233.440,A,4020.7226820,N,08007.7262557,W,000.0,000.0,260425,,,A,V*1E
[13:12:33] $GPGGA,171233.480,4020.7226819,N,08007.7262559,W,1,27,0.5,327.585,M,-33.184,M,,0000*69
[13:12:33] $GNRMC,171233.480,A,4020.7226819,N,08007.7262559,W,000.0,000.0,260425,,,A,V*16
[13:12:33] $GPGGA,171233.520,4020.7226817,N,08007.7262561,W,1,27,0.5,327.585,M,-33.184,M,,0000*67
[13:12:33] $GNRMC,171233.520,A,4020.7226817,N,08007.7262561,W,000.0,000.0,260425,,,A,V*18
[13:12:33] $GPGGA,171233.560,4020.7226816,N,08007.7262563,W,1,27,0.5,327.586,M,-33.184,M,,0000*63
[13:12:33] $GNRMC,171233.560,A,4020.7226816,N,08007.7262563,W,000.0,000.0,260425,,,A,V*1F
[13:12:33] $GPGGA,171233.600,4020.7226815,N,08007.7262565,W,1,27,0.5,327.586,M,-33.184,M,,0000*63
[13:12:33] $GNRMC,171233.600,A,4020.7226815,N,08007.7262565,W,000.0,000.0,260425,,,A,V*1F
[13:12:33] $GPGGA,171233.640,4020.7226814,N,08007.7262567,W,1,27,0.5,327.586,M,-33.184,M,,0000*64
[13:12:33] $GNRMC,171233.640,A,4020.7226814,N,08007.7262567,W,000.0,000.0,260425,,,A,V*18
[13:12:33] $GPGGA,171233.680,4020.7226813,N,08007.7262569,W,1,27,0.5,327.587,M,-33.184,M,,0000*60
[13:12:33] $GNRMC,171233.680,A,4020.7226813,N,08007.7262569,W,000.0,000.0,260425,,,A,V*1D
[13:12:33] $GPGGA,171233.720,4020.7226812,N,08007.7262571,W,1,27,0.5,327.587,M,-33.184,M,,0000*63
[13:12:33] $GNRMC,171233.720,A,4020.7226812,N,08007.7262571,W,000.0,000.0,260425,,,A,V*1E
[13:12:33] $GPGGA,171233.760,4020.7226811,N,08007.7262573,W,1,27,0.5,327.588,M,-33.184,M,,0000*69
[13:12:33] $GNRMC,171233.760,A,4020.7226811,N,08007.7262573,W,000.0,000.0,260425,,,A,V*1B
[13:12:33] $GPGGA,171233.800,4020.7226810,N,08007.7262575,W,1,27,0.5,327.588,M,-33.184,M,,0000*67
[13:12:33] $GNRMC,171233.800,A,4020.7226810,N,08007.7262575,W,000.0,000.0,260425,,,A,V*15
[13:12:33] $GPGGA,171233.840,4020.7226809,N,08007.7262577,W,1,27,0.5,327.589,M,-33.184,M,,0000*68
[13:12:33] $GNRMC,171233.840,A,4020.7226809,N,08007.7262577,W,000.0,000.0,260425,,,A,V*1B
[13:12:33] $GPGGA,171233.880,4020.7226808,N,08007.7262579,W,1,27,0.5,327.589,M,-33.184,M,,0000*6B
[13:12:33] $GNRMC,171233.880,A,4020.7226808,N,08007.7262579,W,000.0,000.0,260425,,,A,V*18
[13:12:33] $GPGGA,171233.920,4020.7226807,N,08007.7262582,W,1,27,0.5,327.590,M,-33.184,M,,0000*63
[13:12:33] $GNRMC,171233.920,A,4020.7226807,N,08007.7262582,W,000.0,000.0,260425,,,A,V*18
[13:12:34] $GNRMC,171234.000,A,4020.7226835,N,08007.7262545,W,000.0,000.0,260425,,,A,V*1E
[13:12:34] $GPGGA,101521.240,4020.7226835,N,08007.7262545,W,1,27,0.5,327.580,M,-33.184,M,,0000*66
[13:12:34] $GNRMC,101521.240,A,4020.7226835,N,08007.7262545,W,000.0,000.0,150625,,,A,V*1E
[13:12:34] $GPGGA,171234.040,4020.7226834,N,08007.7262548,W,1,27,0.5,327.581,M,-33.184,M,,0000*6D
[13:12:34] $GNRMC,171234.040,A,4020.7226834,N,08007.7262548,W,000.0,000.0,260425,,,A,V*16
[13:12:34] $GPGGA,171234.080,4020.7226833,N,08007.7262551,W,1,27,0.5,327.581,M,-33.184,M,,0000*6E
[13:12:34] $GNRMC,171234.080,A,4020.7226833,N,08007.7262551,W,000.0,000.0,260425,,,A,V*15
[13:12:34] $GPGGA,171234.120,4020.7226832,N,08007.7262554,W,1,27,0.5,327.582,M,-33.184,M,,0000*62
[13:12:34] $GNRMC,171234.120,A,4020.7226832,N,08007.7262554,W,000.0,000.0,260425,,,A,V*1A
[13:12:34] $GPGGA,171234.160,4020.7226831,N,08007.7262556,W,1,27,0.5,327.582,M,-33.184,M,,0000*67
[13:12:34] $GNRMC,171234.160,A,4020.7226831,N,08007.7262556,W,000.0,000.0,260425,,,A,V*1F
[13:12:34] $GPGGA,171234.200,4020.7226831,N,08007.7262559,W,1,27,0.5,327.582,M,-33.184,M,,0000*6D
[13:12:34] $GNRMC,171234.200,A,4020.7226831,N,08007.7262559,W,000.0,000.0,260425,,,A,V*15
[13:12:34] $GPGGA,171234.240,4020.7226830,N,08007.7262562,W,1,27,0.5,327.583,M,-33.184,M,,0000*61
[13:12:34] $GNRMC,171234.240,A,4020.7226830,N,08007.7262562,W,000.0,000.0,260425,,,A,V*18
[13:12:34] $GPGGA,171234.280,4020.7226829,N,08007.7262565,W,1,27,0.5,327.583,M,-33.184,M,,0000*62
[13:12:34] $GNRMC,171234.280,A,4020.7226829,N,08007.7262565,W,000.0,000.0,260425,,,A,V*1B
[13:12:34] $GPGGA,171234.320,4020.7226828,N,08007.7262568,W,1,27,0.5,327.584,M,-33.184,M,,0000*62
[13:12:34] $GNRMC,171234.320,A,4020.7226828,N,08007.7262568,W,000.0,000.0,260425,,,A,V*1C
[13:12:34] $GPGGA,171234.360,4020.7226827,N,08007.7262570,W,1,27,0.5,327.584,M,-33.184,M,,0000*60
[13:12:34] $GNRMC,171234.360,A,4020.7226827,N,08007.7262570,W,000.0,000.0,260425,,,A,V*1E
[13:12:34] $GPGGA,171234.400,4020.7226827,N,08007.7262573,W,1,27,0.5,327.585,M,-33.184,M,,0000*63
[13:12:34] $GNRMC,171234.400,A,4020.7226827,N,08007.7262573,W,000.0,000.0,260425,,,A,V*1C
[13:12:34] $GPGGA,171234.440,4020.7226826,N,08007.7262576,W,1,27,0.5,327.585,M,-33.184,M,,0000*63
[13:12:34] $GNRMC,171234.440,A,4020.7226826,N,08007.7262576,W,000.0,000.0,260425,,,A,V*1C
[13:12:34] $GPGGA,171234.480,4020.7226825,N,08007.7262579,W,1,27,0.5,327.585,M,-33.184,M,,0000*63
[13:12:34] $GNRMC,171234.480,A,4020.7226825,N,08007.7262579,W,000.0,000.0,260425,,,A,V*1C
[13:12:34] $GPGGA,171234.520,4020.7226824,N,08007.7262581,W,1,27,0.5,327.586,M,-33.184,M,,0000*6D
[13:12:34] $GNRMC,171234.520,A,4020.7226824,N,08007.7262581,W,000.0,000.0,260425,,,A,V*11
[13:12:34] $GPGGA,171234.560,4020.7226823,N,08007.7262584,W,1,27,0.5,327.586,M,-33.184,M,,0000*6B
[13:12:34] $GNRMC,171234.560,A,4020.7226823,N,08007.7262584,W,000.0,000.0,260425,,,A,V*17
[13:12:34] $GPGGA,171234.600,4020.7226823,N,08007.7262587,W,1,27,0.5,327.587,M,-33.184,M,,0000*6C
[13:12:34] $GNRMC,171234.600,A,4020.7226823,N,08007.7262587,W,000.0,000.0,260425,,,A,V*11
[13:12:34] $GPGGA,171234.640,4020.7226822,N,08007.7262590,W,1,27,0.5,327.587,M,-33.184,M,,0000*6F
[13:12:34] $GNRMC,171234.640,A,4020.7226822,N,08007.7262590,W,000.0,000.0,260425,,,A,V*12
[13:12:34] $GPGGA,171234.680,4020.7226821,N,08007.7262592,W,1,27,0.5,327.587,M,-33.184,M,,0000*62
[13:12:34] $GNRMC,171234.680,A,4020.7226821,N,08007.7262592,W,000.0,000.0,260425,,,A,V*1F
[13:12:34] $GPGGA,171234.720,4020.7226820,N,08007.7262595,W,1,27,0.5,327.588,M,-33.184,M,,0000*60
[13:12:34] $GNRMC,171234.720,A,4020.7226820,N,08007.7262595,W,000.0,000.0,260425,,,A,V*12
[13:12:34] $GPGGA,171234.760,4020.7226819,N,08007.7262598,W,1,27,0.5,327.588,M,-33.184,M,,0000*63
[13:12:34] $GNRMC,171234.760,A,4020.7226819,N,08007.7262598,W,000.0,000.0,260425,,,A,V*11
[13:12:34] $GPGGA,171234.800,4020.7226819,N,08007.7262601,W,1,27,0.5,327.589,M,-33.184,M,,0000*68
[13:12:34] $GNRMC,171234.800,A,4020.7226819,N,08007.7262601,W,000.0,000.0,260425,,,A,V*1B
[13:12:34] $GPGGA,171234.840,4020.7226818,N,08007.7262604,W,1,27,0.5,327.589,M,-33.184,M,,0000*68
[13:12:34] $GNRMC,171234.840,A,4020.7226818,N,08007.7262604,W,000.0,000.0,260425,,,A,V*1B
[13:12:34] $GPGGA,171234.880,4020.7226817,N,08007.7262606,W,1,27,0.5,327.590,M,-33.184,M,,0000*61
[13:12:34] $GNRMC,171234.880,A,4020.7226817,N,08007.7262606,W,000.0,000.0,260425,,,A,V*1A
[13:12:34] $GPGGA,171234.920,4020.7226816,N,08007.7262609,W,1,27,0.5,327.590,M,-33.184,M,,0000*64
[13:12:34] $GNRMC,171234.920,A,4020.7226816,N,08007.7262609,W,000.0,000.0,260425,,,A,V*1F
[13:12:35] $GNRMC,171235.000,A,4020.7226841,N,08007.7262563,W,000.0,000.0,260425,,,A,V*18
[13:12:35] $GPGGA,101522.240,4020.7226841,N,08007.7262563,W,1,27,0.5,327.581,M,-33.184,M,,0000*63
[13:12:35] $GNRMC,101522.240,A,4020.7226841,N,08007.7262563,W,000.0,000.0,150625,,,A,V*1A
[13:12:35] $GPGGA,171235.040,4020.7226840,N,08007.7262566,W,1,27,0.5,327.581,M,-33.184,M,,0000*63
[13:12:35] $GNRMC,171235.040,A,4020.7226840,N,08007.7262566,W,000.0,000.0,260425,,,A,V*18
[13:12:35] $GPGGA,171235.080,4020.7226840,N,08007.7262570,W,1,27,0.5,327.581,M,-33.184,M,,0000*68
[13:12:35] $GNRMC,171235.080,A,4020.7226840,N,08007.7262570,W,000.0,000.0,260425,,,A,V*13
[13:12:35] $GPGGA,171235.120,4020.7226840,N,08007.7262573,W,1,27,0.5,327.581,M,-33.184,M,,0000*60
[13:12:35] $GNRMC,171235.120,A,4020.7226840,N,08007.7262573,W,000.0,000.0,260425,,,A,V*1B
[13:12:35] $GPGGA,171235.160,4020.7226839,N,08007.7262577,W,1,27,0.5,327.581,M,-33.184,M,,0000*6E
[13:12:35] $GNRMC,171235.160,A,4020.7226839,N,08007.7262577,W,000.0,000.0,260425,,,A,V*15
[13:12:35] $GPGGA,171235.200,4020.7226839,N,08007.7262580,W,1,27,0.5,327.581,M,-33.184,M,,0000*63
[13:12:35] $GNRMC,171235.200,A,4020.7226839,N,08007.7262580,W,000.0,000.0,260425,,,A,V*18
[13:12:35] $GPGGA,171235.240,4020.7226839,N,08007.7262583,W,1,27,0.5,327.582,M,-33.184,M,,0000*67
[13:12:35] $GNRMC,171235.240,A,4020.7226839,N,08007.7262583,W,000.0,000.0,260425,,,A,V*1F
[13:12:35] $GPGGA,171235.280,4020.7226838,N,08007.7262587,W,1,27,0.5,327.582,M,-33.184,M,,0000*6E
[13:12:35] $GNRMC,171235.280,A,4020.7226838,N,08007.7262587,W,000.0,000.0,260425,,,A,V*16
[13:12:35] $GPGGA,171235.320,4020.7226838,N,08007.7262590,W,1,27,0.5,327.582,M,-33.184,M,,0000*63
[13:12:35] $GNRMC,171235.320,A,4020.7226838,N,08007.7262590,W,000.0,000.0,260425,,,A,V*1B
[13:12:35] $GPGGA,171235.360,4020.7226838,N,08007.7262593,W,1,27,0.5,327.582,M,-33.184,M,,0000*64
[13:12:35] $GNRMC,171235.360,A,4020.7226838,N,08007.7262593,W,000.0,000.0,260425,,,A,V*1C
[13:12:35] $GPGGA,171235.400,4020.7226837,N,08007.7262597,W,1,27,0.5,327.582,M,-33.184,M,,0000*6E
[13:12:35] $GNRMC,171235.400,A,4020.7226837,N,08007.7262597,W,000.0,000.0,260425,,,A,V*16
[13:12:35] $GPGGA,171235.440,4020.7226837,N,08007.7262600,W,1,27,0.5,327.583,M,-33.184,M,,0000*66
[13:12:35] $GNRMC,171235.440,A,4020.7226837,N,08007.7262600,W,000.0,000.0,260425,,,A,V*1F
[13:12:35] $GPGGA,171235.480,4020.7226837,N,08007.7262604,W,1,27,0.5,327.583,M,-33.184,M,,0000*6E
[13:12:35] $GNRMC,171235.480,A,4020.7226837,N,08007.7262604,W,000.0,000.0,260425,,,A,V*17
[13:12:35] $GPGGA,171235.520,4020.7226836,N,08007.7262607,W,1,27,0.5,327.583,M,-33.184,M,,0000*67
[13:12:35] $GNRMC,171235.520,A,4020.7226836,N,08007.7262607,W,000.0,000.0,260425,,,A,V*1E
[13:12:35] $GPGGA,171235.560,4020.7226836,N,08007.7262610,W,1,27,0.5,327.583,M,-33.184,M,,0000*65
[13:12:35] $GNRMC,171235.560,A,4020.7226836,N,08007.7262610,W,000.0,000.0,260425,,,A,V*1C
[13:12:35] $GPGGA,171235.600,4020.7226835,N,08007.7262614,W,1,27,0.5,327.583,M,-33.184,M,,0000*67
[13:12:35] $GNRMC,171235.600,A,4020.7226835,N,08007.7262614,W,000.0,000.0,260425,,,A,V*1E
[13:12:35] $GPGGA,171235.640,4020.7226835,N,08007.7262617,W,1,27,0.5,327.583,M,-33.184,M,,0000*60
[13:12:35] $GNRMC,171235.640,A,4020.7226835,N,08007.7262617,W,000.0,000.0,260425,,,A,V*19
[13:12:35] $GPGGA,171235.680,4020.7226835,N,08007.7262620,W,1,27,0.5,327.584,M,-33.184,M,,0000*6F
[13:12:35] $GNRMC,171235.680,A,4020.7226835,N,08007.7262620,W,000.0,000.0,260425,,,A,V*11
[13:12:35] $GPGGA,171235.720,4020.7226834,N,08007.7262624,W,1,27,0.5,327.584,M,-33.184,M,,0000*61
[13:12:35] $GNRMC,171235.720,A,4020.7226834,N,08007.7262624,W,000.0,000.0,260425,,,A,V*1F
[13:12:35] $GPGGA,171235.760,4020.7226834,N,08007.7262627,W,1,27,0.5,327.584,M,-33.184,M,,0000*66
[13:12:35] $GNRMC,171235.760,A,4020.7226834,N,08007.7262627,W,000.0,000.0,260425,,,A,V*18
[13:12:35] $GPGGA,171235.800,4020.7226834,N,08007.7262631,W,1,27,0.5,327.584,M,-33.184,M,,0000*68
[13:12:35] $GNRMC,171235.800,A,4020.7226834,N,08007.7262631,W,000.0,000.0,260425,,,A,V*16
[13:12:35] $GPGGA,171235.840,4020.7226833,N,08007.7262634,W,1,27,0.5,327.584,M,-33.184,M,,0000*6E
[13:12:35] $GNRMC,171235.840,A,4020.7226833,N,08007.7262634,W,000.0,000.0,260425,,,A,V*10
[13:12:35] $GPGGA,171235.880,4020.7226833,N,08007.7262637,W,1,27,0.5,327.585,M,-33.184,M,,0000*60
[13:12:35] $GNRMC,171235.880,A,4020.7226833,N,08007.7262637,W,000.0,000.0,260425,,,A,V*1F
[13:12:35] $GPGGA,171235.920,4020.7226833,N,08007.7262641,W,1,27,0.5,327.585,M,-33.184,M,,0000*6A
[13:12:35] $GNRMC,171235.920,A,4020.7226833,N,08007.7262641,W,000.0,000.0,260425,,,A,V*15
[13:12:36] $GNRMC,171236.000,A,4020.7226846,N,08007.7262566,W,000.0,000.0,260425,,,A,V*19
[13:12:36] $GPGGA,101523.240,4020.7226846,N,08007.7262566,W,1,26,0.6,327.579,M,-33.184,M,,0000*65
[13:12:36] $GNRMC,101523.240,A,4020.7226846,N,08007.7262566,W,000.0,000.0,150625,,,A,V*19
[13:12:36] $GPGGA,171236.040,4020.7226845,N,08007.7262568,W,1,26,0.6,327.579,M,-33.184,M,,0000*6E
[13:12:36] $GNRMC,171236.040,A,4020.7226845,N,08007.7262568,W,000.0,000.0,260425,,,A,V*10
[13:12:36] $GPGGA,171236.080,4020.7226843,N,08007.7262569,W,1,26,0.6,327.580,M,-33.184,M,,0000*63
[13:12:36] $GNRMC,171236.080,A,4020.7226843,N,08007.7262569,W,000.0,000.0,260425,,,A,V*1B
[13:12:36] $GPGGA,171236.120,4020.7226842,N,08007.7262571,W,1,26,0.6,327.580,M,-33.184,M,,0000*60
[13:12:36] $GNRMC,171236.120,A,4020.7226842,N,08007.7262571,W,000.0,000.0,260425,,,A,V*18
[13:12:36] $GPGGA,171236.160,4020.7226840,N,08007.7262572,W,1,26,0.6,327.581,M,-33.184,M,,0000*64
[13:12:36] $GNRMC,171236.160,A,4020.7226840,N,08007.7262572,W,000.0,000.0,260425,,,A,V*1D
[13:12:36] $GPGGA,171236.200,4020.7226838,N,08007.7262574,W,1,26,0.6,327.581,M,-33.184,M,,0000*68
[13:12:36] $GNRMC,171236.200,A,4020.7226838,N,08007.7262574,W,000.0,000.0,260425,,,A,V*11
[13:12:36] $GPGGA,171236.240,4020.7226837,N,08007.7262575,W,1,26,0.6,327.582,M,-33.184,M,,0000*61
[13:12:36] $GNRMC,171236.240,A,4020.7226837,N,08007.7262575,W,000.0,000.0,260425,,,A,V*1B
[13:12:36] $GPGGA,171236.280,4020.7226835,N,08007.7262577,W,1,26,0.6,327.582,M,-33.184,M,,0000*6D
[13:12:36] $GNRMC,171236.280,A,4020.7226835,N,08007.7262577,W,000.0,000.0,260425,,,A,V*17
[13:12:36] $GPGGA,171236.320,4020.7226833,N,08007.7262578,W,1,26,0.6,327.582,M,-33.184,M,,0000*6F
[13:12:36] $GNRMC,171236.320,A,4020.7226833,N,08007.7262578,W,000.0,000.0,260425,,,A,V*15
[13:12:36] $GPGGA,171236.360,4020.7226832,N,08007.7262580,W,1,26,0.6,327.583,M,-33.184,M,,0000*6C
[13:12:36] $GNRMC,171236.360,A,4020.7226832,N,08007.7262580,W,000.0,000.0,260425,,,A,V*17
[13:12:36] $GPGGA,171236.400,4020.7226830,N,08007.7262581,W,1,26,0.6,327.583,M,-33.184,M,,0000*6E
[13:12:36] $GNRMC,171236.400,A,4020.7226830,N,08007.7262581,W,000.0,000.0,260425,,,A,V*15
[13:12:36] $GPGGA,171236.440,4020.7226828,N,08007.7262583,W,1,26,0.6,327.584,M,-33.184,M,,0000*66
[13:12:36] $GNRMC,171236.440,A,4020.7226828,N,08007.7262583,W,000.0,000.0,260425,,,A,V*1A
[13:12:36] $GPGGA,171236.480,4020.7226827,N,08007.7262584,W,1,26,0.6,327.584,M,-33.184,M,,0000*62
[13:12:36] $GNRMC,171236.480,A,4020.7226827,N,08007.7262584,W,000.0,000.0,260425,,,A,V*1E
[13:12:36] $GPGGA,171236.520,4020.7226825,N,08007.7262586,W,1,26,0.6,327.584,M,-33.184,M,,0000*69
[13:12:36] $GNRMC,171236.520,A,4020.7226825,N,08007.7262586,W,000.0,000.0,260425,,,A,V*15
[13:12:36] $GPGGA,171236.560,4020.7226824,N,08007.7262587,W,1,26,0.6,327.585,M,-33.184,M,,0000*6C
[13:12:36] $GNRMC,171236.560,A,4020.7226824,N,08007.7262587,W,000.0,000.0,260425,,,A,V*11
[13:12:36] $GPGGA,171236.600,4020.7226822,N,08007.7262589,W,1,26,0.6,327.585,M,-33.184,M,,0000*61
[13:12:36] $GNRMC,171236.600,A,4020.7226822,N,08007.7262589,W,000.0,000.0,260425,,,A,V*1C
[13:12:36] $GPGGA,171236.640,4020.7226820,N,08007.7262590,W,1,26,0.6,327.586,M,-33.184,M,,0000*6C
[13:12:36] $GNRMC,171236.640,A,4020.7226820,N,08007.7262590,W,000.0,000.0,260425,,,A,V*12
[13:12:36] $GPGGA,171236.680,4020.7226819,N,08007.7262592,W,1,26,0.6,327.586,M,-33.184,M,,0000*68
[13:12:36] $GNRMC,171236.680,A,4020.7226819,N,08007.7262592,W,000.0,000.0,260425,,,A,V*16
[13:12:36] $GPGGA,171236.720,4020.7226817,N,08007.7262593,W,1,26,0.6,327.587,M,-33.184,M,,0000*6D
[13:12:36] $GNRMC,171236.720,A,4020.7226817,N,08007.7262593,W,000.0,000.0,260425,,,A,V*12
[13:12:36] $GPGGA,171236.760,4020.7226815,N,08007.7262595,W,1,26,0.6,327.587,M,-33.184,M,,0000*6D
[13:12:36] $GNRMC,171236.760,A,4020.7226815,N,08007.7262595,W,000.0,000.0,260425,,,A,V*12
[13:12:36] $GPGGA,171236.800,4020.7226814,N,08007.7262596,W,1,26,0.6,327.587,M,-33.184,M,,0000*66
[13:12:36] $GNRMC,171236.800,A,4020.7226814,N,08007.7262596,W,000.0,000.0,260425,,,A,V*19
[13:12:36] $GPGGA,171236.840,4020.7226812,N,08007.7262598,W,1,26,0.6,327.588,M,-33.184,M,,0000*65
[13:12:36] $GNRMC,171236.840,A,4020.7226812,N,08007.7262598,W,000.0,000.0,260425,,,A,V*15
[13:12:36] $GPGGA,171236.880,4020.7226811,N,08007.7262599,W,1,26,0.6,327.588,M,-33.184,M,,0000*6B
[13:12:36] $GNRMC,171236.880,A,4020.7226811,N,08007.7262599,W,000.0,000.0,260425,,,A,V*1B
[13:12:36] $GPGGA,171236.920,4020.7226809,N,08007.7262601,W,1,26,0.6,327.589,M,-33.184,M,,0000*6A
[13:12:36] $GNRMC,171236.920,A,4020.7226809,N,08007.7262601,W,000.0,000.0,260425,,,A,V*1B
[13:12:37] $GNRMC,171237.000,A,4020.7226852,N,08007.7262596,W,000.0,000.0,260425,,,A,V*12
[13:12:37] $GPGGA,101524.240,4020.7226852,N,08007.7262596,W,1,27,0.5,327.583,M,-33.184,M,,0000*6F
[13:12:37] $GNRMC,101524.240,A,4020.7226852,N,08007.7262596,W,000.0,000.0,150625,,,A,V*14
[13:12:37] $GPGGA,171237.040,4020.7226851,N,08007.7262599,W,1,27,0.5,327.584,M,-33.184,M,,0000*64
[13:12:37] $GNRMC,171237.040,A,4020.7226851,N,08007.7262599,W,000.0,000.0,260425,,,A,V*1A
[13:12:37] $GPGGA,171237.080,4020.7226850,N,08007.7262601,W,1,27,0.5,327.584,M,-33.184,M,,0000*6B
[13:12:37] $GNRMC,171237.080,A,4020.7226850,N,08007.7262601,W,000.0,000.0,260425,,,A,V*15
[13:12:37] $GPGGA,171237.120,4020.7226850,N,08007.7262604,W,1,27,0.5,327.585,M,-33.184,M,,0000*64
[13:12:37] $GNRMC,171237.120,A,4020.7226850,N,08007.7262604,W,000.0,000.0,260425,,,A,V*1B
[13:12:37] $GPGGA,171237.160,4020.7226849,N,08007.7262606,W,1,27,0.5,327.585,M,-33.184,M,,0000*6A
[13:12:37] $GNRMC,171237.160,A,4020.7226849,N,08007.7262606,W,000.0,000.0,260425,,,A,V*15
[13:12:37] $GPGGA,171237.200,4020.7226849,N,08007.7262609,W,1,27,0.5,327.586,M,-33.184,M,,0000*63
[13:12:37] $GNRMC,171237.200,A,4020.7226849,N,08007.7262609,W,000.0,000.0,260425,,,A,V*1F
[13:12:37] $GPGGA,171237.240,4020.7226848,N,08007.7262611,W,1,27,0.5,327.586,M,-33.184,M,,0000*6F
[13:12:37] $GNRMC,171237.240,A,4020.7226848,N,08007.7262611,W,000.0,000.0,260425,,,A,V*13
[13:12:37] $GPGGA,171237.280,4020.7226848,N,08007.7262614,W,1,27,0.5,327.587,M,-33.184,M,,0000*67
[13:12:37] $GNRMC,171237.280,A,4020.7226848,N,08007.7262614,W,000.0,000.0,260425,,,A,V*1A
[13:12:37] $GPGGA,171237.320,4020.7226847,N,08007.7262616,W,1,27,0.5,327.587,M,-33.184,M,,0000*61
[13:12:37] $GNRMC,171237.320,A,4020.7226847,N,08007.7262616,W,000.0,000.0,260425,,,A,V*1C
[13:12:37] $GPGGA,171237.360,4020.7226847,N,08007.7262619,W,1,27,0.5,327.588,M,-33.184,M,,0000*65
[13:12:37] $GNRMC,171237.360,A,4020.7226847,N,08007.7262619,W,000.0,000.0,260425,,,A,V*17
[13:12:37] $GPGGA,171237.400,4020.7226846,N,08007.7262621,W,1,27,0.5,327.588,M,-33.184,M,,0000*6E
[13:12:37] $GNRMC,171237.400,A,4020.7226846,N,08007.7262621,W,000.0,000.0,260425,,,A,V*1C
[13:12:37] $GPGGA,171237.440,4020.7226846,N,08007.7262624,W,1,27,0.5,327.589,M,-33.184,M,,0000*6E
[13:12:37] $GNRMC,171237.440,A,4020.7226846,N,08007.7262624,W,000.0,000.0,260425,,,A,V*1D
[13:12:37] $GPGGA,171237.480,4020.7226845,N,08007.7262626,W,1,27,0.5,327.589,M,-33.184,M,,0000*63
[13:12:37] $GNRMC,171237.480,A,4020.7226845,N,08007.7262626,W,000.0,000.0,260425,,,A,V*10
[13:12:37] $GPGGA,171237.520,4020.7226844,N,08007.7262629,W,1,27,0.5,327.589,M,-33.184,M,,0000*66
[13:12:37] $GNRMC,171237.520,A,4020.7226844,N,08007.7262629,W,000.0,000.0,260425,,,A,V*15
[13:12:37] $GPGGA,171237.560,4020.7226844,N,08007.7262631,W,1,27,0.5,327.590,M,-33.184,M,,0000*63
[13:12:37] $GNRMC,171237.560,A,4020.7226844,N,08007.7262631,W,000.0,000.0,260425,,,A,V*18
[13:12:37] $GPGGA,171237.600,4020.7226843,N,08007.7262633,W,1,27,0.5,327.590,M,-33.184,M,,0000*63
[13:12:37] $GNRMC,171237.600,A,4020.7226843,N,08007.7262633,W,000.0,000.0,260425,,,A,V*18
[13:12:37] $GPGGA,171237.640,4020.7226843,N,08007.7262636,W,1,27,0.5,327.591,M,-33.184,M,,0000*63
[13:12:37] $GNRMC,171237.640,A,4020.7226843,N,08007.7262636,W,000.0,000.0,260425,,,A,V*19
[13:12:37] $GPGGA,171237.680,4020.7226842,N,08007.7262638,W,1,27,0.5,327.591,M,-33.184,M,,0000*60
[13:12:37] $GNRMC,171237.680,A,4020.7226842,N,08007.7262638,W,000.0,000.0,260425,,,A,V*1A
[13:12:37] $GPGGA,171237.720,4020.7226842,N,08007.7262641,W,1,27,0.5,327.592,M,-33.184,M,,0000*66
[13:12:37] $GNRMC,171237.720,A,4020.7226842,N,08007.7262641,W,000.0,000.0,260425,,,A,V*1F
[13:12:37] $GPGGA,171237.760,4020.7226841,N,08007.7262643,W,1,27,0.5,327.592,M,-33.184,M,,0000*63
[13:12:37] $GNRMC,171237.760,A,4020.7226841,N,08007.7262643,W,000.0,000.0,260425,,,A,V*1A
[13:12:37] $GPGGA,171237.800,4020.7226841,N,08007.7262646,W,1,27,0.5,327.593,M,-33.184,M,,0000*6E
[13:12:37] $GNRMC,171237.800,A,4020.7226841,N,08007.7262646,W,000.0,000.0,260425,,,A,V*16
[13:12:37] $GPGGA,171237.840,4020.7226840,N,08007.7262648,W,1,27,0.5,327.593,M,-33.184,M,,0000*65
[13:12:37] $GNRMC,171237.840,A,4020.7226840,N,08007.7262648,W,000.0,000.0,260425,,,A,V*1D
[13:12:37] $GPGGA,171237.880,4020.7226839,N,08007.7262651,W,1,27,0.5,327.594,M,-33.184,M,,0000*68
[13:12:37] $GNRMC,171237.880,A,4020.7226839,N,08007.7262651,W,000.0,000.0,260425,,,A,V*17
[13:12:37] $GPGGA,171237.920,4020.7226839,N,08007.7262653,W,1,27,0.5,327.594,M,-33.184,M,,0000*61
[13:12:37] $GNRMC,171237.920,A,4020.7226839,N,08007.7262653,W,000.0,000.0,260425,,,A,V*1E
[13:12:38] $GNRMC,171238.000,A,4020.7226851,N,08007.7262614,W,000.0,000.0,260425,,,A,V*17
[13:12:38] $GPGGA,101525.240,4020.7226851,N,08007.7262614,W,1,27,0.5,327.586,M,-33.184,M,,0000*61
[13:12:38] $GNRMC,101525.240,A,4020.7226851,N,08007.7262614,W,000.0,000.0,150625,,,A,V*1F
[13:12:38] $GPGGA,171238.040,4020.7226850,N,08007.7262617,W,1,27,0.5,327.587,M,-33.184,M,,0000*6C
[13:12:38] $GNRMC,171238.040,A,4020.7226850,N,08007.7262617,W,000.0,000.0,260425,,,A,V*11
[13:12:38] $GPGGA,171238.080,4020.7226849,N,08007.7262619,W,1,27,0.5,327.587,M,-33.184,M,,0000*66
[13:12:38] $GNRMC,171238.080,A,4020.7226849,N,08007.7262619,W,000.0,000.0,260425,,,A,V*1B
[13:12:38] $GPGGA,171238.120,4020.7226848,N,08007.7262622,W,1,27,0.5,327.587,M,-33.184,M,,0000*64
[13:12:38] $GNRMC,171238.120,A,4020.7226848,N,08007.7262622,W,000.0,000.0,260425,,,A,V*19
[13:12:38] $GPGGA,171238.160,4020.7226847,N,08007.7262625,W,1,27,0.5,327.588,M,-33.184,M,,0000*67
[13:12:38] $GNRMC,171238.160,A,4020.7226847,N,08007.7262625,W,000.0,000.0,260425,,,A,V*15
[13:12:38] $GPGGA,171238.200,4020.7226846,N,08007.7262628,W,1,27,0.5,327.588,M,-33.184,M,,0000*6E
[13:12:38] $GNRMC,171238.200,A,4020.7226846,N,08007.7262628,W,000.0,000.0,260425,,,A,V*1C
[13:12:38] $GPGGA,171238.240,4020.7226845,N,08007.7262631,W,1,27,0.5,327.588,M,-33.184,M,,0000*61
[13:12:38] $GNRMC,171238.240,A,4020.7226845,N,08007.7262631,W,000.0,000.0,260425,,,A,V*13
[13:12:38] $GPGGA,171238.280,4020.7226844,N,08007.7262633,W,1,27,0.5,327.589,M,-33.184,M,,0000*6F
[13:12:38] $GNRMC,171238.280,A,4020.7226844,N,08007.7262633,W,000.0,000.0,260425,,,A,V*1C
[13:12:38] $GPGGA,171238.320,4020.7226843,N,08007.7262636,W,1,27,0.5,327.589,M,-33.184,M,,0000*66
[13:12:38] $GNRMC,171238.320,A,4020.7226843,N,08007.7262636,W,000.0,000.0,260425,,,A,V*15
[13:12:38] $GPGGA,171238.360,4020.7226842,N,08007.7262639,W,1,27,0.5,327.589,M,-33.184,M,,0000*6C
[13:12:38] $GNRMC,171238.360,A,4020.7226842,N,08007.7262639,W,000.0,000.0,260425,,,A,V*1F
[13:12:38] $GPGGA,171238.400,4020.7226841,N,08007.7262642,W,1,27,0.5,327.590,M,-33.184,M,,0000*6A
[13:12:38] $GNRMC,171238.400,A,4020.7226841,N,08007.7262642,W,000.0,000.0,260425,,,A,V*11
[13:12:38] $GPGGA,171238.440,4020.7226840,N,08007.7262644,W,1,27,0.5,327.590,M,-33.184,M,,0000*69
[13:12:38] $GNRMC,171238.440,A,4020.7226840,N,08007.7262644,W,000.0,000.0,260425,,,A,V*12
[13:12:38] $GPGGA,171238.480,4020.7226839,N,08007.7262647,W,1,27,0.5,327.590,M,-33.184,M,,0000*68
[13:12:38] $GNRMC,171238.480,A,4020.7226839,N,08007.7262647,W,000.0,000.0,260425,,,A,V*13
[13:12:38] $GPGGA,171238.520,4020.7226838,N,08007.7262650,W,1,27,0.5,327.591,M,-33.184,M,,0000*65
[13:12:38] $GNRMC,171238.520,A,4020.7226838,N,08007.7262650,W,000.0,000.0,260425,,,A,V*1F
[13:12:38] $GPGGA,171238.560,4020.7226837,N,08007.7262653,W,1,27,0.5,327.591,M,-33.184,M,,0000*6D
[13:12:38] $GNRMC,171238.560,A,4020.7226837,N,08007.7262653,W,000.0,000.0,260425,,,A,V*17
[13:12:38] $GPGGA,171238.600,4020.7226836,N,08007.7262655,W,1,27,0.5,327.591,M,-33.184,M,,0000*6F
[13:12:38] $GNRMC,171238.600,A,4020.7226836,N,08007.7262655,W,000.0,000.0,260425,,,A,V*15
[13:12:38] $GPGGA,171238.640,4020.7226835,N,08007.7262658,W,1,27,0.5,327.592,M,-33.184,M,,0000*66
[13:12:38] $GNRMC,171238.640,A,4020.7226835,N,08007.7262658,W,000.0,000.0,260425,,,A,V*1F
[13:12:38] $GPGGA,171238.680,4020.7226834,N,08007.7262661,W,1,27,0.5,327.592,M,-33.184,M,,0000*61
[13:12:38] $GNRMC,171238.680,A,4020.7226834,N,08007.7262661,W,000.0,000.0,260425,,,A,V*18
[13:12:38] $GPGGA,171238.720,4020.7226833,N,08007.7262664,W,1,27,0.5,327.592,M,-33.184,M,,0000*68
[13:12:38] $GNRMC,171238.720,A,4020.7226833,N,08007.7262664,W,000.0,000.0,260425,,,A,V*11
[13:12:38] $GPGGA,171238.760,4020.7226832,N,08007.7262667,W,1,27,0.5,327.593,M,-33.184,M,,0000*6F
[13:12:38] $GNRMC,171238.760,A,4020.7226832,N,08007.7262667,W,000.0,000.0,260425,,,A,V*17
[13:12:38] $GPGGA,171238.800,4020.7226831,N,08007.7262669,W,1,27,0.5,327.593,M,-33.184,M,,0000*6B
[13:12:38] $GNRMC,171238.800,A,4020.7226831,N,08007.7262669,W,000.0,000.0,260425,,,A,V*13
[13:12:38] $GPGGA,171238.840,4020.7226829,N,08007.7262672,W,1,27,0.5,327.594,M,-33.184,M,,0000*6B
[13:12:38] $GNRMC,171238.840,A,4020.7226829,N,08007.7262672,W,000.0,000.0,260425,,,A,V*14
[13:12:38] $GPGGA,171238.880,4020.7226828,N,08007.7262675,W,1,27,0.5,327.594,M,-33.184,M,,0000*61
[13:12:38] $GNRMC,171238.880,A,4020.7226828,N,08007.7262675,W,000.0,000.0,260425,,,A,V*1E
[13:12:38] $GPGGA,171238.920,4020.7226827,N,08007.7262678,W,1,27,0.5,327.594,M,-33.184,M,,0000*68
[13:12:38] $GNRMC,171238.920,A,4020.7226827,N,08007.7262678,W,000.0,000.0,260425,,,A,V*17
[13:12:39] $GNRMC,171239.000,A,4020.7226841,N,08007.7262633,W,000.0,000.0,260425,,,A,V*12
[13:12:39] $GPGGA,101526.240,4020.7226841,N,08007.7262633,W,1,26,0.6,327.595,M,-33.184,M,,0000*66
[13:12:39] $GNRMC,101526.240,A,4020.7226841,N,08007.7262633,W,000.0,000.0,150625,,,A,V*18
[13:12:39] $GPGGA,171239.040,4020.7226841,N,08007.7262639,W,1,26,0.6,327.595,M,-33.184,M,,0000*60
[13:12:39] $GNRMC,171239.040,A,4020.7226841,N,08007.7262639,W,000.0,000.0,260425,,,A,V*1C
[13:12:39] $GPGGA,171239.080,4020.7226842,N,08007.7262644,W,1,26,0.6,327.595,M,-33.184,M,,0000*65
[13:12:39] $GNRMC,171239.080,A,4020.7226842,N,08007.7262644,W,000.0,000.0,260425,,,A,V*19
[13:12:39] $GPGGA,171239.120,4020.7226843,N,08007.7262650,W,1,26,0.6,327.595,M,-33.184,M,,0000*6A
[13:12:39] $GNRMC,171239.120,A,4020.7226843,N,08007.7262650,W,000.0,000.0,260425,,,A,V*16
[13:12:39] $GPGGA,171239.160,4020.7226843,N,08007.7262656,W,1,26,0.6,327.594,M,-33.184,M,,0000*69
[13:12:39] $GNRMC,171239.160,A,4020.7226843,N,08007.7262656,W,000.0,000.0,260425,,,A,V*14
[13:12:39] $GPGGA,171239.200,4020.7226844,N,08007.7262662,W,1,26,0.6,327.594,M,-33.184,M,,0000*6C
[13:12:39] $GNRMC,171239.200,A,4020.7226844,N,08007.7262662,W,000.0,000.0,260425,,,A,V*11
[13:12:39] $GPGGA,171239.240,4020.7226845,N,08007.7262668,W,1,26,0.6,327.594,M,-33.184,M,,0000*63
[13:12:39] $GNRMC,171239.240,A,4020.7226845,N,08007.7262668,W,000.0,000.0,260425,,,A,V*1E
[13:12:39] $GPGGA,171239.280,4020.7226845,N,08007.7262674,W,1,26,0.6,327.594,M,-33.184,M,,0000*62
[13:12:39] $GNRMC,171239.280,A,4020.7226845,N,08007.7262674,W,000.0,000.0,260425,,,A,V*1F
[13:12:39] $GPGGA,171239.320,4020.7226846,N,08007.7262679,W,1,26,0.6,327.594,M,-33.184,M,,0000*67
[13:12:39] $GNRMC,171239.320,A,4020.7226846,N,08007.7262679,W,000.0,000.0,260425,,,A,V*1A
[13:12:39] $GPGGA,171239.360,4020.7226847,N,08007.7262685,W,1,26,0.6,327.593,M,-33.184,M,,0000*66
[13:12:39] $GNRMC,171239.360,A,4020.7226847,N,08007.7262685,W,000.0,000.0,260425,,,A,V*1C
[13:12:39] $GPGGA,171239.400,4020.7226847,N,08007.7262691,W,1,26,0.6,327.593,M,-33.184,M,,0000*62
[13:12:39] $GNRMC,171239.400,A,4020.7226847,N,08007.7262691,W,000.0,000.0,260425,,,A,V*18
[13:12:39] $GPGGA,171239.440,4020.7226848,N,08007.7262697,W,1,26,0.6,327.593,M,-33.184,M,,0000*6F
[13:12:39] $GNRMC,171239.440,A,4020.7226848,N,08007.7262697,W,000.0,000.0,260425,,,A,V*15
[13:12:39] $GPGGA,171239.480,4020.7226849,N,08007.7262703,W,1,26,0.6,327.593,M,-33.184,M,,0000*6E
[13:12:39] $GNRMC,171239.480,A,4020.7226849,N,08007.7262703,W,000.0,000.0,260425,,,A,V*14
[13:12:39] $GPGGA,171239.520,4020.7226849,N,08007.7262708,W,1,26,0.6,327.592,M,-33.184,M,,0000*6F
[13:12:39] $GNRMC,171239.520,A,4020.7226849,N,08007.7262708,W,000.0,000.0,260425,,,A,V*14
[13:12:39] $GPGGA,171239.560,4020.7226850,N,08007.7262714,W,1,26,0.6,327.592,M,-33.184,M,,0000*6E
[13:12:39] $GNRMC,171239.560,A,4020.7226850,N,08007.7262714,W,000.0,000.0,260425,,,A,V*15
[13:12:39] $GPGGA,171239.600,4020.7226851,N,08007.7262720,W,1,26,0.6,327.592,M,-33.184,M,,0000*6D
[13:12:39] $GNRMC,171239.600,A,4020.7226851,N,08007.7262720,W,000.0,000.0,260425,,,A,V*16
[13:12:39] $GPGGA,171239.640,4020.7226851,N,08007.7262726,W,1,26,0.6,327.592,M,-33.184,M,,0000*6F
[13:12:39] $GNRMC,171239.640,A,4020.7226851,N,08007.7262726,W,000.0,000.0,260425,,,A,V*14
[13:12:39] $GPGGA,171239.680,4020.7226852,N,08007.7262732,W,1,26,0.6,327.592,M,-33.184,M,,0000*65
[13:12:39] $GNRMC,171239.680,A,4020.7226852,N,08007.7262732,W,000.0,000.0,260425,,,A,V*1E
[13:12:39] $GPGGA,171239.720,4020.7226853,N,08007.7262738,W,1,26,0.6,327.591,M,-33.184,M,,0000*66
[13:12:39] $GNRMC,171239.720,A,4020.7226853,N,08007.7262738,W,000.0,000.0,260425,,,A,V*1E
[13:12:39] $GPGGA,171239.760,4020.7226853,N,08007.7262743,W,1,26,0.6,327.591,M,-33.184,M,,0000*6E
[13:12:39] $GNRMC,171239.760,A,4020.7226853,N,08007.7262743,W,000.0,000.0,260425,,,A,V*16
[13:12:39] $GPGGA,171239.800,4020.7226854,N,08007.7262749,W,1,26,0.6,327.591,M,-33.184,M,,0000*6A
[13:12:39] $GNRMC,171239.800,A,4020.7226854,N,08007.7262749,W,000.0,000.0,260425,,,A,V*12
[13:12:39] $GPGGA,171239.840,4020.7226855,N,08007.7262755,W,1,26,0.6,327.591,M,-33.184,M,,0000*62
[13:12:39] $GNRMC,171239.840,A,4020.7226855,N,08007.7262755,W,000.0,000.0,260425,,,A,V*1A
[13:12:39] $GPGGA,171239.880,4020.7226855,N,08007.7262761,W,1,26,0.6,327.591,M,-33.184,M,,0000*69
[13:12:39] $GNRMC,171239.880,A,4020.7226855,N,08007.7262761,W,000.0,000.0,260425,,,A,V*11
[13:12:39] $GPGGA,171239.920,4020.7226856,N,08007.7262767,W,1,26,0.6,327.590,M,-33.184,M,,0000*66
[13:12:39] $GNRMC,171239.920,A,4020.7226856,N,08007.7262767,W,000.0,000.0,260425,,,A,V*1F
[13:12:40] $GPGGA,171240.000,4020.7226848,N,08007.7262638,W,1,26,0.6,327.511,M,-33.100,M,,0000*62
[13:12:40] $GNRMC,171240.000,A,4020.7226848,N,08007.7262638,W,000.0,000.0,260425,,,A,V*1E
[13:12:40] $GPGGA,101527.240,4020.7226848,N,08007.7262638,W,1,26,0.6,327.595,M,-33.184,M,,0000*65
[13:12:40] $GNRMC,101527.240,A,4020.7226848,N,08007.7262638,W,000.0,000.0,150625,,,A,V*1B
[13:12:40] $GPGGA,171240.040,4020.7226847,N,08007.7262639,W,1,26,0.6,327.595,M,-33.184,M,,0000*68
[13:12:40] $GNRMC,171240.040,A,4020.7226847,N,08007.7262639,W,000.0,000.0,260425,,,A,V*14
[13:12:40] $GPGGA,171240.080,4020.7226846,N,08007.7262639,W,1,26,0.6,327.596,M,-33.184,M,,0000*66
[13:12:40] $GNRMC,171240.080,A,4020.7226846,N,08007.7262639,W,000.0,000.0,260425,,,A,V*19
[13:12:40] $GPGGA,171240.120,4020.7226844,N,08007.7262640,W,1,26,0.6,327.597,M,-33.184,M,,0000*60
[13:12:40] $GNRMC,171240.120,A,4020.7226844,N,08007.7262640,W,000.0,000.0,260425,,,A,V*1E
[13:12:40] $GPGGA,171240.160,4020.7226843,N,08007.7262641,W,1,26,0.6,327.597,M,-33.184,M,,0000*62
[13:12:40] $GNRMC,171240.160,A,4020.7226843,N,08007.7262641,W,000.0,000.0,260425,,,A,V*1C
[13:12:40] $GPGGA,171240.200,4020.7226841,N,08007.7262641,W,1,26,0.6,327.598,M,-33.184,M,,0000*6A
[13:12:40] $GNRMC,171240.200,A,4020.7226841,N,08007.7262641,W,000.0,000.0,260425,,,A,V*1B
[13:12:40] $GPGGA,171240.240,4020.7226840,N,08007.7262642,W,1,26,0.6,327.599,M,-33.184,M,,0000*6D
[13:12:40] $GNRMC,171240.240,A,4020.7226840,N,08007.7262642,W,000.0,000.0,260425,,,A,V*1D
[13:12:40] $GPGGA,171240.280,4020.7226839,N,08007.7262642,W,1,26,0.6,327.599,M,-33.184,M,,0000*6F
[13:12:40] $GNRMC,171240.280,A,4020.7226839,N,08007.7262642,W,000.0,000.0,260425,,,A,V*1F
[13:12:40] $GPGGA,171240.320,4020.7226837,N,08007.7262643,W,1,26,0.6,327.600,M,-33.184,M,,0000*68
[13:12:40] $GNRMC,171240.320,A,4020.7226837,N,08007.7262643,W,000.0,000.0,260425,,,A,V*1B
[13:12:40] $GPGGA,171240.360,4020.7226836,N,08007.7262644,W,1,26,0.6,327.601,M,-33.184,M,,0000*6B
[13:12:40] $GNRMC,171240.360,A,4020.7226836,N,08007.7262644,W,000.0,000.0,260425,,,A,V*19
[13:12:40] $GPGGA,171240.400,4020.7226834,N,08007.7262644,W,1,26,0.6,327.601,M,-33.184,M,,0000*68
[13:12:40] $GNRMC,171240.400,A,4020.7226834,N,08007.7262644,W,000.0,000.0,260425,,,A,V*1A
[13:12:40] $GPGGA,171240.440,4020.7226833,N,08007.7262645,W,1,26,0.6,327.602,M,-33.184,M,,0000*69
[13:12:40] $GNRMC,171240.440,A,4020.7226833,N,08007.7262645,W,000.0,000.0,260425,,,A,V*18
[13:12:40] $GPGGA,171240.480,4020.7226832,N,08007.7262645,W,1,26,0.6,327.603,M,-33.184,M,,0000*65
[13:12:40] $GNRMC,171240.480,A,4020.7226832,N,08007.7262645,W,000.0,000.0,260425,,,A,V*15
[13:12:40] $GPGGA,171240.520,4020.7226830,N,08007.7262646,W,1,26,0.6,327.603,M,-33.184,M,,0000*6F
[13:12:40] $GNRMC,171240.520,A,4020.7226830,N,08007.7262646,W,000.0,000.0,260425,,,A,V*1F
[13:12:40] $GPGGA,171240.560,4020.7226829,N,08007.7262647,W,1,26,0.6,327.604,M,-33.184,M,,0000*65
[13:12:40] $GNRMC,171240.560,A,4020.7226829,N,08007.7262647,W,000.0,000.0,260425,,,A,V*12
[13:12:40] $GPGGA,171240.600,4020.7226827,N,08007.7262647,W,1,26,0.6,327.604,M,-33.184,M,,0000*6E
[13:12:40] $GNRMC,171240.600,A,4020.7226827,N,08007.7262647,W,000.0,000.0,260425,,,A,V*19
[13:12:40] $GPGGA,171240.640,4020.7226826,N,08007.7262648,W,1,26,0.6,327.605,M,-33.184,M,,0000*65
[13:12:40] $GNRMC,171240.640,A,4020.7226826,N,08007.7262648,W,000.0,000.0,260425,,,A,V*13
[13:12:40] $GPGGA,171240.680,4020.7226825,N,08007.7262648,W,1,26,0.6,327.606,M,-33.184,M,,0000*69
[13:12:40] $GNRMC,171240.680,A,4020.7226825,N,08007.7262648,W,000.0,000.0,260425,,,A,V*1C
[13:12:40] $GPGGA,171240.720,4020.7226823,N,08007.7262649,W,1,26,0.6,327.606,M,-33.184,M,,0000*65
[13:12:40] $GNRMC,171240.720,A,4020.7226823,N,08007.7262649,W,000.0,000.0,260425,,,A,V*10
[13:12:40] $GPGGA,171240.760,4020.7226822,N,08007.7262650,W,1,26,0.6,327.607,M,-33.184,M,,0000*69
[13:12:40] $GNRMC,171240.760,A,4020.7226822,N,08007.7262650,W,000.0,000.0,260425,,,A,V*1D
[13:12:40] $GPGGA,171240.800,4020.7226820,N,08007.7262650,W,1,26,0.6,327.608,M,-33.184,M,,0000*6D
[13:12:40] $GNRMC,171240.800,A,4020.7226820,N,08007.7262650,W,000.0,000.0,260425,,,A,V*16
[13:12:40] $GPGGA,171240.840,4020.7226819,N,08007.7262651,W,1,26,0.6,327.608,M,-33.184,M,,0000*62
[13:12:40] $GNRMC,171240.840,A,4020.7226819,N,08007.7262651,W,000.0,000.0,260425,,,A,V*19
[13:12:40] $GPGGA,171240.880,4020.7226818,N,08007.7262651,W,1,26,0.6,327.609,M,-33.184,M,,0000*6E
[13:12:40] $GNRMC,171240.880,A,4020.7226818,N,08007.7262651,W,000.0,000.0,260425,,,A,V*14
[13:12:40] $GPGGA,171240.920,4020.7226816,N,08007.7262652,W,1,26,0.6,327.610,M,-33.184,M,,0000*60
[13:12:40] $GNRMC,171240.920,A,4020.7226816,N,08007.7262652,W,000.0,000.0,260425,,,A,V*12
[13:12:41] $GNRMC,171241.000,A,4020.7226861,N,08007.7262667,W,000.0,000.0,260425,,,A,V*1E
[13:12:41] $GPGGA,101528.240,4020.7226861,N,08007.7262667,W,1,27,0.5,327.595,M,-33.184,M,,0000*69
[13:12:41] $GNRMC,101528.240,A,4020.7226861,N,08007.7262667,W,000.0,000.0,150625,,,A,V*15
[13:12:41] $GPGGA,171241.040,4020.7226860,N,08007.7262670,W,1,27,0.5,327.596,M,-33.184,M,,0000*60
[13:12:41] $GNRMC,171241.040,A,4020.7226860,N,08007.7262670,W,000.0,000.0,260425,,,A,V*1D
[13:12:41] $GPGGA,171241.080,4020.7226859,N,08007.7262673,W,1,27,0.5,327.596,M,-33.184,M,,0000*65
[13:12:41] $GNRMC,171241.080,A,4020.7226859,N,08007.7262673,W,000.0,000.0,260425,,,A,V*18
[13:12:41] $GPGGA,171241.120,4020.7226857,N,08007.7262677,W,1,27,0.5,327.596,M,-33.184,M,,0000*64
[13:12:41] $GNRMC,171241.120,A,4020.7226857,N,08007.7262677,W,000.0,000.0,260425,,,A,V*19
[13:12:41] $GPGGA,171241.160,4020.7226856,N,08007.7262680,W,1,27,0.5,327.596,M,-33.184,M,,0000*69
[13:12:41] $GNRMC,171241.160,A,4020.7226856,N,08007.7262680,W,000.0,000.0,260425,,,A,V*14
[13:12:41] $GPGGA,171241.200,4020.7226855,N,08007.7262684,W,1,27,0.5,327.597,M,-33.184,M,,0000*6A
[13:12:41] $GNRMC,171241.200,A,4020.7226855,N,08007.7262684,W,000.0,000.0,260425,,,A,V*16
[13:12:41] $GPGGA,171241.240,4020.7226854,N,08007.7262687,W,1,27,0.5,327.597,M,-33.184,M,,0000*6C
[13:12:41] $GNRMC,171241.240,A,4020.7226854,N,08007.7262687,W,000.0,000.0,260425,,,A,V*10
[13:12:41] $GPGGA,171241.280,4020.7226853,N,08007.7262690,W,1,27,0.5,327.597,M,-33.184,M,,0000*61
[13:12:41] $GNRMC,171241.280,A,4020.7226853,N,08007.7262690,W,000.0,000.0,260425,,,A,V*1D
[13:12:41] $GPGGA,171241.320,4020.7226852,N,08007.7262694,W,1,27,0.5,327.597,M,-33.184,M,,0000*6F
[13:12:41] $GNRMC,171241.320,A,4020.7226852,N,08007.7262694,W,000.0,000.0,260425,,,A,V*13
[13:12:41] $GPGGA,171241.360,4020.7226851,N,08007.7262697,W,1,27,0.5,327.598,M,-33.184,M,,0000*64
[13:12:41] $GNRMC,171241.360,A,4020.7226851,N,08007.7262697,W,000.0,000.0,260425,,,A,V*17
[13:12:41] $GPGGA,171241.400,4020.7226850,N,08007.7262701,W,1,27,0.5,327.598,M,-33.184,M,,0000*6A
[13:12:41] $GNRMC,171241.400,A,4020.7226850,N,08007.7262701,W,000.0,000.0,260425,,,A,V*19
[13:12:41] $GPGGA,171241.440,4020.7226849,N,08007.7262704,W,1,27,0.5,327.598,M,-33.184,M,,0000*63
[13:12:41] $GNRMC,171241.440,A,4020.7226849,N,08007.7262704,W,000.0,000.0,260425,,,A,V*10
[13:12:41] $GPGGA,171241.480,4020.7226848,N,08007.7262707,W,1,27,0.5,327.598,M,-33.184,M,,0000*6D
[13:12:41] $GNRMC,171241.480,A,4020.7226848,N,08007.7262707,W,000.0,000.0,260425,,,A,V*1E
[13:12:41] $GPGGA,171241.520,4020.7226847,N,08007.7262711,W,1,27,0.5,327.599,M,-33.184,M,,0000*6F
[13:12:41] $GNRMC,171241.520,A,4020.7226847,N,08007.7262711,W,000.0,000.0,260425,,,A,V*1D
[13:12:41] $GPGGA,171241.560,4020.7226846,N,08007.7262714,W,1,27,0.5,327.599,M,-33.184,M,,0000*6F
[13:12:41] $GNRMC,171241.560,A,4020.7226846,N,08007.7262714,W,000.0,000.0,260425,,,A,V*1D
[13:12:41] $GPGGA,171241.600,4020.7226845,N,08007.7262718,W,1,27,0.5,327.599,M,-33.184,M,,0000*65
[13:12:41] $GNRMC,171241.600,A,4020.7226845,N,08007.7262718,W,000.0,000.0,260425,,,A,V*17
[13:12:41] $GPGGA,171241.640,4020.7226844,N,08007.7262721,W,1,27,0.5,327.599,M,-33.184,M,,0000*6A
[13:12:41] $GNRMC,171241.640,A,4020.7226844,N,08007.7262721,W,000.0,000.0,260425,,,A,V*18
[13:12:41] $GPGGA,171241.680,4020.7226842,N,08007.7262724,W,1,27,0.5,327.600,M,-33.184,M,,0000*66
[13:12:41] $GNRMC,171241.680,A,4020.7226842,N,08007.7262724,W,000.0,000.0,260425,,,A,V*17
[13:12:41] $GPGGA,171241.720,4020.7226841,N,08007.7262728,W,1,27,0.5,327.600,M,-33.184,M,,0000*62
[13:12:41] $GNRMC,171241.720,A,4020.7226841,N,08007.7262728,W,000.0,000.0,260425,,,A,V*13
[13:12:41] $GPGGA,171241.760,4020.7226840,N,08007.7262731,W,1,27,0.5,327.600,M,-33.184,M,,0000*6F
[13:12:41] $GNRMC,171241.760,A,4020.7226840,N,08007.7262731,W,000.0,000.0,260425,,,A,V*1E
[13:12:41] $GPGGA,171241.800,4020.7226839,N,08007.7262734,W,1,27,0.5,327.601,M,-33.184,M,,0000*6C
[13:12:41] $GNRMC,171241.800,A,4020.7226839,N,08007.7262734,W,000.0,000.0,260425,,,A,V*1C
[13:12:41] $GPGGA,171241.840,4020.7226838,N,08007.7262738,W,1,27,0.5,327.601,M,-33.184,M,,0000*65
[13:12:41] $GNRMC,171241.840,A,4020.7226838,N,08007.7262738,W,000.0,000.0,260425,,,A,V*15
[13:12:41] $GPGGA,171241.880,4020.7226837,N,08007.7262741,W,1,27,0.5,327.601,M,-33.184,M,,0000*68
[13:12:41] $GNRMC,171241.880,A,4020.7226837,N,08007.7262741,W,000.0,000.0,260425,,,A,V*18
[13:12:41] $GPGGA,171241.920,4020.7226836,N,08007.7262745,W,1,27,0.5,327.601,M,-33.184,M,,0000*66
[13:12:41] $GNRMC,171241.920,A,4020.7226836,N,08007.7262745,W,000.0,000.0,260425,,,A,V*16
[13:12:42] $GNRMC,171242.000,A,4020.7226858,N,08007.7262689,W,000.0,000.0,260425,,,A,V*17
[13:12:42] $GPGGA,101529.240,4020.7226858,N,08007.7262689,W,1,27,0.5,327.600,M,-33.184,M,,0000*6D
[13:12:42] $GNRMC,101529.240,A,4020.7226858,N,08007.7262689,W,000.0,000.0,150625,,,A,V*1E
[13:12:42] $GPGGA,171242.040,4020.7226857,N,08007.7262691,W,1,27,0.5,327.600,M,-33.184,M,,0000*64
[13:12:42] $GNRMC,171242.040,A,4020.7226857,N,08007.7262691,W,000.0,000.0,260425,,,A,V*15
[13:12:42] $GPGGA,171242.080,4020.7226856,N,08007.7262694,W,1,27,0.5,327.601,M,-33.184,M,,0000*6D
[13:12:42] $GNRMC,171242.080,A,4020.7226856,N,08007.7262694,W,000.0,000.0,260425,,,A,V*1D
[13:12:42] $GPGGA,171242.120,4020.7226855,N,08007.7262696,W,1,27,0.5,327.601,M,-33.184,M,,0000*67
[13:12:42] $GNRMC,171242.120,A,4020.7226855,N,08007.7262696,W,000.0,000.0,260425,,,A,V*17
[13:12:42] $GPGGA,171242.160,4020.7226854,N,08007.7262699,W,1,27,0.5,327.602,M,-33.184,M,,0000*6E
[13:12:42] $GNRMC,171242.160,A,4020.7226854,N,08007.7262699,W,000.0,000.0,260425,,,A,V*1D
[13:12:42] $GPGGA,171242.200,4020.7226853,N,08007.7262701,W,1,27,0.5,327.602,M,-33.184,M,,0000*6C
[13:12:42] $GNRMC,171242.200,A,4020.7226853,N,08007.7262701,W,000.0,000.0,260425,,,A,V*1F
[13:12:42] $GPGGA,171242.240,4020.7226852,N,08007.7262703,W,1,27,0.5,327.602,M,-33.184,M,,0000*6B
[13:12:42] $GNRMC,171242.240,A,4020.7226852,N,08007.7262703,W,000.0,000.0,260425,,,A,V*18
[13:12:42] $GPGGA,171242.280,4020.7226851,N,08007.7262706,W,1,27,0.5,327.603,M,-33.184,M,,0000*60
[13:12:42] $GNRMC,171242.280,A,4020.7226851,N,08007.7262706,W,000.0,000.0,260425,,,A,V*12
[13:12:42] $GPGGA,171242.320,4020.7226850,N,08007.7262708,W,1,27,0.5,327.603,M,-33.184,M,,0000*64
[13:12:42] $GNRMC,171242.320,A,4020.7226850,N,08007.7262708,W,000.0,000.0,260425,,,A,V*16
[13:12:42] $GPGGA,171242.360,4020.7226849,N,08007.7262711,W,1,27,0.5,327.603,M,-33.184,M,,0000*60
[13:12:42] $GNRMC,171242.360,A,4020.7226849,N,08007.7262711,W,000.0,000.0,260425,,,A,V*12
[13:12:42] $GPGGA,171242.400,4020.7226848,N,08007.7262713,W,1,27,0.5,327.604,M,-33.184,M,,0000*65
[13:12:42] $GNRMC,171242.400,A,4020.7226848,N,08007.7262713,W,000.0,000.0,260425,,,A,V*10
[13:12:42] $GPGGA,171242.440,4020.7226846,N,08007.7262715,W,1,27,0.5,327.604,M,-33.184,M,,0000*69
[13:12:42] $GNRMC,171242.440,A,4020.7226846,N,08007.7262715,W,000.0,000.0,260425,,,A,V*1C
[13:12:42] $GPGGA,171242.480,4020.7226845,N,08007.7262718,W,1,27,0.5,327.604,M,-33.184,M,,0000*6B
[13:12:42] $GNRMC,171242.480,A,4020.7226845,N,08007.7262718,W,000.0,000.0,260425,,,A,V*1E
[13:12:42] $GPGGA,171242.520,4020.7226844,N,08007.7262720,W,1,27,0.5,327.605,M,-33.184,M,,0000*6B
[13:12:42] $GNRMC,171242.520,A,4020.7226844,N,08007.7262720,W,000.0,000.0,260425,,,A,V*1F
[13:12:42] $GPGGA,171242.560,4020.7226843,N,08007.7262723,W,1,27,0.5,327.605,M,-33.184,M,,0000*6B
[13:12:42] $GNRMC,171242.560,A,4020.7226843,N,08007.7262723,W,000.0,000.0,260425,,,A,V*1F
[13:12:42] $GPGGA,171242.600,4020.7226842,N,08007.7262725,W,1,27,0.5,327.606,M,-33.184,M,,0000*6A
[13:12:42] $GNRMC,171242.600,A,4020.7226842,N,08007.7262725,W,000.0,000.0,260425,,,A,V*1D
[13:12:42] $GPGGA,171242.640,4020.7226841,N,08007.7262727,W,1,27,0.5,327.606,M,-33.184,M,,0000*6F
[13:12:42] $GNRMC,171242.640,A,4020.7226841,N,08007.7262727,W,000.0,000.0,260425,,,A,V*18
[13:12:42] $GPGGA,171242.680,4020.7226840,N,08007.7262730,W,1,27,0.5,327.606,M,-33.184,M,,0000*64
[13:12:42] $GNRMC,171242.680,A,4020.7226840,N,08007.7262730,W,000.0,000.0,260425,,,A,V*13
[13:12:42] $GPGGA,171242.720,4020.7226839,N,08007.7262732,W,1,27,0.5,327.607,M,-33.184,M,,0000*62
[13:12:42] $GNRMC,171242.720,A,4020.7226839,N,08007.7262732,W,000.0,000.0,260425,,,A,V*14
[13:12:42] $GPGGA,171242.760,4020.7226838,N,08007.7262735,W,1,27,0.5,327.607,M,-33.184,M,,0000*60
[13:12:42] $GNRMC,171242.760,A,4020.7226838,N,08007.7262735,W,000.0,000.0,260425,,,A,V*16
[13:12:42] $GPGGA,171242.800,4020.7226837,N,08007.7262737,W,1,27,0.5,327.607,M,-33.184,M,,0000*64
[13:12:42] $GNRMC,171242.800,A,4020.7226837,N,08007.7262737,W,000.0,000.0,260425,,,A,V*12
[13:12:42] $GPGGA,171242.840,4020.7226836,N,08007.7262739,W,1,27,0.5,327.608,M,-33.184,M,,0000*60
[13:12:42] $GNRMC,171242.840,A,4020.7226836,N,08007.7262739,W,000.0,000.0,260425,,,A,V*19
[13:12:42] $GPGGA,171242.880,4020.7226835,N,08007.7262742,W,1,27,0.5,327.608,M,-33.184,M,,0000*63
[13:12:42] $GNRMC,171242.880,A,4020.7226835,N,08007.7262742,W,000.0,000.0,260425,,,A,V*1A
[13:12:42] $GPGGA,171242.920,4020.7226834,N,08007.7262744,W,1,27,0.5,327.609,M,-33.184,M,,0000*6E
[13:12:42] $GNRMC,171242.920,A,4020.7226834,N,08007.7262744,W,000.0,000.0,260425,,,A,V*16
[13:12:43] $GNRMC,171243.000,A,4020.7226867,N,08007.7262717,W,000.0,000.0,260425,,,A,V*1C
[13:12:43] $GPGGA,101530.240,4020.7226867,N,08007.7262717,W,1,26,0.5,327.601,M,-33.184,M,,0000*6F
[13:12:43] $GNRMC,101530.240,A,4020.7226867,N,08007.7262717,W,000.0,000.0,150625,,,A,V*1C
[13:12:43] $GPGGA,171243.040,4020.7226866,N,08007.7262719,W,1,26,0.5,327.601,M,-33.184,M,,0000*66
[13:12:43] $GNRMC,171243.040,A,4020.7226866,N,08007.7262719,W,000.0,000.0,260425,,,A,V*17
[13:12:43] $GPGGA,171243.080,4020.7226865,N,08007.7262722,W,1,26,0.5,327.602,M,-33.184,M,,0000*62
[13:12:43] $GNRMC,171243.080,A,4020.7226865,N,08007.7262722,W,000.0,000.0,260425,,,A,V*10
[13:12:43] $GPGGA,171243.120,4020.7226864,N,08007.7262724,W,1,26,0.5,327.602,M,-33.184,M,,0000*6E
[13:12:43] $GNRMC,171243.120,A,4020.7226864,N,08007.7262724,W,000.0,000.0,260425,,,A,V*1C
[13:12:43] $GPGGA,171243.160,4020.7226863,N,08007.7262727,W,1,26,0.5,327.602,M,-33.184,M,,0000*6E
[13:12:43] $GNRMC,171243.160,A,4020.7226863,N,08007.7262727,W,000.0,000.0,260425,,,A,V*1C
[13:12:43] $GPGGA,171243.200,4020.7226862,N,08007.7262729,W,1,26,0.5,327.603,M,-33.184,M,,0000*65
[13:12:43] $GNRMC,171243.200,A,4020.7226862,N,08007.7262729,W,000.0,000.0,260425,,,A,V*16
[13:12:43] $GPGGA,171243.240,4020.7226861,N,08007.7262732,W,1,26,0.5,327.603,M,-33.184,M,,0000*68
[13:12:43] $GNRMC,171243.240,A,4020.7226861,N,08007.7262732,W,000.0,000.0,260425,,,A,V*1B
[13:12:43] $GPGGA,171243.280,4020.7226860,N,08007.7262734,W,1,26,0.5,327.603,M,-33.184,M,,0000*63
[13:12:43] $GNRMC,171243.280,A,4020.7226860,N,08007.7262734,W,000.0,000.0,260425,,,A,V*10
[13:12:43] $GPGGA,171243.320,4020.7226859,N,08007.7262737,W,1,26,0.5,327.603,M,-33.184,M,,0000*61
[13:12:43] $GNRMC,171243.320,A,4020.7226859,N,08007.7262737,W,000.0,000.0,260425,,,A,V*12
[13:12:43] $GPGGA,171243.360,4020.7226858,N,08007.7262739,W,1,26,0.5,327.604,M,-33.184,M,,0000*6D
[13:12:43] $GNRMC,171243.360,A,4020.7226858,N,08007.7262739,W,000.0,000.0,260425,,,A,V*19
[13:12:43] $GPGGA,171243.400,4020.7226856,N,08007.7262742,W,1,26,0.5,327.604,M,-33.184,M,,0000*6E
[13:12:43] $GNRMC,171243.400,A,4020.7226856,N,08007.7262742,W,000.0,000.0,260425,,,A,V*1A
[13:12:43] $GPGGA,171243.440,4020.7226855,N,08007.7262745,W,1,26,0.5,327.604,M,-33.184,M,,0000*6E
[13:12:43] $GNRMC,171243.440,A,4020.7226855,N,08007.7262745,W,000.0,000.0,260425,,,A,V*1A
[13:12:43] $GPGGA,171243.480,4020.7226854,N,08007.7262747,W,1,26,0.5,327.605,M,-33.184,M,,0000*60
[13:12:43] $GNRMC,171243.480,A,4020.7226854,N,08007.7262747,W,000.0,000.0,260425,,,A,V*15
[13:12:43] $GPGGA,171243.520,4020.7226853,N,08007.7262750,W,1,26,0.5,327.605,M,-33.184,M,,0000*6A
[13:12:43] $GNRMC,171243.520,A,4020.7226853,N,08007.7262750,W,000.0,000.0,260425,,,A,V*1F
[13:12:43] $GPGGA,171243.560,4020.7226852,N,08007.7262752,W,1,26,0.5,327.605,M,-33.184,M,,0000*6D
[13:12:43] $GNRMC,171243.560,A,4020.7226852,N,08007.7262752,W,000.0,000.0,260425,,,A,V*18
[13:12:43] $GPGGA,171243.600,4020.7226851,N,08007.7262755,W,1,26,0.5,327.606,M,-33.184,M,,0000*6F
[13:12:43] $GNRMC,171243.600,A,4020.7226851,N,08007.7262755,W,000.0,000.0,260425,,,A,V*19
[13:12:43] $GPGGA,171243.640,4020.7226850,N,08007.7262757,W,1,26,0.5,327.606,M,-33.184,M,,0000*68
[13:12:43] $GNRMC,171243.640,A,4020.7226850,N,08007.7262757,W,000.0,000.0,260425,,,A,V*1E
[13:12:43] $GPGGA,171243.680,4020.7226849,N,08007.7262760,W,1,26,0.5,327.606,M,-33.184,M,,0000*68
[13:12:43] $GNRMC,171243.680,A,4020.7226849,N,08007.7262760,W,000.0,000.0,260425,,,A,V*1E
[13:12:43] $GPGGA,171243.720,4020.7226848,N,08007.7262762,W,1,26,0.5,327.606,M,-33.184,M,,0000*60
[13:12:43] $GNRMC,171243.720,A,4020.7226848,N,08007.7262762,W,000.0,000.0,260425,,,A,V*16
[13:12:43] $GPGGA,171243.760,4020.7226847,N,08007.7262765,W,1,26,0.5,327.607,M,-33.184,M,,0000*6D
[13:12:43] $GNRMC,171243.760,A,4020.7226847,N,08007.7262765,W,000.0,000.0,260425,,,A,V*1A
[13:12:43] $GPGGA,171243.800,4020.7226846,N,08007.7262767,W,1,26,0.5,327.607,M,-33.184,M,,0000*67
[13:12:43] $GNRMC,171243.800,A,4020.7226846,N,08007.7262767,W,000.0,000.0,260425,,,A,V*10
[13:12:43] $GPGGA,171243.840,4020.7226844,N,08007.7262770,W,1,26,0.5,327.607,M,-33.184,M,,0000*67
[13:12:43] $GNRMC,171243.840,A,4020.7226844,N,08007.7262770,W,000.0,000.0,260425,,,A,V*10
[13:12:43] $GPGGA,171243.880,4020.7226843,N,08007.7262772,W,1,26,0.5,327.608,M,-33.184,M,,0000*61
[13:12:43] $GNRMC,171243.880,A,4020.7226843,N,08007.7262772,W,000.0,000.0,260425,,,A,V*19
[13:12:43] $GPGGA,171243.920,4020.7226842,N,08007.7262775,W,1,26,0.5,327.608,M,-33.184,M,,0000*6C
[13:12:43] $GNRMC,171243.920,A,4020.7226842,N,08007.7262775,W,000.0,000.0,260425,,,A,V*14
