[17:52:10] $GPGGA,215210.360,4020.7218658,N,08007.7278714,W,1,23,0.6,330.312,M,-33.184,M,,0000*6F
[17:52:10] $GNRMC,215210.360,A,4020.7218658,N,08007.7278714,W,000.0,000.0,230425,,,A,V*1C
[17:52:10] $GPGGA,215210.400,4020.7218658,N,08007.7278715,W,1,23,0.6,330.313,M,-33.184,M,,0000*6E
[17:52:10] $GNRMC,215210.400,A,4020.7218658,N,08007.7278715,W,000.0,000.0,230425,,,A,V*1C
[17:52:10] $GPGGA,215210.440,4020.7218658,N,08007.7278716,W,1,23,0.6,330.314,M,-33.184,M,,0000*6E
[17:52:10] $GNRMC,215210.440,A,4020.7218658,N,08007.7278716,W,000.0,000.0,230425,,,A,V*1B
[17:52:10] $GPGGA,215210.480,4020.7218658,N,08007.7278717,W,1,23,0.6,330.315,M,-33.184,M,,0000*62
[17:52:10] $GNRMC,215210.480,A,4020.7218658,N,08007.7278717,W,000.0,000.0,230425,,,A,V*16
[17:52:10] $GPGGA,215210.520,4020.7218658,N,08007.7278718,W,1,23,0.6,330.316,M,-33.184,M,,0000*65
[17:52:10] $GNRMC,215210.520,A,4020.7218658,N,08007.7278718,W,000.0,000.0,230425,,,A,V*12
[17:52:10] $GPGGA,215210.560,4020.7218658,N,08007.7278718,W,1,23,0.6,330.317,M,-33.184,M,,0000*60
[17:52:10] $GNRMC,215210.560,A,4020.7218658,N,08007.7278718,W,000.0,000.0,230425,,,A,V*16
[17:52:10] $GPGGA,215210.600,4020.7218658,N,08007.7278719,W,1,23,0.6,330.318,M,-33.184,M,,0000*6B
[17:52:10] $GNRMC,215210.600,A,4020.7218658,N,08007.7278719,W,000.0,000.0,230425,,,A,V*12
[17:52:10] $GPGGA,215210.640,4020.7218658,N,08007.7278720,W,1,23,0.6,330.319,M,-33.184,M,,0000*64
[17:52:10] $GNRMC,215210.640,A,4020.7218658,N,08007.7278720,W,000.0,000.0,230425,,,A,V*1C
[17:52:10] $GPGGA,215210.680,4020.7218658,N,08007.7278721,W,1,23,0.6,330.320,M,-33.184,M,,0000*63
[17:52:10] $GNRMC,215210.680,A,4020.7218658,N,08007.7278721,W,000.0,000.0,230425,,,A,V*11
[17:52:10] $GPGGA,215210.720,4020.7218658,N,08007.7278722,W,1,23,0.6,330.321,M,-33.184,M,,0000*6A
[17:52:10] $GNRMC,215210.720,A,4020.7218658,N,08007.7278722,W,000.0,000.0,230425,,,A,V*19
[17:52:10] $GPGGA,215210.760,4020.7218658,N,08007.7278723,W,1,23,0.6,330.322,M,-33.184,M,,0000*6C
[17:52:10] $GNRMC,215210.760,A,4020.7218658,N,08007.7278723,W,000.0,000.0,230425,,,A,V*1C
[17:52:10] $GPGGA,215210.800,4020.7218658,N,08007.7278723,W,1,23,0.6,330.323,M,-33.184,M,,0000*64
[17:52:10] $GNRMC,215210.800,A,4020.7218658,N,08007.7278723,W,000.0,000.0,230425,,,A,V*15
[17:52:10] $GPGGA,215210.840,4020.7218658,N,08007.7278724,W,1,23,0.6,330.324,M,-33.184,M,,0000*60
[17:52:10] $GNRMC,215210.840,A,4020.7218658,N,08007.7278724,W,000.0,000.0,230425,,,A,V*16
[17:52:10] $GPGGA,215210.880,4020.7218658,N,08007.7278725,W,1,23,0.6,330.325,M,-33.184,M,,0000*6C
[17:52:10] $GNRMC,215210.880,A,4020.7218658,N,08007.7278725,W,000.0,000.0,230425,,,A,V*1B
[17:52:10] $GPGGA,215210.920,4020.7218658,N,08007.7278726,W,1,23,0.6,330.326,M,-33.184,M,,0000*67
[17:52:10] $GNRMC,215210.920,A,4020.7218658,N,08007.7278726,W,000.0,000.0,230425,,,A,V*13
[17:52:11] $GNRMC,215211.000,A,4020.4013101,N,08007.9353569,W,000.0,000.0,230425,,,F,V*10
[17:52:11] $GPGGA,145458.240,4020.4013101,N,08007.9353569,W,5,23,0.6,-201.190,M,-33.184,M,,0000*4D
[17:52:11] $GNRMC,145458.240,A,4020.4013101,N,08007.9353569,W,000.1,000.0,120625,,,F,V*1A
[17:52:11] $GPGGA,215211.040,4020.4013101,N,08007.9353569,W,5,23,0.6,-201.189,M,-33.184,M,,0000*4A
[17:52:11] $GNRMC,215211.040,A,4020.4013101,N,08007.9353569,W,000.1,000.0,230425,,,F,V*15
[17:52:11] $GPGGA,215211.080,4020.4013100,N,08007.9353569,W,5,23,0.6,-201.188,M,-33.184,M,,0000*46
[17:52:11] $GNRMC,215211.080,A,4020.4013100,N,08007.9353569,W,000.1,000.0,230425,,,F,V*18
[17:52:11] $GPGGA,215211.120,4020.4013100,N,08007.9353569,W,5,23,0.6,-201.187,M,-33.184,M,,0000*42
[17:52:11] $GNRMC,215211.120,A,4020.4013100,N,08007.9353569,W,000.1,000.0,230425,,,F,V*13
[17:52:11] $GPGGA,215211.160,4020.4013100,N,08007.9353569,W,5,23,0.6,-201.186,M,-33.184,M,,0000*47
[17:52:11] $GNRMC,215211.160,A,4020.4013100,N,08007.9353569,W,000.1,000.0,230425,,,F,V*17
[17:52:11] $GPGGA,215211.200,4020.4013100,N,08007.9353568,W,5,23,0.6,-201.185,M,-33.184,M,,0000*40
[17:52:11] $GNRMC,215211.200,A,4020.4013100,N,08007.9353568,W,000.1,000.0,230425,,,F,V*13
[17:52:11] $GPGGA,215211.240,4020.4013100,N,08007.9353568,W,5,23,0.6,-201.183,M,-33.184,M,,0000*42
[17:52:11] $GNRMC,215211.240,A,4020.4013100,N,08007.9353568,W,000.1,000.0,230425,,,F,V*17
[17:52:11] $GPGGA,215211.280,4020.4013100,N,08007.9353568,W,5,23,0.6,-201.182,M,-33.184,M,,0000*4F
[17:52:11] $GNRMC,215211.280,A,4020.4013100,N,08007.9353568,W,000.1,000.0,230425,,,F,V*1B
[17:52:11] $GPGGA,215211.320,4020.4013100,N,08007.9353568,W,5,23,0.6,-201.181,M,-33.184,M,,0000*47
[17:52:11] $GNRMC,215211.320,A,4020.4013100,N,08007.9353568,W,000.1,000.0,230425,,,F,V*10
[17:52:11] $GPGGA,215211.360,4020.4013100,N,08007.9353568,W,5,23,0.6,-201.180,M,-33.184,M,,0000*42
[17:52:11] $GNRMC,215211.360,A,4020.4013100,N,08007.9353568,W,000.1,000.0,230425,,,F,V*14
[17:52:11] $GPGGA,215211.400,4020.4013099,N,08007.9353568,W,5,23,0.6,-201.179,M,-33.184,M,,0000*44
[17:52:11] $GNRMC,215211.400,A,4020.4013099,N,08007.9353568,W,000.1,000.0,230425,,,F,V*14
[17:52:11] $GPGGA,215211.440,4020.4013099,N,08007.9353568,W,5,23,0.6,-201.178,M,-33.184,M,,0000*41
[17:52:11] $GNRMC,215211.440,A,4020.4013099,N,08007.9353568,W,000.1,000.0,230425,,,F,V*10
[17:52:11] $GPGGA,215211.480,4020.4013099,N,08007.9353568,W,5,23,0.6,-201.177,M,-33.184,M,,0000*42
[17:52:11] $GNRMC,215211.480,A,4020.4013099,N,08007.9353568,W,000.1,000.0,230425,,,F,V*1C
[17:52:11] $GPGGA,215211.520,4020.4013099,N,08007.9353568,W,5,23,0.6,-201.175,M,-33.184,M,,0000*4B
[17:52:11] $GNRMC,215211.520,A,4020.4013099,N,08007.9353568,W,000.1,000.0,230425,,,F,V*17
[17:52:11] $GPGGA,215211.560,4020.4013099,N,08007.9353568,W,5,23,0.6,-201.174,M,-33.184,M,,0000*4E
[17:52:11] $GNRMC,215211.560,A,4020.4013099,N,08007.9353568,W,000.1,000.0,230425,,,F,V*13
[17:52:11] $GPGGA,215211.600,4020.4013099,N,08007.9353567,W,5,23,0.6,-201.173,M,-33.184,M,,0000*43
[17:52:11] $GNRMC,215211.600,A,4020.4013099,N,08007.9353567,W,000.1,000.0,230425,,,F,V*19
[17:52:11] $GPGGA,215211.640,4020.4013099,N,08007.9353567,W,5,23,0.6,-201.172,M,-33.184,M,,0000*46
[17:52:11] $GNRMC,215211.640,A,4020.4013099,N,08007.9353567,W,000.1,000.0,230425,,,F,V*1D
[17:52:11] $GPGGA,215211.680,4020.4013098,N,08007.9353567,W,5,23,0.6,-201.171,M,-33.184,M,,0000*48
[17:52:11] $GNRMC,215211.680,A,4020.4013098,N,08007.9353567,W,000.1,000.0,230425,,,F,V*10
[17:52:11] $GPGGA,215211.720,4020.4013098,N,08007.9353567,W,5,23,0.6,-201.170,M,-33.184,M,,0000*42
[17:52:11] $GNRMC,215211.720,A,4020.4013098,N,08007.9353567,W,000.1,000.0,230425,,,F,V*1B
[17:52:11] $GPGGA,215211.760,4020.4013098,N,08007.9353567,W,5,23,0.6,-201.168,M,-33.184,M,,0000*4F
[17:52:11] $GNRMC,215211.760,A,4020.4013098,N,08007.9353567,W,000.1,000.0,230425,,,F,V*1F
[17:52:11] $GPGGA,215211.800,4020.4013098,N,08007.9353567,W,5,23,0.6,-201.167,M,-33.184,M,,0000*49
[17:52:11] $GNRMC,215211.800,A,4020.4013098,N,08007.9353567,W,000.1,000.0,230425,,,F,V*16
[17:52:11] $GPGGA,215211.840,4020.4013098,N,08007.9353567,W,5,23,0.6,-201.166,M,-33.184,M,,0000*4C
[17:52:11] $GNRMC,215211.840,A,4020.4013098,N,08007.9353567,W,000.1,000.0,230425,,,F,V*12
[17:52:11] $GPGGA,215211.880,4020.4013098,N,08007.9353567,W,5,23,0.6,-201.165,M,-33.184,M,,0000*43
[17:52:11] $GNRMC,215211.880,A,4020.4013098,N,08007.9353567,W,000.1,000.0,230425,,,F,V*1E
[17:52:11] $GPGGA,215211.920,4020.4013098,N,08007.9353567,W,5,23,0.6,-201.164,M,-33.184,M,,0000*49
[17:52:11] $GNRMC,215211.920,A,4020.4013098,N,08007.9353567,W,000.1,000.0,230425,,,F,V*15
[17:52:11] $GPGGA,215211.960,4020.4013098,N,08007.9353567,W,5,23,0.6,-201.163,M,-33.184,M,,0000*4A
[17:52:11] $GNRMC,215211.960,A,4020.4013098,N,08007.9353567,W,000.1,000.0,230425,,,F,V*11
[17:52:12] $GNRMC,215212.000,A,4020.7218631,N,08007.7278700,W,000.0,000.0,230425,,,A,V*11
[17:52:12] $GPGGA,215212.040,4020.7218631,N,08007.7278701,W,1,23,0.6,330.307,M,-33.184,M,,0000*63
[17:52:12] $GNRMC,215212.040,A,4020.7218631,N,08007.7278701,W,000.1,000.0,230425,,,A,V*15
[17:52:12] $GPGGA,215212.080,4020.7218631,N,08007.7278701,W,1,23,0.6,330.308,M,-33.184,M,,0000*60
[17:52:12] $GNRMC,215212.080,A,4020.7218631,N,08007.7278701,W,000.1,000.0,230425,,,A,V*19
[17:52:12] $GPGGA,215212.120,4020.7218631,N,08007.7278702,W,1,23,0.6,330.309,M,-33.184,M,,0000*69
[17:52:12] $GNRMC,215212.120,A,4020.7218631,N,08007.7278702,W,000.1,000.0,230425,,,A,V*11
[17:52:12] $GPGGA,215212.160,4020.7218631,N,08007.7278702,W,1,23,0.6,330.310,M,-33.184,M,,0000*65
[17:52:12] $GNRMC,215212.160,A,4020.7218631,N,08007.7278702,W,000.1,000.0,230425,,,A,V*15
[17:52:12] $GPGGA,215212.200,4020.7218631,N,08007.7278703,W,1,23,0.6,330.312,M,-33.184,M,,0000*63
[17:52:12] $GNRMC,215212.200,A,4020.7218631,N,08007.7278703,W,000.1,000.0,230425,,,A,V*11
[17:52:12] $GPGGA,215212.240,4020.7218631,N,08007.7278703,W,1,23,0.6,330.313,M,-33.184,M,,0000*66
[17:52:12] $GNRMC,215212.240,A,4020.7218631,N,08007.7278703,W,000.1,000.0,230425,,,A,V*15
[17:52:12] $GPGGA,215212.280,4020.7218631,N,08007.7278704,W,1,23,0.6,330.314,M,-33.184,M,,0000*6A
[17:52:12] $GNRMC,215212.280,A,4020.7218631,N,08007.7278704,W,000.1,000.0,230425,,,A,V*1E
[17:52:12] $GPGGA,215212.320,4020.7218631,N,08007.7278704,W,1,23,0.6,330.315,M,-33.184,M,,0000*60
[17:52:12] $GNRMC,215212.320,A,4020.7218631,N,08007.7278704,W,000.1,000.0,230425,,,A,V*15
[17:52:12] $GPGGA,215212.360,4020.7218631,N,08007.7278705,W,1,23,0.6,330.316,M,-33.184,M,,0000*66
[17:52:12] $GNRMC,215212.360,A,4020.7218631,N,08007.7278705,W,000.1,000.0,230425,,,A,V*10
[17:52:12] $GPGGA,215212.400,4020.7218631,N,08007.7278705,W,1,23,0.6,330.318,M,-33.184,M,,0000*69
[17:52:12] $GNRMC,215212.400,A,4020.7218631,N,08007.7278705,W,000.1,000.0,230425,,,A,V*11
[17:52:12] $GPGGA,215212.440,4020.7218631,N,08007.7278706,W,1,23,0.6,330.319,M,-33.184,M,,0000*6F
[17:52:12] $GNRMC,215212.440,A,4020.7218631,N,08007.7278706,W,000.1,000.0,230425,,,A,V*16
[17:52:12] $GPGGA,215212.480,4020.7218631,N,08007.7278706,W,1,23,0.6,330.320,M,-33.184,M,,0000*69
[17:52:12] $GNRMC,215212.480,A,4020.7218631,N,08007.7278706,W,000.1,000.0,230425,,,A,V*1A
[17:52:12] $GPGGA,215212.520,4020.7218631,N,08007.7278707,W,1,23,0.6,330.321,M,-33.184,M,,0000*62
[17:52:12] $GNRMC,215212.520,A,4020.7218631,N,08007.7278707,W,000.1,000.0,230425,,,A,V*10
[17:52:12] $GPGGA,215212.560,4020.7218631,N,08007.7278707,W,1,23,0.6,330.322,M,-33.184,M,,0000*65
[17:52:12] $GNRMC,215212.560,A,4020.7218631,N,08007.7278707,W,000.1,000.0,230425,,,A,V*14
[17:52:12] $GPGGA,215212.600,4020.7218631,N,08007.7278708,W,1,23,0.6,330.324,M,-33.184,M,,0000*69
[17:52:12] $GNRMC,215212.600,A,4020.7218631,N,08007.7278708,W,000.1,000.0,230425,,,A,V*1E
[17:52:12] $GPGGA,215212.640,4020.7218631,N,08007.7278708,W,1,23,0.6,330.325,M,-33.184,M,,0000*6C
[17:52:12] $GNRMC,215212.640,A,4020.7218631,N,08007.7278708,W,000.1,000.0,230425,,,A,V*1A
[17:52:12] $GPGGA,215212.680,4020.7218631,N,08007.7278709,W,1,23,0.6,330.326,M,-33.184,M,,0000*62
[17:52:12] $GNRMC,215212.680,A,4020.7218631,N,08007.7278709,W,000.1,000.0,230425,,,A,V*17
[17:52:12] $GPGGA,215212.720,4020.7218631,N,08007.7278709,W,1,23,0.6,330.327,M,-33.184,M,,0000*68
[17:52:12] $GNRMC,215212.720,A,4020.7218631,N,08007.7278709,W,000.1,000.0,230425,,,A,V*1C
[17:52:12] $GPGGA,215212.760,4020.7218631,N,08007.7278710,W,1,23,0.6,330.328,M,-33.184,M,,0000*6B
[17:52:12] $GNRMC,215212.760,A,4020.7218631,N,08007.7278710,W,000.1,000.0,230425,,,A,V*10
[17:52:12] $GPGGA,215212.800,4020.7218631,N,08007.7278710,W,1,23,0.6,330.329,M,-33.184,M,,0000*63
[17:52:12] $GNRMC,215212.800,A,4020.7218631,N,08007.7278710,W,000.1,000.0,230425,,,A,V*19
[17:52:12] $GPGGA,215212.840,4020.7218631,N,08007.7278711,W,1,23,0.6,330.331,M,-33.184,M,,0000*6F
[17:52:12] $GNRMC,215212.840,A,4020.7218631,N,08007.7278711,W,000.1,000.0,230425,,,A,V*1C
[17:52:12] $GPGGA,215212.880,4020.7218631,N,08007.7278711,W,1,23,0.6,330.332,M,-33.184,M,,0000*60
[17:52:12] $GNRMC,215212.880,A,4020.7218631,N,08007.7278711,W,000.1,000.0,230425,,,A,V*10
[17:52:12] $GPGGA,215212.920,4020.7218631,N,08007.7278712,W,1,23,0.6,330.333,M,-33.184,M,,0000*69
[17:52:12] $GNRMC,215212.920,A,4020.7218631,N,08007.7278712,W,000.1,000.0,230425,,,A,V*18
[17:52:13] $GNRMC,215213.000,A,4020.7236592,N,08007.7285961,W,000.0,000.0,230425,,,F,V*1A
[17:52:13] $GPGGA,145500.240,4020.7236592,N,08007.7285961,W,5,23,0.6,326.307,M,-33.184,M,,0000*6C
[17:52:13] $GNRMC,145500.240,A,4020.7236592,N,08007.7285961,W,000.1,000.0,120625,,,F,V*1E
[17:52:13] $GPGGA,215213.040,4020.7236592,N,08007.7285961,W,5,23,0.6,326.309,M,-33.184,M,,0000*63
[17:52:13] $GNRMC,215213.040,A,4020.7236592,N,08007.7285961,W,000.1,000.0,230425,,,F,V*1F
[17:52:13] $GPGGA,215213.080,4020.7236592,N,08007.7285961,W,5,23,0.6,326.310,M,-33.184,M,,0000*67
[17:52:13] $GNRMC,215213.080,A,4020.7236592,N,08007.7285961,W,000.1,000.0,230425,,,F,V*13
[17:52:13] $GPGGA,215213.120,4020.7236591,N,08007.7285961,W,5,23,0.6,326.311,M,-33.184,M,,0000*6E
[17:52:13] $GNRMC,215213.120,A,4020.7236591,N,08007.7285961,W,000.1,000.0,230425,,,F,V*1B
[17:52:13] $GPGGA,215213.160,4020.7236591,N,08007.7285962,W,5,23,0.6,326.312,M,-33.184,M,,0000*6A
[17:52:13] $GNRMC,215213.160,A,4020.7236591,N,08007.7285962,W,000.1,000.0,230425,,,F,V*1C
[17:52:13] $GPGGA,215213.200,4020.7236591,N,08007.7285962,W,5,23,0.6,326.314,M,-33.184,M,,0000*69
[17:52:13] $GNRMC,215213.200,A,4020.7236591,N,08007.7285962,W,000.1,000.0,230425,,,F,V*19
[17:52:13] $GPGGA,215213.240,4020.7236591,N,08007.7285962,W,5,23,0.6,326.315,M,-33.184,M,,0000*6C
[17:52:13] $GNRMC,215213.240,A,4020.7236591,N,08007.7285962,W,000.1,000.0,230425,,,F,V*1D
[17:52:13] $GPGGA,215213.280,4020.7236591,N,08007.7285962,W,5,23,0.6,326.316,M,-33.184,M,,0000*63
[17:52:13] $GNRMC,215213.280,A,4020.7236591,N,08007.7285962,W,000.1,000.0,230425,,,F,V*11
[17:52:13] $GPGGA,215213.320,4020.7236591,N,08007.7285962,W,5,23,0.6,326.317,M,-33.184,M,,0000*69
[17:52:13] $GNRMC,215213.320,A,4020.7236591,N,08007.7285962,W,000.1,000.0,230425,,,F,V*1A
[17:52:13] $GPGGA,215213.360,4020.7236590,N,08007.7285962,W,5,23,0.6,326.319,M,-33.184,M,,0000*62
[17:52:13] $GNRMC,215213.360,A,4020.7236590,N,08007.7285962,W,000.1,000.0,230425,,,F,V*1F
[17:52:13] $GPGGA,215213.400,4020.7236590,N,08007.7285962,W,5,23,0.6,326.320,M,-33.184,M,,0000*69
[17:52:13] $GNRMC,215213.400,A,4020.7236590,N,08007.7285962,W,000.1,000.0,230425,,,F,V*1E
[17:52:13] $GPGGA,215213.440,4020.7236590,N,08007.7285962,W,5,23,0.6,326.321,M,-33.184,M,,0000*6C
[17:52:13] $GNRMC,215213.440,A,4020.7236590,N,08007.7285962,W,000.1,000.0,230425,,,F,V*1A
[17:52:13] $GPGGA,215213.480,4020.7236590,N,08007.7285963,W,5,23,0.6,326.322,M,-33.184,M,,0000*62
[17:52:13] $GNRMC,215213.480,A,4020.7236590,N,08007.7285963,W,000.1,000.0,230425,,,F,V*17
[17:52:13] $GPGGA,215213.520,4020.7236590,N,08007.7285963,W,5,23,0.6,326.324,M,-33.184,M,,0000*6F
[17:52:13] $GNRMC,215213.520,A,4020.7236590,N,08007.7285963,W,000.1,000.0,230425,,,F,V*1C
[17:52:13] $GPGGA,215213.560,4020.7236589,N,08007.7285963,W,5,23,0.6,326.325,M,-33.184,M,,0000*62
[17:52:13] $GNRMC,215213.560,A,4020.7236589,N,08007.7285963,W,000.1,000.0,230425,,,F,V*10
[17:52:13] $GPGGA,215213.600,4020.7236589,N,08007.7285963,W,5,23,0.6,326.326,M,-33.184,M,,0000*64
[17:52:13] $GNRMC,215213.600,A,4020.7236589,N,08007.7285963,W,000.1,000.0,230425,,,F,V*15
[17:52:13] $GPGGA,215213.640,4020.7236589,N,08007.7285963,W,5,23,0.6,326.327,M,-33.184,M,,0000*61
[17:52:13] $GNRMC,215213.640,A,4020.7236589,N,08007.7285963,W,000.1,000.0,230425,,,F,V*11
[17:52:13] $GPGGA,215213.680,4020.7236589,N,08007.7285963,W,5,23,0.6,326.329,M,-33.184,M,,0000*63
[17:52:13] $GNRMC,215213.680,A,4020.7236589,N,08007.7285963,W,000.1,000.0,230425,,,F,V*1D
[17:52:13] $GPGGA,215213.720,4020.7236589,N,08007.7285963,W,5,23,0.6,326.330,M,-33.184,M,,0000*60
[17:52:13] $GNRMC,215213.720,A,4020.7236589,N,08007.7285963,W,000.1,000.0,230425,,,F,V*16
[17:52:13] $GPGGA,215213.760,4020.7236588,N,08007.7285963,W,5,23,0.6,326.331,M,-33.184,M,,0000*64
[17:52:13] $GNRMC,215213.760,A,4020.7236588,N,08007.7285963,W,000.1,000.0,230425,,,F,V*13
[17:52:13] $GPGGA,215213.800,4020.7236588,N,08007.7285963,W,5,23,0.6,326.332,M,-33.184,M,,0000*6E
[17:52:13] $GNRMC,215213.800,A,4020.7236588,N,08007.7285963,W,000.1,000.0,230425,,,F,V*1A
[17:52:13] $GPGGA,215213.840,4020.7236588,N,08007.7285964,W,5,23,0.6,326.334,M,-33.184,M,,0000*6B
[17:52:13] $GNRMC,215213.840,A,4020.7236588,N,08007.7285964,W,000.1,000.0,230425,,,F,V*19
[17:52:13] $GPGGA,215213.880,4020.7236588,N,08007.7285964,W,5,23,0.6,326.335,M,-33.184,M,,0000*66
[17:52:13] $GNRMC,215213.880,A,4020.7236588,N,08007.7285964,W,000.1,000.0,230425,,,F,V*15
[17:52:13] $GPGGA,215213.920,4020.7236588,N,08007.7285964,W,5,23,0.6,326.336,M,-33.184,M,,0000*6E
[17:52:13] $GNRMC,215213.920,A,4020.7236588,N,08007.7285964,W,000.1,000.0,230425,,,F,V*1E
[17:52:13] $GPGGA,215213.960,4020.7236588,N,08007.7285964,W,5,23,0.6,326.337,M,-33.184,M,,0000*6B
[17:52:13] $GNRMC,215213.960,A,4020.7236588,N,08007.7285964,W,000.1,000.0,230425,,,F,V*1A
[17:52:14] $GNRMC,215214.000,A,4020.9233165,N,08007.8199092,W,000.0,000.0,230425,,,F,V*1E
[17:52:14] $GPGGA,215214.040,4020.9233166,N,08007.8199093,W,5,23,0.6,12.587,M,-33.186,M,,0000*53
[17:52:14] $GNRMC,215214.040,A,4020.9233166,N,08007.8199093,W,000.0,000.0,230425,,,F,V*18
[17:52:14] $GPGGA,215214.080,4020.9233166,N,08007.8199094,W,5,23,0.6,12.588,M,-33.186,M,,0000*57
[17:52:14] $GNRMC,215214.080,A,4020.9233166,N,08007.8199094,W,000.0,000.0,230425,,,F,V*13
[17:52:14] $GPGGA,215214.120,4020.9233166,N,08007.8199096,W,5,23,0.6,12.589,M,-33.186,M,,0000*5F
[17:52:14] $GNRMC,215214.120,A,4020.9233166,N,08007.8199096,W,000.0,000.0,230425,,,F,V*1A
[17:52:14] $GPGGA,215214.160,4020.9233166,N,08007.8199097,W,5,23,0.6,12.590,M,-33.186,M,,0000*52
[17:52:14] $GNRMC,215214.160,A,4020.9233166,N,08007.8199097,W,000.0,000.0,230425,,,F,V*1F
[17:52:14] $GPGGA,215214.200,4020.9233166,N,08007.8199098,W,5,23,0.6,12.591,M,-33.186,M,,0000*59
[17:52:14] $GNRMC,215214.200,A,4020.9233166,N,08007.8199098,W,000.0,000.0,230425,,,F,V*15
[17:52:14] $GPGGA,215214.240,4020.9233167,N,08007.8199099,W,5,23,0.6,12.592,M,-33.186,M,,0000*5E
[17:52:14] $GNRMC,215214.240,A,4020.9233167,N,08007.8199099,W,000.0,000.0,230425,,,F,V*11
[17:52:14] $GPGGA,215214.280,4020.9233167,N,08007.8199100,W,5,23,0.6,12.593,M,-33.186,M,,0000*52
[17:52:14] $GNRMC,215214.280,A,4020.9233167,N,08007.8199100,W,000.0,000.0,230425,,,F,V*1C
[17:52:14] $GPGGA,215214.320,4020.9233167,N,08007.8199102,W,5,23,0.6,12.594,M,-33.186,M,,0000*5C
[17:52:14] $GNRMC,215214.320,A,4020.9233167,N,08007.8199102,W,000.0,000.0,230425,,,F,V*15
[17:52:14] $GPGGA,215214.360,4020.9233167,N,08007.8199103,W,5,23,0.6,12.595,M,-33.186,M,,0000*58
[17:52:14] $GNRMC,215214.360,A,4020.9233167,N,08007.8199103,W,000.0,000.0,230425,,,F,V*10
[17:52:14] $GPGGA,215214.400,4020.9233168,N,08007.8199104,W,5,23,0.6,12.596,M,-33.186,M,,0000*52
[17:52:14] $GNRMC,215214.400,A,4020.9233168,N,08007.8199104,W,000.0,000.0,230425,,,F,V*19
[17:52:14] $GPGGA,215214.440,4020.9233168,N,08007.8199105,W,5,23,0.6,12.597,M,-33.186,M,,0000*56
[17:52:14] $GNRMC,215214.440,A,4020.9233168,N,08007.8199105,W,000.0,000.0,230425,,,F,V*1C
[17:52:14] $GPGGA,215214.480,4020.9233168,N,08007.8199106,W,5,23,0.6,12.598,M,-33.186,M,,0000*56
[17:52:14] $GNRMC,215214.480,A,4020.9233168,N,08007.8199106,W,000.0,000.0,230425,,,F,V*13
[17:52:14] $GPGGA,215214.520,4020.9233168,N,08007.8199108,W,5,23,0.6,12.599,M,-33.186,M,,0000*52
[17:52:14] $GNRMC,215214.520,A,4020.9233168,N,08007.8199108,W,000.0,000.0,230425,,,F,V*16
[17:52:14] $GPGGA,215214.560,4020.9233169,N,08007.8199109,W,5,23,0.6,12.600,M,-33.186,M,,0000*55
[17:52:14] $GNRMC,215214.560,A,4020.9233169,N,08007.8199109,W,000.0,000.0,230425,,,F,V*12
[17:52:14] $GPGGA,215214.600,4020.9233169,N,08007.8199110,W,5,23,0.6,12.601,M,-33.186,M,,0000*59
[17:52:14] $GNRMC,215214.600,A,4020.9233169,N,08007.8199110,W,000.0,000.0,230425,,,F,V*1F
[17:52:14] $GPGGA,215214.640,4020.9233169,N,08007.8199111,W,5,23,0.6,12.602,M,-33.186,M,,0000*5F
[17:52:14] $GNRMC,215214.640,A,4020.9233169,N,08007.8199111,W,000.0,000.0,230425,,,F,V*1A
[17:52:14] $GPGGA,215214.680,4020.9233169,N,08007.8199113,W,5,23,0.6,12.603,M,-33.186,M,,0000*50
[17:52:14] $GNRMC,215214.680,A,4020.9233169,N,08007.8199113,W,000.0,000.0,230425,,,F,V*14
[17:52:14] $GPGGA,215214.720,4020.9233170,N,08007.8199114,W,5,23,0.6,12.604,M,-33.186,M,,0000*53
[17:52:14] $GNRMC,215214.720,A,4020.9233170,N,08007.8199114,W,000.0,000.0,230425,,,F,V*10
[17:52:14] $GPGGA,215214.760,4020.9233170,N,08007.8199115,W,5,23,0.6,12.606,M,-33.186,M,,0000*54
[17:52:14] $GNRMC,215214.760,A,4020.9233170,N,08007.8199115,W,000.0,000.0,230425,,,F,V*15
[17:52:14] $GPGGA,215214.800,4020.9233170,N,08007.8199116,W,5,23,0.6,12.607,M,-33.186,M,,0000*5F
[17:52:14] $GNRMC,215214.800,A,4020.9233170,N,08007.8199116,W,000.0,000.0,230425,,,F,V*1F
[17:52:14] $GPGGA,215214.840,4020.9233170,N,08007.8199117,W,5,23,0.6,12.608,M,-33.186,M,,0000*55
[17:52:14] $GNRMC,215214.840,A,4020.9233170,N,08007.8199117,W,000.0,000.0,230425,,,F,V*1A
[17:52:14] $GPGGA,215214.880,4020.9233171,N,08007.8199119,W,5,23,0.6,12.609,M,-33.186,M,,0000*57
[17:52:14] $GNRMC,215214.880,A,4020.9233171,N,08007.8199119,W,000.0,000.0,230425,,,F,V*19
[17:52:14] $GPGGA,215214.920,4020.9233171,N,08007.8199120,W,5,23,0.6,12.610,M,-33.186,M,,0000*5E
[17:52:14] $GNRMC,215214.920,A,4020.9233171,N,08007.8199120,W,000.0,000.0,230425,,,F,V*18
[17:52:14] $GPGGA,215214.960,4020.9233171,N,08007.8199121,W,5,23,0.6,12.611,M,-33.186,M,,0000*5A
[17:52:14] $GNRMC,215214.960,A,4020.9233171,N,08007.8199121,W,000.0,000.0,230425,,,F,V*1D
[17:52:15] $GNRMC,215215.000,A,4020.7218589,N,08007.7278690,W,000.0,000.0,230425,,,A,V*1E
[17:52:15] $GPGGA,215215.040,4020.7218588,N,08007.7278690,W,1,23,0.6,330.311,M,-33.184,M,,0000*6B
[17:52:15] $GNRMC,215215.040,A,4020.7218588,N,08007.7278690,W,000.1,000.0,230425,,,A,V*1A
[17:52:15] $GPGGA,215215.080,4020.7218587,N,08007.7278690,W,1,23,0.6,330.313,M,-33.184,M,,0000*6A
[17:52:15] $GNRMC,215215.080,A,4020.7218587,N,08007.7278690,W,000.1,000.0,230425,,,A,V*19
[17:52:15] $GPGGA,215215.120,4020.7218587,N,08007.7278690,W,1,23,0.6,330.314,M,-33.184,M,,0000*66
[17:52:15] $GNRMC,215215.120,A,4020.7218587,N,08007.7278690,W,000.1,000.0,230425,,,A,V*12
[17:52:15] $GPGGA,215215.160,4020.7218586,N,08007.7278690,W,1,23,0.6,330.316,M,-33.184,M,,0000*61
[17:52:15] $GNRMC,215215.160,A,4020.7218586,N,08007.7278690,W,000.1,000.0,230425,,,A,V*17
[17:52:15] $GPGGA,215215.200,4020.7218586,N,08007.7278690,W,1,23,0.6,330.317,M,-33.184,M,,0000*65
[17:52:15] $GNRMC,215215.200,A,4020.7218586,N,08007.7278690,W,000.1,000.0,230425,,,A,V*12
[17:52:15] $GPGGA,215215.240,4020.7218585,N,08007.7278691,W,1,23,0.6,330.319,M,-33.184,M,,0000*6D
[17:52:15] $GNRMC,215215.240,A,4020.7218585,N,08007.7278691,W,000.1,000.0,230425,,,A,V*14
[17:52:15] $GPGGA,215215.280,4020.7218584,N,08007.7278691,W,1,23,0.6,330.320,M,-33.184,M,,0000*6A
[17:52:15] $GNRMC,215215.280,A,4020.7218584,N,08007.7278691,W,000.1,000.0,230425,,,A,V*19
[17:52:15] $GPGGA,215215.320,4020.7218584,N,08007.7278691,W,1,23,0.6,330.321,M,-33.184,M,,0000*60
[17:52:15] $GNRMC,215215.320,A,4020.7218584,N,08007.7278691,W,000.1,000.0,230425,,,A,V*12
[17:52:15] $GPGGA,215215.360,4020.7218583,N,08007.7278691,W,1,23,0.6,330.323,M,-33.184,M,,0000*61
[17:52:15] $GNRMC,215215.360,A,4020.7218583,N,08007.7278691,W,000.1,000.0,230425,,,A,V*11
[17:52:15] $GPGGA,215215.400,4020.7218582,N,08007.7278691,W,1,23,0.6,330.324,M,-33.184,M,,0000*66
[17:52:15] $GNRMC,215215.400,A,4020.7218582,N,08007.7278691,W,000.1,000.0,230425,,,A,V*11
[17:52:15] $GPGGA,215215.440,4020.7218582,N,08007.7278691,W,1,23,0.6,330.326,M,-33.184,M,,0000*60
[17:52:15] $GNRMC,215215.440,A,4020.7218582,N,08007.7278691,W,000.1,000.0,230425,,,A,V*15
[17:52:15] $GPGGA,215215.480,4020.7218581,N,08007.7278691,W,1,23,0.6,330.327,M,-33.184,M,,0000*6E
[17:52:15] $GNRMC,215215.480,A,4020.7218581,N,08007.7278691,W,000.1,000.0,230425,,,A,V*1A
[17:52:15] $GPGGA,215215.520,4020.7218580,N,08007.7278691,W,1,23,0.6,330.329,M,-33.184,M,,0000*6A
[17:52:15] $GNRMC,215215.520,A,4020.7218580,N,08007.7278691,W,000.1,000.0,230425,,,A,V*10
[17:52:15] $GPGGA,215215.560,4020.7218580,N,08007.7278691,W,1,23,0.6,330.330,M,-33.184,M,,0000*66
[17:52:15] $GNRMC,215215.560,A,4020.7218580,N,08007.7278691,W,000.1,000.0,230425,,,A,V*14
[17:52:15] $GPGGA,215215.600,4020.7218579,N,08007.7278691,W,1,23,0.6,330.332,M,-33.184,M,,0000*67
[17:52:15] $GNRMC,215215.600,A,4020.7218579,N,08007.7278691,W,000.1,000.0,230425,,,A,V*17
[17:52:15] $GPGGA,215215.640,4020.7218579,N,08007.7278691,W,1,23,0.6,330.333,M,-33.184,M,,0000*62
[17:52:15] $GNRMC,215215.640,A,4020.7218579,N,08007.7278691,W,000.1,000.0,230425,,,A,V*13
[17:52:15] $GPGGA,215215.680,4020.7218578,N,08007.7278691,W,1,23,0.6,330.334,M,-33.184,M,,0000*68
[17:52:15] $GNRMC,215215.680,A,4020.7218578,N,08007.7278691,W,000.1,000.0,230425,,,A,V*1E
[17:52:15] $GPGGA,215215.720,4020.7218577,N,08007.7278691,W,1,23,0.6,330.336,M,-33.184,M,,0000*6E
[17:52:15] $GNRMC,215215.720,A,4020.7218577,N,08007.7278691,W,000.1,000.0,230425,,,A,V*1A
[17:52:15] $GPGGA,215215.760,4020.7218577,N,08007.7278691,W,1,23,0.6,330.337,M,-33.184,M,,0000*6B
[17:52:15] $GNRMC,215215.760,A,4020.7218577,N,08007.7278691,W,000.1,000.0,230425,,,A,V*1E
[17:52:15] $GPGGA,215215.800,4020.7218576,N,08007.7278691,W,1,23,0.6,330.339,M,-33.184,M,,0000*6D
[17:52:15] $GNRMC,215215.800,A,4020.7218576,N,08007.7278691,W,000.1,000.0,230425,,,A,V*16
[17:52:15] $GPGGA,215215.840,4020.7218575,N,08007.7278691,W,1,23,0.6,330.340,M,-33.184,M,,0000*64
[17:52:15] $GNRMC,215215.840,A,4020.7218575,N,08007.7278691,W,000.1,000.0,230425,,,A,V*11
[17:52:15] $GPGGA,215215.880,4020.7218575,N,08007.7278691,W,1,23,0.6,330.342,M,-33.184,M,,0000*6A
[17:52:15] $GNRMC,215215.880,A,4020.7218575,N,08007.7278691,W,000.1,000.0,230425,,,A,V*1D
[17:52:15] $GPGGA,215215.920,4020.7218574,N,08007.7278691,W,1,23,0.6,330.343,M,-33.184,M,,0000*61
[17:52:15] $GNRMC,215215.920,A,4020.7218574,N,08007.7278691,W,000.1,000.0,230425,,,A,V*17
[17:52:16] $GNRMC,215216.000,A,4020.7237564,N,08007.7283068,W,000.0,000.0,230425,,,F,V*11
[17:52:16] $GPGGA,145503.240,4020.7237564,N,08007.7283068,W,5,23,0.6,326.202,M,-33.184,M,,0000*65
[17:52:16] $GNRMC,145503.240,A,4020.7237564,N,08007.7283068,W,000.1,000.0,120625,,,F,V*13
[17:52:16] $GPGGA,215216.040,4020.7237564,N,08007.7283068,W,5,23,0.6,326.203,M,-33.184,M,,0000*63
[17:52:16] $GNRMC,215216.040,A,4020.7237564,N,08007.7283068,W,000.1,000.0,230425,,,F,V*14
[17:52:16] $GPGGA,215216.080,4020.7237564,N,08007.7283067,W,5,23,0.6,326.204,M,-33.184,M,,0000*67
[17:52:16] $GNRMC,215216.080,A,4020.7237564,N,08007.7283067,W,000.1,000.0,230425,,,F,V*17
[17:52:16] $GPGGA,215216.120,4020.7237564,N,08007.7283067,W,5,23,0.6,326.205,M,-33.184,M,,0000*6D
[17:52:16] $GNRMC,215216.120,A,4020.7237564,N,08007.7283067,W,000.1,000.0,230425,,,F,V*1C
[17:52:16] $GPGGA,215216.160,4020.7237564,N,08007.7283067,W,5,23,0.6,326.206,M,-33.184,M,,0000*6A
[17:52:16] $GNRMC,215216.160,A,4020.7237564,N,08007.7283067,W,000.1,000.0,230425,,,F,V*18
[17:52:16] $GPGGA,215216.200,4020.7237564,N,08007.7283066,W,5,23,0.6,326.208,M,-33.184,M,,0000*60
[17:52:16] $GNRMC,215216.200,A,4020.7237564,N,08007.7283066,W,000.1,000.0,230425,,,F,V*1C
[17:52:16] $GPGGA,215216.240,4020.7237564,N,08007.7283066,W,5,23,0.6,326.209,M,-33.184,M,,0000*65
[17:52:16] $GNRMC,215216.240,A,4020.7237564,N,08007.7283066,W,000.1,000.0,230425,,,F,V*18
[17:52:16] $GPGGA,215216.280,4020.7237563,N,08007.7283066,W,5,23,0.6,326.210,M,-33.184,M,,0000*66
[17:52:16] $GNRMC,215216.280,A,4020.7237563,N,08007.7283066,W,000.1,000.0,230425,,,F,V*13
[17:52:16] $GPGGA,215216.320,4020.7237563,N,08007.7283065,W,5,23,0.6,326.211,M,-33.184,M,,0000*6F
[17:52:16] $GNRMC,215216.320,A,4020.7237563,N,08007.7283065,W,000.1,000.0,230425,,,F,V*1B
[17:52:16] $GPGGA,215216.360,4020.7237563,N,08007.7283065,W,5,23,0.6,326.213,M,-33.184,M,,0000*69
[17:52:16] $GNRMC,215216.360,A,4020.7237563,N,08007.7283065,W,000.1,000.0,230425,,,F,V*1F
[17:52:16] $GPGGA,215216.400,4020.7237563,N,08007.7283064,W,5,23,0.6,326.214,M,-33.184,M,,0000*6E
[17:52:16] $GNRMC,215216.400,A,4020.7237563,N,08007.7283064,W,000.1,000.0,230425,,,F,V*1F
[17:52:16] $GPGGA,215216.440,4020.7237563,N,08007.7283064,W,5,23,0.6,326.215,M,-33.184,M,,0000*6B
[17:52:16] $GNRMC,215216.440,A,4020.7237563,N,08007.7283064,W,000.1,000.0,230425,,,F,V*1B
[17:52:16] $GPGGA,215216.480,4020.7237563,N,08007.7283064,W,5,23,0.6,326.216,M,-33.184,M,,0000*64
[17:52:16] $GNRMC,215216.480,A,4020.7237563,N,08007.7283064,W,000.1,000.0,230425,,,F,V*17
[17:52:16] $GPGGA,215216.520,4020.7237563,N,08007.7283063,W,5,23,0.6,326.217,M,-33.184,M,,0000*69
[17:52:16] $GNRMC,215216.520,A,4020.7237563,N,08007.7283063,W,000.1,000.0,230425,,,F,V*1B
[17:52:16] $GPGGA,215216.560,4020.7237563,N,08007.7283063,W,5,23,0.6,326.219,M,-33.184,M,,0000*63
[17:52:16] $GNRMC,215216.560,A,4020.7237563,N,08007.7283063,W,000.1,000.0,230425,,,F,V*1F
[17:52:16] $GPGGA,215216.600,4020.7237563,N,08007.7283063,W,5,23,0.6,326.220,M,-33.184,M,,0000*6C
[17:52:16] $GNRMC,215216.600,A,4020.7237563,N,08007.7283063,W,000.1,000.0,230425,,,F,V*1A
[17:52:16] $GPGGA,215216.640,4020.7237563,N,08007.7283062,W,5,23,0.6,326.221,M,-33.184,M,,0000*68
[17:52:16] $GNRMC,215216.640,A,4020.7237563,N,08007.7283062,W,000.1,000.0,230425,,,F,V*1F
[17:52:16] $GPGGA,215216.680,4020.7237563,N,08007.7283062,W,5,23,0.6,326.222,M,-33.184,M,,0000*67
[17:52:16] $GNRMC,215216.680,A,4020.7237563,N,08007.7283062,W,000.1,000.0,230425,,,F,V*13
[17:52:16] $GPGGA,215216.720,4020.7237563,N,08007.7283062,W,5,23,0.6,326.224,M,-33.184,M,,0000*6A
[17:52:16] $GNRMC,215216.720,A,4020.7237563,N,08007.7283062,W,000.1,000.0,230425,,,F,V*18
[17:52:16] $GPGGA,215216.760,4020.7237563,N,08007.7283061,W,5,23,0.6,326.225,M,-33.184,M,,0000*6C
[17:52:16] $GNRMC,215216.760,A,4020.7237563,N,08007.7283061,W,000.1,000.0,230425,,,F,V*1F
[17:52:16] $GPGGA,215216.800,4020.7237563,N,08007.7283061,W,5,23,0.6,326.226,M,-33.184,M,,0000*66
[17:52:16] $GNRMC,215216.800,A,4020.7237563,N,08007.7283061,W,000.1,000.0,230425,,,F,V*16
[17:52:16] $GPGGA,215216.840,4020.7237563,N,08007.7283060,W,5,23,0.6,326.227,M,-33.184,M,,0000*62
[17:52:16] $GNRMC,215216.840,A,4020.7237563,N,08007.7283060,W,000.1,000.0,230425,,,F,V*13
[17:52:16] $GPGGA,215216.880,4020.7237563,N,08007.7283060,W,5,23,0.6,326.228,M,-33.184,M,,0000*61
[17:52:16] $GNRMC,215216.880,A,4020.7237563,N,08007.7283060,W,000.1,000.0,230425,,,F,V*1F
[17:52:16] $GPGGA,215216.920,4020.7237562,N,08007.7283060,W,5,23,0.6,326.230,M,-33.184,M,,0000*62
[17:52:16] $GNRMC,215216.920,A,4020.7237562,N,08007.7283060,W,000.1,000.0,230425,,,F,V*15
[17:52:16] $GPGGA,215216.960,4020.7237562,N,08007.7283059,W,5,23,0.6,326.231,M,-33.184,M,,0000*6D
[17:52:16] $GNRMC,215216.960,A,4020.7237562,N,08007.7283059,W,000.1,000.0,230425,,,F,V*1B
[17:52:17] $GNRMC,215217.000,A,4020.5366689,N,08007.6472084,W,000.0,000.0,230425,,,F,V*1C
[17:52:17] $GPGGA,215217.040,4020.5366688,N,08007.6472085,W,5,23,0.6,626.451,M,-33.183,M,,0000*6D
[17:52:17] $GNRMC,215217.040,A,4020.5366688,N,08007.6472085,W,000.1,000.0,230425,,,F,V*19
[17:52:17] $GPGGA,215217.080,4020.5366688,N,08007.6472086,W,5,23,0.6,626.452,M,-33.183,M,,0000*61
[17:52:17] $GNRMC,215217.080,A,4020.5366688,N,08007.6472086,W,000.1,000.0,230425,,,F,V*16
[17:52:17] $GPGGA,215217.120,4020.5366687,N,08007.6472087,W,5,23,0.6,626.453,M,-33.183,M,,0000*65
[17:52:17] $GNRMC,215217.120,A,4020.5366687,N,08007.6472087,W,000.1,000.0,230425,,,F,V*13
[17:52:17] $GPGGA,215217.160,4020.5366687,N,08007.6472088,W,5,23,0.6,626.454,M,-33.183,M,,0000*69
[17:52:17] $GNRMC,215217.160,A,4020.5366687,N,08007.6472088,W,000.1,000.0,230425,,,F,V*18
[17:52:17] $GPGGA,215217.200,4020.5366686,N,08007.6472089,W,5,23,0.6,626.455,M,-33.183,M,,0000*6D
[17:52:17] $GNRMC,215217.200,A,4020.5366686,N,08007.6472089,W,000.1,000.0,230425,,,F,V*1D
[17:52:17] $GPGGA,215217.240,4020.5366686,N,08007.6472090,W,5,23,0.6,626.456,M,-33.183,M,,0000*62
[17:52:17] $GNRMC,215217.240,A,4020.5366686,N,08007.6472090,W,000.1,000.0,230425,,,F,V*11
[17:52:17] $GPGGA,215217.280,4020.5366685,N,08007.6472091,W,5,23,0.6,626.457,M,-33.183,M,,0000*6D
[17:52:17] $GNRMC,215217.280,A,4020.5366685,N,08007.6472091,W,000.1,000.0,230425,,,F,V*1F
[17:52:17] $GPGGA,215217.320,4020.5366684,N,08007.6472092,W,5,23,0.6,626.458,M,-33.183,M,,0000*6B
[17:52:17] $GNRMC,215217.320,A,4020.5366684,N,08007.6472092,W,000.1,000.0,230425,,,F,V*16
[17:52:17] $GPGGA,215217.360,4020.5366684,N,08007.6472093,W,5,23,0.6,626.459,M,-33.183,M,,0000*6F
[17:52:17] $GNRMC,215217.360,A,4020.5366684,N,08007.6472093,W,000.1,000.0,230425,,,F,V*13
[17:52:17] $GPGGA,215217.400,4020.5366683,N,08007.6472094,W,5,23,0.6,626.460,M,-33.183,M,,0000*64
[17:52:17] $GNRMC,215217.400,A,4020.5366683,N,08007.6472094,W,000.1,000.0,230425,,,F,V*12
[17:52:17] $GPGGA,215217.440,4020.5366683,N,08007.6472095,W,5,23,0.6,626.461,M,-33.183,M,,0000*60
[17:52:17] $GNRMC,215217.440,A,4020.5366683,N,08007.6472095,W,000.1,000.0,230425,,,F,V*17
[17:52:17] $GPGGA,215217.480,4020.5366682,N,08007.6472096,W,5,23,0.6,626.462,M,-33.183,M,,0000*6D
[17:52:17] $GNRMC,215217.480,A,4020.5366682,N,08007.6472096,W,000.1,000.0,230425,,,F,V*19
[17:52:17] $GPGGA,215217.520,4020.5366682,N,08007.6472097,W,5,23,0.6,626.464,M,-33.183,M,,0000*61
[17:52:17] $GNRMC,215217.520,A,4020.5366682,N,08007.6472097,W,000.1,000.0,230425,,,F,V*13
[17:52:17] $GPGGA,215217.560,4020.5366681,N,08007.6472098,W,5,23,0.6,626.465,M,-33.183,M,,0000*68
[17:52:17] $GNRMC,215217.560,A,4020.5366681,N,08007.6472098,W,000.1,000.0,230425,,,F,V*1B
[17:52:17] $GPGGA,215217.600,4020.5366681,N,08007.6472099,W,5,23,0.6,626.466,M,-33.183,M,,0000*6F
[17:52:17] $GNRMC,215217.600,A,4020.5366681,N,08007.6472099,W,000.1,000.0,230425,,,F,V*1F
[17:52:17] $GPGGA,215217.640,4020.5366680,N,08007.6472100,W,5,23,0.6,626.467,M,-33.183,M,,0000*6A
[17:52:17] $GNRMC,215217.640,A,4020.5366680,N,08007.6472100,W,000.1,000.0,230425,,,F,V*1B
[17:52:17] $GPGGA,215217.680,4020.5366679,N,08007.6472101,W,5,23,0.6,626.468,M,-33.183,M,,0000*6E
[17:52:17] $GNRMC,215217.680,A,4020.5366679,N,08007.6472101,W,000.1,000.0,230425,,,F,V*10
[17:52:17] $GPGGA,215217.720,4020.5366679,N,08007.6472102,W,5,23,0.6,626.469,M,-33.183,M,,0000*67
[17:52:17] $GNRMC,215217.720,A,4020.5366679,N,08007.6472102,W,000.1,000.0,230425,,,F,V*18
[17:52:17] $GPGGA,215217.760,4020.5366678,N,08007.6472103,W,5,23,0.6,626.470,M,-33.183,M,,0000*6B
[17:52:17] $GNRMC,215217.760,A,4020.5366678,N,08007.6472103,W,000.1,000.0,230425,,,F,V*1C
[17:52:17] $GPGGA,215217.800,4020.5366678,N,08007.6472104,W,5,23,0.6,626.471,M,-33.183,M,,0000*64
[17:52:17] $GNRMC,215217.800,A,4020.5366678,N,08007.6472104,W,000.1,000.0,230425,,,F,V*12
[17:52:17] $GPGGA,215217.840,4020.5366677,N,08007.6472105,W,5,23,0.6,626.472,M,-33.183,M,,0000*6D
[17:52:17] $GNRMC,215217.840,A,4020.5366677,N,08007.6472105,W,000.1,000.0,230425,,,F,V*18
[17:52:17] $GPGGA,215217.880,4020.5366677,N,08007.6472106,W,5,23,0.6,626.473,M,-33.183,M,,0000*63
[17:52:17] $GNRMC,215217.880,A,4020.5366677,N,08007.6472106,W,000.1,000.0,230425,,,F,V*17
[17:52:17] $GPGGA,215217.920,4020.5366676,N,08007.6472107,W,5,23,0.6,626.474,M,-33.183,M,,0000*6F
[17:52:17] $GNRMC,215217.920,A,4020.5366676,N,08007.6472107,W,000.1,000.0,230425,,,F,V*1C
[17:52:17] $GPGGA,215217.960,4020.5366676,N,08007.6472108,W,5,23,0.6,626.475,M,-33.183,M,,0000*65
[17:52:17] $GNRMC,215217.960,A,4020.5366676,N,08007.6472108,W,000.1,000.0,230425,,,F,V*17
[17:52:18] $GPGGA,215218.000,4020.7218548,N,08007.7278679,W,1,23,0.6,330.230,M,-33.100,M,,0000*67
[17:52:18] $GNRMC,215218.000,A,4020.7218548,N,08007.7278679,W,000.0,000.0,230425,,,A,V*19
[17:52:18] $GPGGA,215218.040,4020.7218548,N,08007.7278679,W,1,23,0.6,330.315,M,-33.184,M,,0000*69
[17:52:18] $GNRMC,215218.040,A,4020.7218548,N,08007.7278679,W,000.1,000.0,230425,,,A,V*1C
[17:52:18] $GPGGA,215218.080,4020.7218548,N,08007.7278679,W,1,23,0.6,330.316,M,-33.184,M,,0000*66
[17:52:18] $GNRMC,215218.080,A,4020.7218548,N,08007.7278679,W,000.1,000.0,230425,,,A,V*10
[17:52:18] $GPGGA,215218.120,4020.7218548,N,08007.7278679,W,1,23,0.6,330.317,M,-33.184,M,,0000*6C
[17:52:18] $GNRMC,215218.120,A,4020.7218548,N,08007.7278679,W,000.1,000.0,230425,,,A,V*1B
[17:52:18] $GPGGA,215218.160,4020.7218548,N,08007.7278679,W,1,23,0.6,330.319,M,-33.184,M,,0000*66
[17:52:18] $GNRMC,215218.160,A,4020.7218548,N,08007.7278679,W,000.1,000.0,230425,,,A,V*1F
[17:52:18] $GPGGA,215218.200,4020.7218549,N,08007.7278679,W,1,23,0.6,330.320,M,-33.184,M,,0000*68
[17:52:18] $GNRMC,215218.200,A,4020.7218549,N,08007.7278679,W,000.1,000.0,230425,,,A,V*1B
[17:52:18] $GPGGA,215218.240,4020.7218549,N,08007.7278679,W,1,23,0.6,330.321,M,-33.184,M,,0000*6D
[17:52:18] $GNRMC,215218.240,A,4020.7218549,N,08007.7278679,W,000.1,000.0,230425,,,A,V*1F
[17:52:18] $GPGGA,215218.280,4020.7218549,N,08007.7278679,W,1,23,0.6,330.322,M,-33.184,M,,0000*62
[17:52:18] $GNRMC,215218.280,A,4020.7218549,N,08007.7278679,W,000.1,000.0,230425,,,A,V*13
[17:52:18] $GPGGA,215218.320,4020.7218549,N,08007.7278679,W,1,23,0.6,330.323,M,-33.184,M,,0000*68
[17:52:18] $GNRMC,215218.320,A,4020.7218549,N,08007.7278679,W,000.1,000.0,230425,,,A,V*18
[17:52:18] $GPGGA,215218.360,4020.7218549,N,08007.7278679,W,1,23,0.6,330.325,M,-33.184,M,,0000*6A
[17:52:18] $GNRMC,215218.360,A,4020.7218549,N,08007.7278679,W,000.1,000.0,230425,,,A,V*1C
[17:52:18] $GPGGA,215218.400,4020.7218550,N,08007.7278680,W,1,23,0.6,330.326,M,-33.184,M,,0000*66
[17:52:18] $GNRMC,215218.400,A,4020.7218550,N,08007.7278680,W,000.1,000.0,230425,,,A,V*13
[17:52:18] $GPGGA,215218.440,4020.7218550,N,08007.7278680,W,1,23,0.6,330.327,M,-33.184,M,,0000*63
[17:52:18] $GNRMC,215218.440,A,4020.7218550,N,08007.7278680,W,000.1,000.0,230425,,,A,V*17
[17:52:18] $GPGGA,215218.480,4020.7218550,N,08007.7278680,W,1,23,0.6,330.328,M,-33.184,M,,0000*60
[17:52:18] $GNRMC,215218.480,A,4020.7218550,N,08007.7278680,W,000.1,000.0,230425,,,A,V*1B
[17:52:18] $GPGGA,215218.520,4020.7218550,N,08007.7278680,W,1,23,0.6,330.329,M,-33.184,M,,0000*6A
[17:52:18] $GNRMC,215218.520,A,4020.7218550,N,08007.7278680,W,000.1,000.0,230425,,,A,V*10
[17:52:18] $GPGGA,215218.560,4020.7218551,N,08007.7278680,W,1,23,0.6,330.331,M,-33.184,M,,0000*66
[17:52:18] $GNRMC,215218.560,A,4020.7218551,N,08007.7278680,W,000.1,000.0,230425,,,A,V*15
[17:52:18] $GPGGA,215218.600,4020.7218551,N,08007.7278680,W,1,23,0.6,330.332,M,-33.184,M,,0000*60
[17:52:18] $GNRMC,215218.600,A,4020.7218551,N,08007.7278680,W,000.1,000.0,230425,,,A,V*10
[17:52:18] $GPGGA,215218.640,4020.7218551,N,08007.7278680,W,1,23,0.6,330.333,M,-33.184,M,,0000*65
[17:52:18] $GNRMC,215218.640,A,4020.7218551,N,08007.7278680,W,000.1,000.0,230425,,,A,V*14
[17:52:18] $GPGGA,215218.680,4020.7218551,N,08007.7278680,W,1,23,0.6,330.334,M,-33.184,M,,0000*6E
[17:52:18] $GNRMC,215218.680,A,4020.7218551,N,08007.7278680,W,000.1,000.0,230425,,,A,V*18
[17:52:18] $GPGGA,215218.720,4020.7218551,N,08007.7278680,W,1,23,0.6,330.335,M,-33.184,M,,0000*64
[17:52:18] $GNRMC,215218.720,A,4020.7218551,N,08007.7278680,W,000.1,000.0,230425,,,A,V*13
[17:52:18] $GPGGA,215218.760,4020.7218552,N,08007.7278680,W,1,23,0.6,330.336,M,-33.184,M,,0000*60
[17:52:18] $GNRMC,215218.760,A,4020.7218552,N,08007.7278680,W,000.1,000.0,230425,,,A,V*14
[17:52:18] $GPGGA,215218.800,4020.7218552,N,08007.7278680,W,1,23,0.6,330.338,M,-33.184,M,,0000*67
[17:52:18] $GNRMC,215218.800,A,4020.7218552,N,08007.7278680,W,000.1,000.0,230425,,,A,V*1D
[17:52:18] $GPGGA,215218.840,4020.7218552,N,08007.7278680,W,1,23,0.6,330.339,M,-33.184,M,,0000*62
[17:52:18] $GNRMC,215218.840,A,4020.7218552,N,08007.7278680,W,000.1,000.0,230425,,,A,V*19
[17:52:18] $GPGGA,215218.880,4020.7218552,N,08007.7278680,W,1,23,0.6,330.340,M,-33.184,M,,0000*60
[17:52:18] $GNRMC,215218.880,A,4020.7218552,N,08007.7278680,W,000.1,000.0,230425,,,A,V*15
[17:52:18] $GPGGA,215218.920,4020.7218553,N,08007.7278680,W,1,23,0.6,330.341,M,-33.184,M,,0000*6B
[17:52:18] $GNRMC,215218.920,A,4020.7218553,N,08007.7278680,W,000.1,000.0,230425,,,A,V*1F
[17:52:19] $GNRMC,215219.000,A,4020.7237298,N,08007.7278578,W,000.0,000.0,230425,,,F,V*1A
[17:52:19] $GPGGA,145506.240,4020.7237298,N,08007.7278578,W,5,23,0.6,326.416,M,-33.184,M,,0000*67
[17:52:19] $GNRMC,145506.240,A,4020.7237298,N,08007.7278578,W,000.1,000.0,120625,,,F,V*12
[17:52:19] $GPGGA,215219.040,4020.7237298,N,08007.7278578,W,5,23,0.6,326.418,M,-33.184,M,,0000*64
[17:52:19] $GNRMC,215219.040,A,4020.7237298,N,08007.7278578,W,000.1,000.0,230425,,,F,V*1F
[17:52:19] $GPGGA,215219.080,4020.7237298,N,08007.7278578,W,5,23,0.6,326.419,M,-33.184,M,,0000*69
[17:52:19] $GNRMC,215219.080,A,4020.7237298,N,08007.7278578,W,000.1,000.0,230425,,,F,V*13
[17:52:19] $GPGGA,215219.120,4020.7237297,N,08007.7278578,W,5,23,0.6,326.420,M,-33.184,M,,0000*67
[17:52:19] $GNRMC,215219.120,A,4020.7237297,N,08007.7278578,W,000.1,000.0,230425,,,F,V*17
[17:52:19] $GPGGA,215219.160,4020.7237297,N,08007.7278578,W,5,23,0.6,326.421,M,-33.184,M,,0000*62
[17:52:19] $GNRMC,215219.160,A,4020.7237297,N,08007.7278578,W,000.1,000.0,230425,,,F,V*13
[17:52:19] $GPGGA,215219.200,4020.7237296,N,08007.7278578,W,5,23,0.6,326.423,M,-33.184,M,,0000*64
[17:52:19] $GNRMC,215219.200,A,4020.7237296,N,08007.7278578,W,000.1,000.0,230425,,,F,V*17
[17:52:19] $GPGGA,215219.240,4020.7237296,N,08007.7278578,W,5,23,0.6,326.424,M,-33.184,M,,0000*67
[17:52:19] $GNRMC,215219.240,A,4020.7237296,N,08007.7278578,W,000.1,000.0,230425,,,F,V*13
[17:52:19] $GPGGA,215219.280,4020.7237295,N,08007.7278578,W,5,23,0.6,326.425,M,-33.184,M,,0000*69
[17:52:19] $GNRMC,215219.280,A,4020.7237295,N,08007.7278578,W,000.1,000.0,230425,,,F,V*1C
[17:52:19] $GPGGA,215219.320,4020.7237295,N,08007.7278578,W,5,23,0.6,326.426,M,-33.184,M,,0000*61
[17:52:19] $GNRMC,215219.320,A,4020.7237295,N,08007.7278578,W,000.1,000.0,230425,,,F,V*17
[17:52:19] $GPGGA,215219.360,4020.7237294,N,08007.7278578,W,5,23,0.6,326.427,M,-33.184,M,,0000*65
[17:52:19] $GNRMC,215219.360,A,4020.7237294,N,08007.7278578,W,000.1,000.0,230425,,,F,V*12
[17:52:19] $GPGGA,215219.400,4020.7237294,N,08007.7278578,W,5,23,0.6,326.429,M,-33.184,M,,0000*6A
[17:52:19] $GNRMC,215219.400,A,4020.7237294,N,08007.7278578,W,000.1,000.0,230425,,,F,V*13
[17:52:19] $GPGGA,215219.440,4020.7237293,N,08007.7278578,W,5,23,0.6,326.430,M,-33.184,M,,0000*61
[17:52:19] $GNRMC,215219.440,A,4020.7237293,N,08007.7278578,W,000.1,000.0,230425,,,F,V*10
[17:52:19] $GPGGA,215219.480,4020.7237293,N,08007.7278578,W,5,23,0.6,326.431,M,-33.184,M,,0000*6C
[17:52:19] $GNRMC,215219.480,A,4020.7237293,N,08007.7278578,W,000.1,000.0,230425,,,F,V*1C
[17:52:19] $GPGGA,215219.520,4020.7237292,N,08007.7278578,W,5,23,0.6,326.432,M,-33.184,M,,0000*65
[17:52:19] $GNRMC,215219.520,A,4020.7237292,N,08007.7278578,W,000.1,000.0,230425,,,F,V*16
[17:52:19] $GPGGA,215219.560,4020.7237292,N,08007.7278578,W,5,23,0.6,326.434,M,-33.184,M,,0000*67
[17:52:19] $GNRMC,215219.560,A,4020.7237292,N,08007.7278578,W,000.1,000.0,230425,,,F,V*12
[17:52:19] $GPGGA,215219.600,4020.7237292,N,08007.7278578,W,5,23,0.6,326.435,M,-33.184,M,,0000*63
[17:52:19] $GNRMC,215219.600,A,4020.7237292,N,08007.7278578,W,000.1,000.0,230425,,,F,V*17
[17:52:19] $GPGGA,215219.640,4020.7237291,N,08007.7278578,W,5,23,0.6,326.436,M,-33.184,M,,0000*67
[17:52:19] $GNRMC,215219.640,A,4020.7237291,N,08007.7278578,W,000.1,000.0,230425,,,F,V*10
[17:52:19] $GPGGA,215219.680,4020.7237291,N,08007.7278578,W,5,23,0.6,326.437,M,-33.184,M,,0000*6A
[17:52:19] $GNRMC,215219.680,A,4020.7237291,N,08007.7278578,W,000.1,000.0,230425,,,F,V*1C
[17:52:19] $GPGGA,215219.720,4020.7237290,N,08007.7278578,W,5,23,0.6,326.438,M,-33.184,M,,0000*6F
[17:52:19] $GNRMC,215219.720,A,4020.7237290,N,08007.7278578,W,000.1,000.0,230425,,,F,V*16
[17:52:19] $GPGGA,215219.760,4020.7237290,N,08007.7278578,W,5,23,0.6,326.440,M,-33.184,M,,0000*64
[17:52:19] $GNRMC,215219.760,A,4020.7237290,N,08007.7278578,W,000.1,000.0,230425,,,F,V*12
[17:52:19] $GPGGA,215219.800,4020.7237289,N,08007.7278578,W,5,23,0.6,326.441,M,-33.184,M,,0000*64
[17:52:19] $GNRMC,215219.800,A,4020.7237289,N,08007.7278578,W,000.1,000.0,230425,,,F,V*13
[17:52:19] $GPGGA,215219.840,4020.7237289,N,08007.7278578,W,5,23,0.6,326.442,M,-33.184,M,,0000*63
[17:52:19] $GNRMC,215219.840,A,4020.7237289,N,08007.7278578,W,000.1,000.0,230425,,,F,V*17
[17:52:19] $GPGGA,215219.880,4020.7237288,N,08007.7278578,W,5,23,0.6,326.443,M,-33.184,M,,0000*6F
[17:52:19] $GNRMC,215219.880,A,4020.7237288,N,08007.7278578,W,000.1,000.0,230425,,,F,V*1A
[17:52:19] $GPGGA,215219.920,4020.7237288,N,08007.7278578,W,5,23,0.6,326.445,M,-33.184,M,,0000*62
[17:52:19] $GNRMC,215219.920,A,4020.7237288,N,08007.7278578,W,000.1,000.0,230425,,,F,V*11
[17:52:19] $GPGGA,215219.960,4020.7237287,N,08007.7278578,W,5,23,0.6,326.446,M,-33.184,M,,0000*6A
[17:52:19] $GNRMC,215219.960,A,4020.7237287,N,08007.7278578,W,000.1,000.0,230425,,,F,V*1A
[17:52:20] $GNRMC,215220.000,A,4020.7385963,N,08007.6493809,W,000.0,000.0,230425,,,F,V*1E
[17:52:20] $GPGGA,215220.040,4020.7385963,N,08007.6493809,W,5,23,0.6,907.236,M,-33.184,M,,0000*63
[17:52:20] $GNRMC,215220.040,A,4020.7385963,N,08007.6493809,W,000.1,000.0,230425,,,F,V*1B
[17:52:20] $GPGGA,215220.080,4020.7385963,N,08007.6493810,W,5,23,0.6,907.238,M,-33.184,M,,0000*69
[17:52:20] $GNRMC,215220.080,A,4020.7385963,N,08007.6493810,W,000.1,000.0,230425,,,F,V*1F
[17:52:20] $GPGGA,215220.120,4020.7385964,N,08007.6493811,W,5,23,0.6,907.239,M,-33.184,M,,0000*65
[17:52:20] $GNRMC,215220.120,A,4020.7385964,N,08007.6493811,W,000.1,000.0,230425,,,F,V*12
[17:52:20] $GPGGA,215220.160,4020.7385964,N,08007.6493811,W,5,23,0.6,907.240,M,-33.184,M,,0000*6F
[17:52:20] $GNRMC,215220.160,A,4020.7385964,N,08007.6493811,W,000.1,000.0,230425,,,F,V*16
[17:52:20] $GPGGA,215220.200,4020.7385964,N,08007.6493812,W,5,23,0.6,907.241,M,-33.184,M,,0000*68
[17:52:20] $GNRMC,215220.200,A,4020.7385964,N,08007.6493812,W,000.1,000.0,230425,,,F,V*10
[17:52:20] $GPGGA,215220.240,4020.7385964,N,08007.6493813,W,5,23,0.6,907.242,M,-33.184,M,,0000*6E
[17:52:20] $GNRMC,215220.240,A,4020.7385964,N,08007.6493813,W,000.1,000.0,230425,,,F,V*15
[17:52:20] $GPGGA,215220.280,4020.7385965,N,08007.6493814,W,5,23,0.6,907.243,M,-33.184,M,,0000*65
[17:52:20] $GNRMC,215220.280,A,4020.7385965,N,08007.6493814,W,000.1,000.0,230425,,,F,V*1F
[17:52:20] $GPGGA,215220.320,4020.7385965,N,08007.6493814,W,5,23,0.6,907.244,M,-33.184,M,,0000*69
[17:52:20] $GNRMC,215220.320,A,4020.7385965,N,08007.6493814,W,000.1,000.0,230425,,,F,V*14
[17:52:20] $GPGGA,215220.360,4020.7385965,N,08007.6493815,W,5,23,0.6,907.245,M,-33.184,M,,0000*6D
[17:52:20] $GNRMC,215220.360,A,4020.7385965,N,08007.6493815,W,000.1,000.0,230425,,,F,V*11
[17:52:20] $GPGGA,215220.400,4020.7385965,N,08007.6493816,W,5,23,0.6,907.247,M,-33.184,M,,0000*6D
[17:52:20] $GNRMC,215220.400,A,4020.7385965,N,08007.6493816,W,000.1,000.0,230425,,,F,V*13
[17:52:20] $GPGGA,215220.440,4020.7385966,N,08007.6493817,W,5,23,0.6,907.248,M,-33.184,M,,0000*64
[17:52:20] $GNRMC,215220.440,A,4020.7385966,N,08007.6493817,W,000.1,000.0,230425,,,F,V*15
[17:52:20] $GPGGA,215220.480,4020.7385966,N,08007.6493817,W,5,23,0.6,907.249,M,-33.184,M,,0000*69
[17:52:20] $GNRMC,215220.480,A,4020.7385966,N,08007.6493817,W,000.1,000.0,230425,,,F,V*19
[17:52:20] $GPGGA,215220.520,4020.7385966,N,08007.6493818,W,5,23,0.6,907.250,M,-33.184,M,,0000*65
[17:52:20] $GNRMC,215220.520,A,4020.7385966,N,08007.6493818,W,000.1,000.0,230425,,,F,V*1D
[17:52:20] $GPGGA,215220.560,4020.7385966,N,08007.6493819,W,5,23,0.6,907.251,M,-33.184,M,,0000*61
[17:52:20] $GNRMC,215220.560,A,4020.7385966,N,08007.6493819,W,000.1,000.0,230425,,,F,V*18
[17:52:20] $GPGGA,215220.600,4020.7385966,N,08007.6493820,W,5,23,0.6,907.252,M,-33.184,M,,0000*6D
[17:52:20] $GNRMC,215220.600,A,4020.7385966,N,08007.6493820,W,000.1,000.0,230425,,,F,V*17
[17:52:20] $GPGGA,215220.640,4020.7385967,N,08007.6493820,W,5,23,0.6,907.253,M,-33.184,M,,0000*69
[17:52:20] $GNRMC,215220.640,A,4020.7385967,N,08007.6493820,W,000.1,000.0,230425,,,F,V*12
[17:52:20] $GPGGA,215220.680,4020.7385967,N,08007.6493821,W,5,23,0.6,907.254,M,-33.184,M,,0000*63
[17:52:20] $GNRMC,215220.680,A,4020.7385967,N,08007.6493821,W,000.1,000.0,230425,,,F,V*1F
[17:52:20] $GPGGA,215220.720,4020.7385967,N,08007.6493822,W,5,23,0.6,907.255,M,-33.184,M,,0000*6A
[17:52:20] $GNRMC,215220.720,A,4020.7385967,N,08007.6493822,W,000.1,000.0,230425,,,F,V*17
[17:52:20] $GPGGA,215220.760,4020.7385967,N,08007.6493822,W,5,23,0.6,907.257,M,-33.184,M,,0000*6C
[17:52:20] $GNRMC,215220.760,A,4020.7385967,N,08007.6493822,W,000.1,000.0,230425,,,F,V*13
[17:52:20] $GPGGA,215220.800,4020.7385968,N,08007.6493823,W,5,23,0.6,907.258,M,-33.184,M,,0000*64
[17:52:20] $GNRMC,215220.800,A,4020.7385968,N,08007.6493823,W,000.1,000.0,230425,,,F,V*14
[17:52:20] $GPGGA,215220.840,4020.7385968,N,08007.6493824,W,5,23,0.6,907.259,M,-33.184,M,,0000*66
[17:52:20] $GNRMC,215220.840,A,4020.7385968,N,08007.6493824,W,000.1,000.0,230425,,,F,V*17
[17:52:20] $GPGGA,215220.880,4020.7385968,N,08007.6493825,W,5,23,0.6,907.260,M,-33.184,M,,0000*61
[17:52:20] $GNRMC,215220.880,A,4020.7385968,N,08007.6493825,W,000.1,000.0,230425,,,F,V*1A
[17:52:20] $GPGGA,215220.920,4020.7385968,N,08007.6493825,W,5,23,0.6,907.261,M,-33.184,M,,0000*6B
[17:52:20] $GNRMC,215220.920,A,4020.7385968,N,08007.6493825,W,000.1,000.0,230425,,,F,V*11
[17:52:21] $GPGGA,215220.960,4020.7385969,N,08007.6493826,W,5,23,0.6,907.262,M,-33.184,M,,0000*6E
[17:52:21] $GNRMC,215220.960,A,4020.7385969,N,08007.6493826,W,000.1,000.0,230425,,,F,V*17
[17:52:21] $GNRMC,215221.000,A,4020.7218507,N,08007.7278670,W,000.0,000.0,230425,,,A,V*11
[17:52:21] $GPGGA,215221.040,4020.7218507,N,08007.7278670,W,1,23,0.6,330.319,M,-33.184,M,,0000*6D
[17:52:21] $GNRMC,215221.040,A,4020.7218507,N,08007.7278670,W,000.1,000.0,230425,,,A,V*14
[17:52:21] $GPGGA,215221.080,4020.7218507,N,08007.7278671,W,1,23,0.6,330.320,M,-33.184,M,,0000*6A
[17:52:21] $GNRMC,215221.080,A,4020.7218507,N,08007.7278671,W,000.1,000.0,230425,,,A,V*19
[17:52:21] $GPGGA,215221.120,4020.7218507,N,08007.7278671,W,1,23,0.6,330.321,M,-33.184,M,,0000*60
[17:52:21] $GNRMC,215221.120,A,4020.7218507,N,08007.7278671,W,000.1,000.0,230425,,,A,V*12
[17:52:21] $GPGGA,215221.160,4020.7218507,N,08007.7278672,W,1,23,0.6,330.323,M,-33.184,M,,0000*65
[17:52:21] $GNRMC,215221.160,A,4020.7218507,N,08007.7278672,W,000.1,000.0,230425,,,A,V*15
[17:52:21] $GPGGA,215221.200,4020.7218507,N,08007.7278672,W,1,23,0.6,330.324,M,-33.184,M,,0000*67
[17:52:21] $GNRMC,215221.200,A,4020.7218507,N,08007.7278672,W,000.1,000.0,230425,,,A,V*10
[17:52:21] $GPGGA,215221.240,4020.7218508,N,08007.7278672,W,1,23,0.6,330.325,M,-33.184,M,,0000*6D
[17:52:21] $GNRMC,215221.240,A,4020.7218508,N,08007.7278672,W,000.1,000.0,230425,,,A,V*1B
[17:52:21] $GPGGA,215221.280,4020.7218508,N,08007.7278673,W,1,23,0.6,330.326,M,-33.184,M,,0000*63
[17:52:21] $GNRMC,215221.280,A,4020.7218508,N,08007.7278673,W,000.1,000.0,230425,,,A,V*16
[17:52:21] $GPGGA,215221.320,4020.7218508,N,08007.7278673,W,1,23,0.6,330.327,M,-33.184,M,,0000*69
[17:52:21] $GNRMC,215221.320,A,4020.7218508,N,08007.7278673,W,000.1,000.0,230425,,,A,V*1D
[17:52:21] $GPGGA,215221.360,4020.7218508,N,08007.7278674,W,1,23,0.6,330.328,M,-33.184,M,,0000*65
[17:52:21] $GNRMC,215221.360,A,4020.7218508,N,08007.7278674,W,000.1,000.0,230425,,,A,V*1E
[17:52:21] $GPGGA,215221.400,4020.7218508,N,08007.7278674,W,1,23,0.6,330.329,M,-33.184,M,,0000*65
[17:52:21] $GNRMC,215221.400,A,4020.7218508,N,08007.7278674,W,000.1,000.0,230425,,,A,V*1F
[17:52:21] $GPGGA,215221.440,4020.7218508,N,08007.7278674,W,1,23,0.6,330.330,M,-33.184,M,,0000*69
[17:52:21] $GNRMC,215221.440,A,4020.7218508,N,08007.7278674,W,000.1,000.0,230425,,,A,V*1B
[17:52:21] $GPGGA,215221.480,4020.7218508,N,08007.7278675,W,1,23,0.6,330.331,M,-33.184,M,,0000*65
[17:52:21] $GNRMC,215221.480,A,4020.7218508,N,08007.7278675,W,000.1,000.0,230425,,,A,V*16
[17:52:21] $GPGGA,215221.520,4020.7218508,N,08007.7278675,W,1,23,0.6,330.332,M,-33.184,M,,0000*6D
[17:52:21] $GNRMC,215221.520,A,4020.7218508,N,08007.7278675,W,000.1,000.0,230425,,,A,V*1D
[17:52:21] $GPGGA,215221.560,4020.7218508,N,08007.7278676,W,1,23,0.6,330.334,M,-33.184,M,,0000*6C
[17:52:21] $GNRMC,215221.560,A,4020.7218508,N,08007.7278676,W,000.1,000.0,230425,,,A,V*1A
[17:52:21] $GPGGA,215221.600,4020.7218508,N,08007.7278676,W,1,23,0.6,330.335,M,-33.184,M,,0000*68
[17:52:21] $GNRMC,215221.600,A,4020.7218508,N,08007.7278676,W,000.1,000.0,230425,,,A,V*1F
[17:52:21] $GPGGA,215221.640,4020.7218508,N,08007.7278676,W,1,23,0.6,330.336,M,-33.184,M,,0000*6F
[17:52:21] $GNRMC,215221.640,A,4020.7218508,N,08007.7278676,W,000.1,000.0,230425,,,A,V*1B
[17:52:21] $GPGGA,215221.680,4020.7218508,N,08007.7278677,W,1,23,0.6,330.337,M,-33.184,M,,0000*63
[17:52:21] $GNRMC,215221.680,A,4020.7218508,N,08007.7278677,W,000.1,000.0,230425,,,A,V*16
[17:52:21] $GPGGA,215221.720,4020.7218508,N,08007.7278677,W,1,23,0.6,330.338,M,-33.184,M,,0000*67
[17:52:21] $GNRMC,215221.720,A,4020.7218508,N,08007.7278677,W,000.1,000.0,230425,,,A,V*1D
[17:52:21] $GPGGA,215221.760,4020.7218509,N,08007.7278678,W,1,23,0.6,330.339,M,-33.184,M,,0000*6C
[17:52:21] $GNRMC,215221.760,A,4020.7218509,N,08007.7278678,W,000.1,000.0,230425,,,A,V*17
[17:52:21] $GPGGA,215221.800,4020.7218509,N,08007.7278678,W,1,23,0.6,330.340,M,-33.184,M,,0000*6B
[17:52:21] $GNRMC,215221.800,A,4020.7218509,N,08007.7278678,W,000.1,000.0,230425,,,A,V*1E
[17:52:21] $GPGGA,215221.840,4020.7218509,N,08007.7278679,W,1,23,0.6,330.341,M,-33.184,M,,0000*6F
[17:52:21] $GNRMC,215221.840,A,4020.7218509,N,08007.7278679,W,000.1,000.0,230425,,,A,V*1B
[17:52:21] $GPGGA,215221.880,4020.7218509,N,08007.7278679,W,1,23,0.6,330.342,M,-33.184,M,,0000*60
[17:52:21] $GNRMC,215221.880,A,4020.7218509,N,08007.7278679,W,000.1,000.0,230425,,,A,V*17
[17:52:21] $GPGGA,215221.920,4020.7218509,N,08007.7278679,W,1,23,0.6,330.343,M,-33.184,M,,0000*6A
[17:52:21] $GNRMC,215221.920,A,4020.7218509,N,08007.7278679,W,000.1,000.0,230425,,,A,V*1C
[17:52:22] $GNRMC,215222.000,A,4020.7235015,N,08007.7277295,W,000.0,000.0,230425,,,F,V*1C
[17:52:22] $GPGGA,145509.240,4020.7235015,N,08007.7277295,W,5,23,0.6,326.306,M,-33.184,M,,0000*60
[17:52:22] $GNRMC,145509.240,A,4020.7235015,N,08007.7277295,W,000.1,000.0,120625,,,F,V*13
[17:52:22] $GPGGA,215222.040,4020.7235014,N,08007.7277295,W,5,23,0.6,326.308,M,-33.184,M,,0000*65
[17:52:22] $GNRMC,215222.040,A,4020.7235014,N,08007.7277295,W,000.1,000.0,230425,,,F,V*18
[17:52:22] $GPGGA,215222.080,4020.7235014,N,08007.7277296,W,5,23,0.6,326.309,M,-33.184,M,,0000*6B
[17:52:22] $GNRMC,215222.080,A,4020.7235014,N,08007.7277296,W,000.1,000.0,230425,,,F,V*17
[17:52:22] $GPGGA,215222.120,4020.7235014,N,08007.7277297,W,5,23,0.6,326.310,M,-33.184,M,,0000*69
[17:52:22] $GNRMC,215222.120,A,4020.7235014,N,08007.7277297,W,000.1,000.0,230425,,,F,V*1D
[17:52:22] $GPGGA,215222.160,4020.7235014,N,08007.7277298,W,5,23,0.6,326.312,M,-33.184,M,,0000*60
[17:52:22] $GNRMC,215222.160,A,4020.7235014,N,08007.7277298,W,000.1,000.0,230425,,,F,V*16
[17:52:22] $GPGGA,215222.200,4020.7235014,N,08007.7277298,W,5,23,0.6,326.313,M,-33.184,M,,0000*64
[17:52:22] $GNRMC,215222.200,A,4020.7235014,N,08007.7277298,W,000.1,000.0,230425,,,F,V*13
[17:52:22] $GPGGA,215222.240,4020.7235013,N,08007.7277299,W,5,23,0.6,326.315,M,-33.184,M,,0000*60
[17:52:22] $GNRMC,215222.240,A,4020.7235013,N,08007.7277299,W,000.1,000.0,230425,,,F,V*11
[17:52:22] $GPGGA,215222.280,4020.7235013,N,08007.7277300,W,5,23,0.6,326.316,M,-33.184,M,,0000*6E
[17:52:22] $GNRMC,215222.280,A,4020.7235013,N,08007.7277300,W,000.1,000.0,230425,,,F,V*1C
[17:52:22] $GPGGA,215222.320,4020.7235013,N,08007.7277301,W,5,23,0.6,326.318,M,-33.184,M,,0000*6A
[17:52:22] $GNRMC,215222.320,A,4020.7235013,N,08007.7277301,W,000.1,000.0,230425,,,F,V*16
[17:52:22] $GPGGA,215222.360,4020.7235013,N,08007.7277301,W,5,23,0.6,326.319,M,-33.184,M,,0000*6F
[17:52:22] $GNRMC,215222.360,A,4020.7235013,N,08007.7277301,W,000.1,000.0,230425,,,F,V*12
[17:52:22] $GPGGA,215222.400,4020.7235013,N,08007.7277302,W,5,23,0.6,326.320,M,-33.184,M,,0000*67
[17:52:22] $GNRMC,215222.400,A,4020.7235013,N,08007.7277302,W,000.1,000.0,230425,,,F,V*10
[17:52:22] $GPGGA,215222.440,4020.7235013,N,08007.7277303,W,5,23,0.6,326.322,M,-33.184,M,,0000*60
[17:52:22] $GNRMC,215222.440,A,4020.7235013,N,08007.7277303,W,000.1,000.0,230425,,,F,V*15
[17:52:22] $GPGGA,215222.480,4020.7235012,N,08007.7277304,W,5,23,0.6,326.323,M,-33.184,M,,0000*6B
[17:52:22] $GNRMC,215222.480,A,4020.7235012,N,08007.7277304,W,000.1,000.0,230425,,,F,V*1F
[17:52:22] $GPGGA,215222.520,4020.7235012,N,08007.7277304,W,5,23,0.6,326.325,M,-33.184,M,,0000*66
[17:52:22] $GNRMC,215222.520,A,4020.7235012,N,08007.7277304,W,000.1,000.0,230425,,,F,V*14
[17:52:22] $GPGGA,215222.560,4020.7235012,N,08007.7277305,W,5,23,0.6,326.326,M,-33.184,M,,0000*60
[17:52:22] $GNRMC,215222.560,A,4020.7235012,N,08007.7277305,W,000.1,000.0,230425,,,F,V*11
[17:52:22] $GPGGA,215222.600,4020.7235012,N,08007.7277306,W,5,23,0.6,326.327,M,-33.184,M,,0000*67
[17:52:22] $GNRMC,215222.600,A,4020.7235012,N,08007.7277306,W,000.1,000.0,230425,,,F,V*17
[17:52:22] $GPGGA,215222.640,4020.7235012,N,08007.7277306,W,5,23,0.6,326.329,M,-33.184,M,,0000*6D
[17:52:22] $GNRMC,215222.640,A,4020.7235012,N,08007.7277306,W,000.1,000.0,230425,,,F,V*13
[17:52:22] $GPGGA,215222.680,4020.7235012,N,08007.7277307,W,5,23,0.6,326.330,M,-33.184,M,,0000*68
[17:52:22] $GNRMC,215222.680,A,4020.7235012,N,08007.7277307,W,000.1,000.0,230425,,,F,V*1E
[17:52:22] $GPGGA,215222.720,4020.7235011,N,08007.7277308,W,5,23,0.6,326.332,M,-33.184,M,,0000*6D
[17:52:22] $GNRMC,215222.720,A,4020.7235011,N,08007.7277308,W,000.1,000.0,230425,,,F,V*19
[17:52:22] $GPGGA,215222.760,4020.7235011,N,08007.7277309,W,5,23,0.6,326.333,M,-33.184,M,,0000*69
[17:52:22] $GNRMC,215222.760,A,4020.7235011,N,08007.7277309,W,000.1,000.0,230425,,,F,V*1C
[17:52:22] $GPGGA,215222.800,4020.7235011,N,08007.7277309,W,5,23,0.6,326.334,M,-33.184,M,,0000*67
[17:52:22] $GNRMC,215222.800,A,4020.7235011,N,08007.7277309,W,000.1,000.0,230425,,,F,V*15
[17:52:22] $GPGGA,215222.840,4020.7235011,N,08007.7277310,W,5,23,0.6,326.336,M,-33.184,M,,0000*69
[17:52:22] $GNRMC,215222.840,A,4020.7235011,N,08007.7277310,W,000.1,000.0,230425,,,F,V*19
[17:52:22] $GPGGA,215222.880,4020.7235011,N,08007.7277311,W,5,23,0.6,326.337,M,-33.184,M,,0000*65
[17:52:22] $GNRMC,215222.880,A,4020.7235011,N,08007.7277311,W,000.1,000.0,230425,,,F,V*14
[17:52:22] $GPGGA,215222.920,4020.7235010,N,08007.7277312,W,5,23,0.6,326.339,M,-33.184,M,,0000*62
[17:52:22] $GNRMC,215222.920,A,4020.7235010,N,08007.7277312,W,000.1,000.0,230425,,,F,V*1D
[17:52:23] $GPGGA,215222.960,4020.7235010,N,08007.7277312,W,5,23,0.6,326.340,M,-33.184,M,,0000*68
[17:52:23] $GNRMC,215222.960,A,4020.7235010,N,08007.7277312,W,000.1,000.0,230425,,,F,V*19
[17:52:23] $GNRMC,215223.000,A,4020.7974326,N,08007.7483487,W,000.0,000.0,230425,,,F,V*18
[17:52:23] $GPGGA,215223.040,4020.7974327,N,08007.7483487,W,5,23,0.6,327.996,M,-33.185,M,,0000*6C
[17:52:23] $GNRMC,215223.040,A,4020.7974327,N,08007.7483487,W,000.1,000.0,230425,,,F,V*1C
[17:52:23] $GPGGA,215223.080,4020.7974327,N,08007.7483486,W,5,23,0.6,327.997,M,-33.185,M,,0000*60
[17:52:23] $GNRMC,215223.080,A,4020.7974327,N,08007.7483486,W,000.1,000.0,230425,,,F,V*11
[17:52:23] $GPGGA,215223.120,4020.7974327,N,08007.7483485,W,5,23,0.6,327.998,M,-33.185,M,,0000*67
[17:52:23] $GNRMC,215223.120,A,4020.7974327,N,08007.7483485,W,000.1,000.0,230425,,,F,V*19
[17:52:23] $GPGGA,215223.160,4020.7974327,N,08007.7483485,W,5,23,0.6,328.000,M,-33.185,M,,0000*64
[17:52:23] $GNRMC,215223.160,A,4020.7974327,N,08007.7483485,W,000.1,000.0,230425,,,F,V*1D
[17:52:23] $GPGGA,215223.200,4020.7974327,N,08007.7483484,W,5,23,0.6,328.001,M,-33.185,M,,0000*61
[17:52:23] $GNRMC,215223.200,A,4020.7974327,N,08007.7483484,W,000.1,000.0,230425,,,F,V*19
[17:52:23] $GPGGA,215223.240,4020.7974327,N,08007.7483483,W,5,23,0.6,328.002,M,-33.185,M,,0000*61
[17:52:23] $GNRMC,215223.240,A,4020.7974327,N,08007.7483483,W,000.1,000.0,230425,,,F,V*1A
[17:52:23] $GPGGA,215223.280,4020.7974327,N,08007.7483483,W,5,23,0.6,328.004,M,-33.185,M,,0000*6B
[17:52:23] $GNRMC,215223.280,A,4020.7974327,N,08007.7483483,W,000.1,000.0,230425,,,F,V*16
[17:52:23] $GPGGA,215223.320,4020.7974328,N,08007.7483482,W,5,23,0.6,328.005,M,-33.185,M,,0000*6F
[17:52:23] $GNRMC,215223.320,A,4020.7974328,N,08007.7483482,W,000.1,000.0,230425,,,F,V*13
