[11:14:37] $GPGGA,151437.680,4020.7226344,N,08007.7281427,W,1,27,0.6,328.475,M,-33.184,M,,0000*6F
[11:14:37] $GNRMC,151437.680,A,4020.7226344,N,08007.7281427,W,000.1,000.0,260425,,,A,V*13
[11:14:37] $GPGGA,151437.720,4020.7226342,N,08007.7281428,W,1,27,0.6,328.476,M,-33.184,M,,0000*6E
[11:14:37] $GNRMC,151437.720,A,4020.7226342,N,08007.7281428,W,000.1,000.0,260425,,,A,V*11
[11:14:37] $GPGGA,151437.760,4020.7226341,N,08007.7281429,W,1,27,0.6,328.478,M,-33.184,M,,0000*66
[11:14:37] $GNRMC,151437.760,A,4020.7226341,N,08007.7281429,W,000.1,000.0,260425,,,A,V*17
[11:14:37] $GPGGA,151437.800,4020.7226340,N,08007.7281430,W,1,27,0.6,328.479,M,-33.184,M,,0000*67
[11:14:37] $GNRMC,151437.800,A,4020.7226340,N,08007.7281430,W,000.1,000.0,260425,,,A,V*17
[11:14:37] $GPGGA,151437.840,4020.7226338,N,08007.7281431,W,1,27,0.6,328.480,M,-33.184,M,,0000*6B
[11:14:37] $GNRMC,151437.840,A,4020.7226338,N,08007.7281431,W,000.1,000.0,260425,,,A,V*1D
[11:14:37] $GPGGA,151437.880,4020.7226337,N,08007.7281432,W,1,27,0.6,328.481,M,-33.184,M,,0000*6A
[11:14:37] $GNRMC,151437.880,A,4020.7226337,N,08007.7281432,W,000.1,000.0,260425,,,A,V*1D
[11:14:37] $GPGGA,151437.920,4020.7226335,N,08007.7281433,W,1,27,0.6,328.482,M,-33.184,M,,0000*61
[11:14:37] $GNRMC,151437.920,A,4020.7226335,N,08007.7281433,W,000.1,000.0,260425,,,A,V*15
[11:14:38] $GNRMC,151438.000,A,4020.7226377,N,08007.7281389,W,000.0,000.0,260425,,,A,V*10
[11:14:38] $GPGGA,081725.240,4020.7226377,N,08007.7281389,W,1,27,0.6,328.460,M,-33.184,M,,0000*6C
[11:14:38] $GNRMC,081725.240,A,4020.7226377,N,08007.7281389,W,000.1,000.0,150625,,,A,V*16
[11:14:38] $GPGGA,151438.040,4020.7226376,N,08007.7281390,W,1,27,0.6,328.461,M,-33.184,M,,0000*65
[11:14:38] $GNRMC,151438.040,A,4020.7226376,N,08007.7281390,W,000.1,000.0,260425,,,A,V*1C
[11:14:38] $GPGGA,151438.080,4020.7226375,N,08007.7281391,W,1,27,0.6,328.463,M,-33.184,M,,0000*69
[11:14:38] $GNRMC,151438.080,A,4020.7226375,N,08007.7281391,W,000.1,000.0,260425,,,A,V*12
[11:14:38] $GPGGA,151438.120,4020.7226373,N,08007.7281392,W,1,27,0.6,328.464,M,-33.184,M,,0000*60
[11:14:38] $GNRMC,151438.120,A,4020.7226373,N,08007.7281392,W,000.1,000.0,260425,,,A,V*1C
[11:14:38] $GPGGA,151438.160,4020.7226372,N,08007.7281393,W,1,27,0.6,328.465,M,-33.184,M,,0000*65
[11:14:38] $GNRMC,151438.160,A,4020.7226372,N,08007.7281393,W,000.1,000.0,260425,,,A,V*18
[11:14:38] $GPGGA,151438.200,4020.7226371,N,08007.7281394,W,1,27,0.6,328.466,M,-33.184,M,,0000*67
[11:14:38] $GNRMC,151438.200,A,4020.7226371,N,08007.7281394,W,000.1,000.0,260425,,,A,V*19
[11:14:38] $GPGGA,151438.240,4020.7226370,N,08007.7281395,W,1,27,0.6,328.468,M,-33.184,M,,0000*6D
[11:14:38] $GNRMC,151438.240,A,4020.7226370,N,08007.7281395,W,000.1,000.0,260425,,,A,V*1D
[11:14:38] $GPGGA,151438.280,4020.7226368,N,08007.7281395,W,1,27,0.6,328.469,M,-33.184,M,,0000*69
[11:14:38] $GNRMC,151438.280,A,4020.7226368,N,08007.7281395,W,000.1,000.0,260425,,,A,V*18
[11:14:38] $GPGGA,151438.320,4020.7226367,N,08007.7281396,W,1,27,0.6,328.470,M,-33.184,M,,0000*66
[11:14:38] $GNRMC,151438.320,A,4020.7226367,N,08007.7281396,W,000.1,000.0,260425,,,A,V*1F
[11:14:38] $GPGGA,151438.360,4020.7226366,N,08007.7281397,W,1,27,0.6,328.471,M,-33.184,M,,0000*63
[11:14:38] $GNRMC,151438.360,A,4020.7226366,N,08007.7281397,W,000.1,000.0,260425,,,A,V*1B
[11:14:38] $GPGGA,151438.400,4020.7226365,N,08007.7281398,W,1,27,0.6,328.473,M,-33.184,M,,0000*6C
[11:14:38] $GNRMC,151438.400,A,4020.7226365,N,08007.7281398,W,000.1,000.0,260425,,,A,V*16
[11:14:38] $GPGGA,151438.440,4020.7226364,N,08007.7281399,W,1,27,0.6,328.474,M,-33.184,M,,0000*6F
[11:14:38] $GNRMC,151438.440,A,4020.7226364,N,08007.7281399,W,000.1,000.0,260425,,,A,V*12
[11:14:38] $GPGGA,151438.480,4020.7226362,N,08007.7281400,W,1,27,0.6,328.475,M,-33.184,M,,0000*63
[11:14:38] $GNRMC,151438.480,A,4020.7226362,N,08007.7281400,W,000.1,000.0,260425,,,A,V*1F
[11:14:38] $GPGGA,151438.520,4020.7226361,N,08007.7281401,W,1,27,0.6,328.476,M,-33.184,M,,0000*69
[11:14:38] $GNRMC,151438.520,A,4020.7226361,N,08007.7281401,W,000.1,000.0,260425,,,A,V*16
[11:14:38] $GPGGA,151438.560,4020.7226360,N,08007.7281402,W,1,27,0.6,328.478,M,-33.184,M,,0000*61
[11:14:38] $GNRMC,151438.560,A,4020.7226360,N,08007.7281402,W,000.1,000.0,260425,,,A,V*10
[11:14:38] $GPGGA,151438.600,4020.7226359,N,08007.7281403,W,1,27,0.6,328.479,M,-33.184,M,,0000*6E
[11:14:38] $GNRMC,151438.600,A,4020.7226359,N,08007.7281403,W,000.1,000.0,260425,,,A,V*1E
[11:14:38] $GPGGA,151438.640,4020.7226358,N,08007.7281404,W,1,27,0.6,328.480,M,-33.184,M,,0000*6A
[11:14:38] $GNRMC,151438.640,A,4020.7226358,N,08007.7281404,W,000.1,000.0,260425,,,A,V*1C
[11:14:38] $GPGGA,151438.680,4020.7226356,N,08007.7281405,W,1,27,0.6,328.481,M,-33.184,M,,0000*68
[11:14:38] $GNRMC,151438.680,A,4020.7226356,N,08007.7281405,W,000.1,000.0,260425,,,A,V*1F
[11:14:38] $GPGGA,151438.720,4020.7226355,N,08007.7281406,W,1,27,0.6,328.483,M,-33.184,M,,0000*61
[11:14:38] $GNRMC,151438.720,A,4020.7226355,N,08007.7281406,W,000.1,000.0,260425,,,A,V*14
[11:14:38] $GPGGA,151438.760,4020.7226354,N,08007.7281407,W,1,27,0.6,328.484,M,-33.184,M,,0000*62
[11:14:38] $GNRMC,151438.760,A,4020.7226354,N,08007.7281407,W,000.1,000.0,260425,,,A,V*10
[11:14:38] $GPGGA,151438.800,4020.7226353,N,08007.7281408,W,1,27,0.6,328.485,M,-33.184,M,,0000*62
[11:14:38] $GNRMC,151438.800,A,4020.7226353,N,08007.7281408,W,000.1,000.0,260425,,,A,V*11
[11:14:38] $GPGGA,151438.840,4020.7226352,N,08007.7281409,W,1,27,0.6,328.486,M,-33.184,M,,0000*65
[11:14:38] $GNRMC,151438.840,A,4020.7226352,N,08007.7281409,W,000.1,000.0,260425,,,A,V*15
[11:14:38] $GPGGA,151438.880,4020.7226350,N,08007.7281410,W,1,27,0.6,328.488,M,-33.184,M,,0000*6D
[11:14:38] $GNRMC,151438.880,A,4020.7226350,N,08007.7281410,W,000.1,000.0,260425,,,A,V*13
[11:14:38] $GPGGA,151438.920,4020.7226349,N,08007.7281411,W,1,27,0.6,328.489,M,-33.184,M,,0000*6E
[11:14:38] $GNRMC,151438.920,A,4020.7226349,N,08007.7281411,W,000.1,000.0,260425,,,A,V*11
[11:14:39] $GNRMC,151439.000,A,4020.8230665,N,08007.7299320,W,000.0,000.0,260425,,,F,V*12
[11:14:39] $GPGGA,081726.240,4020.8230665,N,08007.7299320,W,5,27,0.6,-100.484,M,-33.185,M,,0000*41
[11:14:39] $GNRMC,081726.240,A,4020.8230665,N,08007.7299320,W,000.1,000.0,150625,,,F,V*16
[11:14:39] $GPGGA,151439.040,4020.8230663,N,08007.7299321,W,5,27,0.6,-100.483,M,-33.185,M,,0000*42
[11:14:39] $GNRMC,151439.040,A,4020.8230663,N,08007.7299321,W,000.1,000.0,260425,,,F,V*10
[11:14:39] $GPGGA,151439.080,4020.8230662,N,08007.7299321,W,5,27,0.6,-100.482,M,-33.185,M,,0000*4E
[11:14:39] $GNRMC,151439.080,A,4020.8230662,N,08007.7299321,W,000.1,000.0,260425,,,F,V*1D
[11:14:39] $GPGGA,151439.120,4020.8230661,N,08007.7299322,W,5,27,0.6,-100.480,M,-33.185,M,,0000*47
[11:14:39] $GNRMC,151439.120,A,4020.8230661,N,08007.7299322,W,000.1,000.0,260425,,,F,V*16
[11:14:39] $GPGGA,151439.160,4020.8230659,N,08007.7299322,W,5,27,0.6,-100.479,M,-33.185,M,,0000*4E
[11:14:39] $GNRMC,151439.160,A,4020.8230659,N,08007.7299322,W,000.1,000.0,260425,,,F,V*19
[11:14:39] $GPGGA,151439.200,4020.8230658,N,08007.7299323,W,5,27,0.6,-100.478,M,-33.185,M,,0000*4A
[11:14:39] $GNRMC,151439.200,A,4020.8230658,N,08007.7299323,W,000.1,000.0,260425,,,F,V*1C
[11:14:39] $GPGGA,151439.240,4020.8230657,N,08007.7299324,W,5,27,0.6,-100.477,M,-33.185,M,,0000*49
[11:14:39] $GNRMC,151439.240,A,4020.8230657,N,08007.7299324,W,000.1,000.0,260425,,,F,V*10
[11:14:39] $GPGGA,151439.280,4020.8230655,N,08007.7299324,W,5,27,0.6,-100.476,M,-33.185,M,,0000*46
[11:14:39] $GNRMC,151439.280,A,4020.8230655,N,08007.7299324,W,000.1,000.0,260425,,,F,V*1E
[11:14:39] $GPGGA,151439.320,4020.8230654,N,08007.7299325,W,5,27,0.6,-100.474,M,-33.185,M,,0000*4F
[11:14:39] $GNRMC,151439.320,A,4020.8230654,N,08007.7299325,W,000.1,000.0,260425,,,F,V*15
[11:14:39] $GPGGA,151439.360,4020.8230653,N,08007.7299325,W,5,27,0.6,-100.473,M,-33.185,M,,0000*4B
[11:14:39] $GNRMC,151439.360,A,4020.8230653,N,08007.7299325,W,000.1,000.0,260425,,,F,V*16
[11:14:39] $GPGGA,151439.400,4020.8230652,N,08007.7299326,W,5,27,0.6,-100.472,M,-33.185,M,,0000*49
[11:14:39] $GNRMC,151439.400,A,4020.8230652,N,08007.7299326,W,000.1,000.0,260425,,,F,V*15
[11:14:39] $GPGGA,151439.440,4020.8230650,N,08007.7299326,W,5,27,0.6,-100.471,M,-33.185,M,,0000*4C
[11:14:39] $GNRMC,151439.440,A,4020.8230650,N,08007.7299326,W,000.1,000.0,260425,,,F,V*13
[11:14:39] $GPGGA,151439.480,4020.8230649,N,08007.7299327,W,5,27,0.6,-100.470,M,-33.185,M,,0000*48
[11:14:39] $GNRMC,151439.480,A,4020.8230649,N,08007.7299327,W,000.1,000.0,260425,,,F,V*16
[11:14:39] $GPGGA,151439.520,4020.8230648,N,08007.7299327,W,5,27,0.6,-100.468,M,-33.185,M,,0000*4B
[11:14:39] $GNRMC,151439.520,A,4020.8230648,N,08007.7299327,W,000.1,000.0,260425,,,F,V*1C
[11:14:39] $GPGGA,151439.560,4020.8230646,N,08007.7299328,W,5,27,0.6,-100.467,M,-33.185,M,,0000*41
[11:14:39] $GNRMC,151439.560,A,4020.8230646,N,08007.7299328,W,000.1,000.0,260425,,,F,V*19
[11:14:39] $GPGGA,151439.600,4020.8230645,N,08007.7299328,W,5,27,0.6,-100.466,M,-33.185,M,,0000*46
[11:14:39] $GNRMC,151439.600,A,4020.8230645,N,08007.7299328,W,000.1,000.0,260425,,,F,V*1F
[11:14:39] $GPGGA,151439.640,4020.8230644,N,08007.7299329,W,5,27,0.6,-100.465,M,-33.185,M,,0000*41
[11:14:39] $GNRMC,151439.640,A,4020.8230644,N,08007.7299329,W,000.1,000.0,260425,,,F,V*1B
[11:14:39] $GPGGA,151439.680,4020.8230643,N,08007.7299329,W,5,27,0.6,-100.464,M,-33.185,M,,0000*4B
[11:14:39] $GNRMC,151439.680,A,4020.8230643,N,08007.7299329,W,000.1,000.0,260425,,,F,V*10
[11:14:39] $GPGGA,151439.720,4020.8230641,N,08007.7299330,W,5,27,0.6,-100.463,M,-33.185,M,,0000*4D
[11:14:39] $GNRMC,151439.720,A,4020.8230641,N,08007.7299330,W,000.1,000.0,260425,,,F,V*11
[11:14:39] $GPGGA,151439.760,4020.8230640,N,08007.7299330,W,5,27,0.6,-100.461,M,-33.185,M,,0000*4A
[11:14:39] $GNRMC,151439.760,A,4020.8230640,N,08007.7299330,W,000.1,000.0,260425,,,F,V*14
[11:14:39] $GPGGA,151439.800,4020.8230639,N,08007.7299331,W,5,27,0.6,-100.460,M,-33.185,M,,0000*4D
[11:14:39] $GNRMC,151439.800,A,4020.8230639,N,08007.7299331,W,000.1,000.0,260425,,,F,V*12
[11:14:39] $GPGGA,151439.840,4020.8230637,N,08007.7299332,W,5,27,0.6,-100.459,M,-33.185,M,,0000*4E
[11:14:39] $GNRMC,151439.840,A,4020.8230637,N,08007.7299332,W,000.1,000.0,260425,,,F,V*1B
[11:14:39] $GPGGA,151439.880,4020.8230636,N,08007.7299332,W,5,27,0.6,-100.458,M,-33.185,M,,0000*42
[11:14:39] $GNRMC,151439.880,A,4020.8230636,N,08007.7299332,W,000.1,000.0,260425,,,F,V*16
[11:14:39] $GPGGA,151439.920,4020.8230635,N,08007.7299333,W,5,27,0.6,-100.457,M,-33.185,M,,0000*44
[11:14:39] $GNRMC,151439.920,A,4020.8230635,N,08007.7299333,W,000.1,000.0,260425,,,F,V*1F
[11:14:40] $GPGGA,151439.960,4020.8230633,N,08007.7299333,W,5,27,0.6,-100.455,M,-33.185,M,,0000*44
[11:14:40] $GNRMC,151439.960,A,4020.8230633,N,08007.7299333,W,000.1,000.0,260425,,,F,V*1D
[11:14:40] $GPGGA,151440.000,4020.8230727,N,08007.7299155,W,5,27,0.6,-100.382,M,-33.100,M,1.000,0000*6C
[11:14:40] $GNRMC,151440.000,A,4020.8230727,N,08007.7299155,W,000.0,000.0,260425,,,F,V*1B
[11:14:40] $GPGGA,151440.040,4020.8230726,N,08007.7299155,W,5,27,0.6,-100.295,M,-33.185,M,,0000*4C
[11:14:40] $GNRMC,151440.040,A,4020.8230726,N,08007.7299155,W,000.1,000.0,260425,,,F,V*1F
[11:14:40] $GPGGA,151440.080,4020.8230724,N,08007.7299154,W,5,27,0.6,-100.294,M,-33.185,M,,0000*42
[11:14:40] $GNRMC,151440.080,A,4020.8230724,N,08007.7299154,W,000.1,000.0,260425,,,F,V*10
[11:14:40] $GPGGA,151440.120,4020.8230723,N,08007.7299154,W,5,27,0.6,-100.293,M,-33.185,M,,0000*49
[11:14:40] $GNRMC,151440.120,A,4020.8230723,N,08007.7299154,W,000.1,000.0,260425,,,F,V*1C
[11:14:40] $GPGGA,151440.160,4020.8230722,N,08007.7299154,W,5,27,0.6,-100.291,M,-33.185,M,,0000*4E
[11:14:40] $GNRMC,151440.160,A,4020.8230722,N,08007.7299154,W,000.1,000.0,260425,,,F,V*19
[11:14:40] $GPGGA,151440.200,4020.8230721,N,08007.7299154,W,5,27,0.6,-100.290,M,-33.185,M,,0000*49
[11:14:40] $GNRMC,151440.200,A,4020.8230721,N,08007.7299154,W,000.1,000.0,260425,,,F,V*1F
[11:14:40] $GPGGA,151440.240,4020.8230719,N,08007.7299154,W,5,27,0.6,-100.288,M,-33.185,M,,0000*4F
[11:14:40] $GNRMC,151440.240,A,4020.8230719,N,08007.7299154,W,000.1,000.0,260425,,,F,V*10
[11:14:40] $GPGGA,151440.280,4020.8230718,N,08007.7299153,W,5,27,0.6,-100.287,M,-33.185,M,,0000*4A
[11:14:40] $GNRMC,151440.280,A,4020.8230718,N,08007.7299153,W,000.1,000.0,260425,,,F,V*1A
[11:14:40] $GPGGA,151440.320,4020.8230717,N,08007.7299153,W,5,27,0.6,-100.286,M,-33.185,M,,0000*4F
[11:14:40] $GNRMC,151440.320,A,4020.8230717,N,08007.7299153,W,000.1,000.0,260425,,,F,V*1E
[11:14:40] $GPGGA,151440.360,4020.8230715,N,08007.7299153,W,5,27,0.6,-100.284,M,-33.185,M,,0000*4B
[11:14:40] $GNRMC,151440.360,A,4020.8230715,N,08007.7299153,W,000.1,000.0,260425,,,F,V*18
[11:14:40] $GPGGA,151440.400,4020.8230714,N,08007.7299153,W,5,27,0.6,-100.283,M,-33.185,M,,0000*4C
[11:14:40] $GNRMC,151440.400,A,4020.8230714,N,08007.7299153,W,000.1,000.0,260425,,,F,V*18
[11:14:40] $GPGGA,151440.440,4020.8230713,N,08007.7299153,W,5,27,0.6,-100.282,M,-33.185,M,,0000*4E
[11:14:40] $GNRMC,151440.440,A,4020.8230713,N,08007.7299153,W,000.1,000.0,260425,,,F,V*1B
[11:14:40] $GPGGA,151440.480,4020.8230711,N,08007.7299152,W,5,27,0.6,-100.280,M,-33.185,M,,0000*43
[11:14:40] $GNRMC,151440.480,A,4020.8230711,N,08007.7299152,W,000.1,000.0,260425,,,F,V*14
[11:14:40] $GPGGA,151440.520,4020.8230710,N,08007.7299152,W,5,27,0.6,-100.279,M,-33.185,M,,0000*4F
[11:14:40] $GNRMC,151440.520,A,4020.8230710,N,08007.7299152,W,000.1,000.0,260425,,,F,V*1E
[11:14:40] $GPGGA,151440.560,4020.8230709,N,08007.7299152,W,5,27,0.6,-100.277,M,-33.185,M,,0000*4D
[11:14:40] $GNRMC,151440.560,A,4020.8230709,N,08007.7299152,W,000.1,000.0,260425,,,F,V*12
[11:14:40] $GPGGA,151440.600,4020.8230708,N,08007.7299152,W,5,27,0.6,-100.276,M,-33.185,M,,0000*48
[11:14:40] $GNRMC,151440.600,A,4020.8230708,N,08007.7299152,W,000.1,000.0,260425,,,F,V*16
[11:14:40] $GPGGA,151440.640,4020.8230706,N,08007.7299152,W,5,27,0.6,-100.275,M,-33.185,M,,0000*41
[11:14:40] $GNRMC,151440.640,A,4020.8230706,N,08007.7299152,W,000.1,000.0,260425,,,F,V*1C
[11:14:40] $GPGGA,151440.680,4020.8230705,N,08007.7299151,W,5,27,0.6,-100.273,M,-33.185,M,,0000*4B
[11:14:40] $GNRMC,151440.680,A,4020.8230705,N,08007.7299151,W,000.1,000.0,260425,,,F,V*10
[11:14:40] $GPGGA,151440.720,4020.8230704,N,08007.7299151,W,5,27,0.6,-100.272,M,-33.185,M,,0000*40
[11:14:40] $GNRMC,151440.720,A,4020.8230704,N,08007.7299151,W,000.1,000.0,260425,,,F,V*1A
[11:14:40] $GPGGA,151440.760,4020.8230702,N,08007.7299151,W,5,27,0.6,-100.271,M,-33.185,M,,0000*41
[11:14:40] $GNRMC,151440.760,A,4020.8230702,N,08007.7299151,W,000.1,000.0,260425,,,F,V*18
[11:14:40] $GPGGA,151440.800,4020.8230701,N,08007.7299151,W,5,27,0.6,-100.269,M,-33.185,M,,0000*42
[11:14:40] $GNRMC,151440.800,A,4020.8230701,N,08007.7299151,W,000.1,000.0,260425,,,F,V*12
[11:14:40] $GPGGA,151440.840,4020.8230700,N,08007.7299151,W,5,27,0.6,-100.268,M,-33.185,M,,0000*46
[11:14:40] $GNRMC,151440.840,A,4020.8230700,N,08007.7299151,W,000.1,000.0,260425,,,F,V*17
[11:14:40] $GPGGA,151440.880,4020.8230698,N,08007.7299150,W,5,27,0.6,-100.266,M,-33.185,M,,0000*45
[11:14:40] $GNRMC,151440.880,A,4020.8230698,N,08007.7299150,W,000.1,000.0,260425,,,F,V*1A
[11:14:40] $GPGGA,151440.920,4020.8230697,N,08007.7299150,W,5,27,0.6,-100.265,M,-33.185,M,,0000*42
[11:14:40] $GNRMC,151440.920,A,4020.8230697,N,08007.7299150,W,000.1,000.0,260425,,,F,V*1E
[11:14:41] $GPGGA,151440.960,4020.8230696,N,08007.7299150,W,5,27,0.6,-100.264,M,-33.185,M,,0000*46
[11:14:41] $GNRMC,151440.960,A,4020.8230696,N,08007.7299150,W,000.1,000.0,260425,,,F,V*1B
[11:14:41] $GNRMC,151441.000,A,4020.8230821,N,08007.7299062,W,000.0,000.0,260425,,,F,V*16
[11:14:41] $GPGGA,151441.040,4020.8230818,N,08007.7299062,W,5,27,0.6,-100.228,M,-33.185,M,,0000*4C
[11:14:41] $GNRMC,151441.040,A,4020.8230818,N,08007.7299062,W,000.0,000.0,260425,,,F,V*18
[11:14:41] $GPGGA,151441.080,4020.8230815,N,08007.7299063,W,5,27,0.6,-100.227,M,-33.185,M,,0000*43
[11:14:41] $GNRMC,151441.080,A,4020.8230815,N,08007.7299063,W,000.0,000.0,260425,,,F,V*18
[11:14:41] $GPGGA,151441.120,4020.8230812,N,08007.7299064,W,5,27,0.6,-100.226,M,-33.185,M,,0000*49
[11:14:41] $GNRMC,151441.120,A,4020.8230812,N,08007.7299064,W,000.0,000.0,260425,,,F,V*13
[11:14:41] $GPGGA,151441.160,4020.8230810,N,08007.7299064,W,5,27,0.6,-100.225,M,-33.185,M,,0000*4C
[11:14:41] $GNRMC,151441.160,A,4020.8230810,N,08007.7299064,W,000.0,000.0,260425,,,F,V*15
[11:14:41] $GPGGA,151441.200,4020.8230807,N,08007.7299065,W,5,27,0.6,-100.224,M,-33.185,M,,0000*4F
[11:14:41] $GNRMC,151441.200,A,4020.8230807,N,08007.7299065,W,000.0,000.0,260425,,,F,V*17
[11:14:41] $GPGGA,151441.240,4020.8230804,N,08007.7299066,W,5,27,0.6,-100.223,M,-33.185,M,,0000*4C
[11:14:41] $GNRMC,151441.240,A,4020.8230804,N,08007.7299066,W,000.0,000.0,260425,,,F,V*13
[11:14:41] $GPGGA,151441.280,4020.8230802,N,08007.7299066,W,5,27,0.6,-100.222,M,-33.185,M,,0000*47
[11:14:41] $GNRMC,151441.280,A,4020.8230802,N,08007.7299066,W,000.0,000.0,260425,,,F,V*19
[11:14:41] $GPGGA,151441.320,4020.8230799,N,08007.7299067,W,5,27,0.6,-100.221,M,-33.185,M,,0000*43
[11:14:41] $GNRMC,151441.320,A,4020.8230799,N,08007.7299067,W,000.0,000.0,260425,,,F,V*1E
[11:14:41] $GPGGA,151441.360,4020.8230796,N,08007.7299068,W,5,27,0.6,-100.221,M,-33.185,M,,0000*47
[11:14:41] $GNRMC,151441.360,A,4020.8230796,N,08007.7299068,W,000.0,000.0,260425,,,F,V*1A
[11:14:41] $GPGGA,151441.400,4020.8230793,N,08007.7299068,W,5,27,0.6,-100.220,M,-33.185,M,,0000*42
[11:14:41] $GNRMC,151441.400,A,4020.8230793,N,08007.7299068,W,000.0,000.0,260425,,,F,V*1E
[11:14:41] $GPGGA,151441.440,4020.8230791,N,08007.7299069,W,5,27,0.6,-100.219,M,-33.185,M,,0000*4F
[11:14:41] $GNRMC,151441.440,A,4020.8230791,N,08007.7299069,W,000.0,000.0,260425,,,F,V*19
[11:14:41] $GPGGA,151441.480,4020.8230788,N,08007.7299070,W,5,27,0.6,-100.218,M,-33.185,M,,0000*42
[11:14:41] $GNRMC,151441.480,A,4020.8230788,N,08007.7299070,W,000.0,000.0,260425,,,F,V*15
[11:14:41] $GPGGA,151441.520,4020.8230785,N,08007.7299070,W,5,27,0.6,-100.217,M,-33.185,M,,0000*4B
[11:14:41] $GNRMC,151441.520,A,4020.8230785,N,08007.7299070,W,000.0,000.0,260425,,,F,V*13
[11:14:41] $GPGGA,151441.560,4020.8230783,N,08007.7299071,W,5,27,0.6,-100.216,M,-33.185,M,,0000*49
[11:14:41] $GNRMC,151441.560,A,4020.8230783,N,08007.7299071,W,000.0,000.0,260425,,,F,V*10
[11:14:41] $GPGGA,151441.600,4020.8230780,N,08007.7299072,W,5,27,0.6,-100.215,M,-33.185,M,,0000*4F
[11:14:41] $GNRMC,151441.600,A,4020.8230780,N,08007.7299072,W,000.0,000.0,260425,,,F,V*15
[11:14:41] $GPGGA,151441.640,4020.8230777,N,08007.7299072,W,5,27,0.6,-100.215,M,-33.185,M,,0000*43
[11:14:41] $GNRMC,151441.640,A,4020.8230777,N,08007.7299072,W,000.0,000.0,260425,,,F,V*19
[11:14:41] $GPGGA,151441.680,4020.8230774,N,08007.7299073,W,5,27,0.6,-100.214,M,-33.185,M,,0000*4C
[11:14:41] $GNRMC,151441.680,A,4020.8230774,N,08007.7299073,W,000.0,000.0,260425,,,F,V*17
[11:14:41] $GPGGA,151441.720,4020.8230772,N,08007.7299074,W,5,27,0.6,-100.213,M,-33.185,M,,0000*41
[11:14:41] $GNRMC,151441.720,A,4020.8230772,N,08007.7299074,W,000.0,000.0,260425,,,F,V*1D
[11:14:41] $GPGGA,151441.760,4020.8230769,N,08007.7299074,W,5,27,0.6,-100.212,M,-33.185,M,,0000*4E
[11:14:41] $GNRMC,151441.760,A,4020.8230769,N,08007.7299074,W,000.0,000.0,260425,,,F,V*13
[11:14:41] $GPGGA,151441.800,4020.8230766,N,08007.7299075,W,5,27,0.6,-100.211,M,-33.185,M,,0000*4A
[11:14:41] $GNRMC,151441.800,A,4020.8230766,N,08007.7299075,W,000.0,000.0,260425,,,F,V*14
[11:14:41] $GPGGA,151441.840,4020.8230764,N,08007.7299076,W,5,27,0.6,-100.210,M,-33.185,M,,0000*4E
[11:14:41] $GNRMC,151441.840,A,4020.8230764,N,08007.7299076,W,000.0,000.0,260425,,,F,V*11
[11:14:41] $GPGGA,151441.880,4020.8230761,N,08007.7299076,W,5,27,0.6,-100.209,M,-33.185,M,,0000*4F
[11:14:41] $GNRMC,151441.880,A,4020.8230761,N,08007.7299076,W,000.0,000.0,260425,,,F,V*18
[11:14:41] $GPGGA,151441.920,4020.8230758,N,08007.7299077,W,5,27,0.6,-100.209,M,-33.185,M,,0000*4F
[11:14:41] $GNRMC,151441.920,A,4020.8230758,N,08007.7299077,W,000.0,000.0,260425,,,F,V*18
[11:14:42] $GPGGA,151441.960,4020.8230755,N,08007.7299078,W,5,27,0.6,-100.208,M,-33.185,M,,0000*48
[11:14:42] $GNRMC,151441.960,A,4020.8230755,N,08007.7299078,W,000.0,000.0,260425,,,F,V*1E
[11:14:42] $GNRMC,151442.000,A,4020.8230857,N,08007.7298996,W,000.0,000.0,260425,,,F,V*17
[11:14:42] $GPGGA,151442.040,4020.8230854,N,08007.7298996,W,5,27,0.6,-100.161,M,-33.185,M,,0000*4A
[11:14:42] $GNRMC,151442.040,A,4020.8230854,N,08007.7298996,W,000.0,000.0,260425,,,F,V*10
[11:14:42] $GPGGA,151442.080,4020.8230851,N,08007.7298997,W,5,27,0.6,-100.161,M,-33.185,M,,0000*42
[11:14:42] $GNRMC,151442.080,A,4020.8230851,N,08007.7298997,W,000.0,000.0,260425,,,F,V*18
[11:14:42] $GPGGA,151442.120,4020.8230849,N,08007.7298998,W,5,27,0.6,-100.160,M,-33.185,M,,0000*4E
[11:14:42] $GNRMC,151442.120,A,4020.8230849,N,08007.7298998,W,000.0,000.0,260425,,,F,V*15
[11:14:42] $GPGGA,151442.160,4020.8230846,N,08007.7298998,W,5,27,0.6,-100.159,M,-33.185,M,,0000*4F
[11:14:42] $GNRMC,151442.160,A,4020.8230846,N,08007.7298998,W,000.0,000.0,260425,,,F,V*1E
[11:14:42] $GPGGA,151442.200,4020.8230843,N,08007.7298999,W,5,27,0.6,-100.158,M,-33.185,M,,0000*4F
[11:14:42] $GNRMC,151442.200,A,4020.8230843,N,08007.7298999,W,000.0,000.0,260425,,,F,V*1F
[11:14:42] $GPGGA,151442.240,4020.8230841,N,08007.7298999,W,5,27,0.6,-100.157,M,-33.185,M,,0000*46
[11:14:42] $GNRMC,151442.240,A,4020.8230841,N,08007.7298999,W,000.0,000.0,260425,,,F,V*19
[11:14:42] $GPGGA,151442.280,4020.8230838,N,08007.7299000,W,5,27,0.6,-100.156,M,-33.185,M,,0000*4D
[11:14:42] $GNRMC,151442.280,A,4020.8230838,N,08007.7299000,W,000.0,000.0,260425,,,F,V*13
[11:14:42] $GPGGA,151442.320,4020.8230836,N,08007.7299000,W,5,27,0.6,-100.156,M,-33.185,M,,0000*48
[11:14:42] $GNRMC,151442.320,A,4020.8230836,N,08007.7299000,W,000.0,000.0,260425,,,F,V*16
[11:14:42] $GPGGA,151442.360,4020.8230833,N,08007.7299001,W,5,27,0.6,-100.155,M,-33.185,M,,0000*4B
[11:14:42] $GNRMC,151442.360,A,4020.8230833,N,08007.7299001,W,000.0,000.0,260425,,,F,V*16
[11:14:42] $GPGGA,151442.400,4020.8230830,N,08007.7299002,W,5,27,0.6,-100.154,M,-33.185,M,,0000*4B
[11:14:42] $GNRMC,151442.400,A,4020.8230830,N,08007.7299002,W,000.0,000.0,260425,,,F,V*17
[11:14:42] $GPGGA,151442.440,4020.8230828,N,08007.7299002,W,5,27,0.6,-100.153,M,-33.185,M,,0000*41
[11:14:42] $GNRMC,151442.440,A,4020.8230828,N,08007.7299002,W,000.0,000.0,260425,,,F,V*1A
[11:14:42] $GPGGA,151442.480,4020.8230825,N,08007.7299003,W,5,27,0.6,-100.152,M,-33.185,M,,0000*40
[11:14:42] $GNRMC,151442.480,A,4020.8230825,N,08007.7299003,W,000.0,000.0,260425,,,F,V*1A
[11:14:42] $GPGGA,151442.520,4020.8230822,N,08007.7299003,W,5,27,0.6,-100.151,M,-33.185,M,,0000*4F
[11:14:42] $GNRMC,151442.520,A,4020.8230822,N,08007.7299003,W,000.0,000.0,260425,,,F,V*16
[11:14:42] $GPGGA,151442.560,4020.8230820,N,08007.7299004,W,5,27,0.6,-100.151,M,-33.185,M,,0000*4E
[11:14:42] $GNRMC,151442.560,A,4020.8230820,N,08007.7299004,W,000.0,000.0,260425,,,F,V*17
[11:14:42] $GPGGA,151442.600,4020.8230817,N,08007.7299004,W,5,27,0.6,-100.150,M,-33.185,M,,0000*4E
[11:14:42] $GNRMC,151442.600,A,4020.8230817,N,08007.7299004,W,000.0,000.0,260425,,,F,V*16
[11:14:42] $GPGGA,151442.640,4020.8230814,N,08007.7299005,W,5,27,0.6,-100.149,M,-33.185,M,,0000*40
[11:14:42] $GNRMC,151442.640,A,4020.8230814,N,08007.7299005,W,000.0,000.0,260425,,,F,V*10
[11:14:42] $GPGGA,151442.680,4020.8230812,N,08007.7299006,W,5,27,0.6,-100.148,M,-33.185,M,,0000*48
[11:14:42] $GNRMC,151442.680,A,4020.8230812,N,08007.7299006,W,000.0,000.0,260425,,,F,V*19
[11:14:42] $GPGGA,151442.720,4020.8230809,N,08007.7299006,W,5,27,0.6,-100.147,M,-33.185,M,,0000*46
[11:14:42] $GNRMC,151442.720,A,4020.8230809,N,08007.7299006,W,000.0,000.0,260425,,,F,V*18
[11:14:42] $GPGGA,151442.760,4020.8230807,N,08007.7299007,W,5,27,0.6,-100.146,M,-33.185,M,,0000*4C
[11:14:42] $GNRMC,151442.760,A,4020.8230807,N,08007.7299007,W,000.0,000.0,260425,,,F,V*13
[11:14:42] $GPGGA,151442.800,4020.8230804,N,08007.7299007,W,5,27,0.6,-100.146,M,-33.185,M,,0000*46
[11:14:42] $GNRMC,151442.800,A,4020.8230804,N,08007.7299007,W,000.0,000.0,260425,,,F,V*19
[11:14:42] $GPGGA,151442.840,4020.8230801,N,08007.7299008,W,5,27,0.6,-100.145,M,-33.185,M,,0000*4B
[11:14:42] $GNRMC,151442.840,A,4020.8230801,N,08007.7299008,W,000.0,000.0,260425,,,F,V*17
[11:14:42] $GPGGA,151442.880,4020.8230799,N,08007.7299008,W,5,27,0.6,-100.144,M,-33.185,M,,0000*48
[11:14:42] $GNRMC,151442.880,A,4020.8230799,N,08007.7299008,W,000.0,000.0,260425,,,F,V*15
[11:14:42] $GPGGA,151442.920,4020.8230796,N,08007.7299009,W,5,27,0.6,-100.143,M,-33.185,M,,0000*4A
[11:14:42] $GNRMC,151442.920,A,4020.8230796,N,08007.7299009,W,000.0,000.0,260425,,,F,V*10
[11:14:43] $GPGGA,151442.960,4020.8230793,N,08007.7299010,W,5,27,0.6,-100.142,M,-33.185,M,,0000*42
[11:14:43] $GNRMC,151442.960,A,4020.8230793,N,08007.7299010,W,000.0,000.0,260425,,,F,V*19
[11:14:43] $GNRMC,151443.000,A,4020.8230884,N,08007.7298916,W,000.0,000.0,260425,,,F,V*10
[11:14:43] $GPGGA,151443.040,4020.8230883,N,08007.7298916,W,5,27,0.6,-100.106,M,-33.185,M,,0000*48
[11:14:43] $GNRMC,151443.040,A,4020.8230883,N,08007.7298916,W,000.1,000.0,260425,,,F,V*12
[11:14:43] $GPGGA,151443.080,4020.8230881,N,08007.7298916,W,5,27,0.6,-100.105,M,-33.185,M,,0000*45
[11:14:43] $GNRMC,151443.080,A,4020.8230881,N,08007.7298916,W,000.1,000.0,260425,,,F,V*1C
[11:14:43] $GPGGA,151443.120,4020.8230879,N,08007.7298915,W,5,27,0.6,-100.103,M,-33.185,M,,0000*4C
[11:14:43] $GNRMC,151443.120,A,4020.8230879,N,08007.7298915,W,000.1,000.0,260425,,,F,V*13
[11:14:43] $GPGGA,151443.160,4020.8230878,N,08007.7298915,W,5,27,0.6,-100.102,M,-33.185,M,,0000*48
[11:14:43] $GNRMC,151443.160,A,4020.8230878,N,08007.7298915,W,000.1,000.0,260425,,,F,V*16
[11:14:43] $GPGGA,151443.200,4020.8230876,N,08007.7298915,W,5,27,0.6,-100.101,M,-33.185,M,,0000*40
[11:14:43] $GNRMC,151443.200,A,4020.8230876,N,08007.7298915,W,000.1,000.0,260425,,,F,V*1D
[11:14:43] $GPGGA,151443.240,4020.8230875,N,08007.7298914,W,5,27,0.6,-100.099,M,-33.185,M,,0000*46
[11:14:43] $GNRMC,151443.240,A,4020.8230875,N,08007.7298914,W,000.1,000.0,260425,,,F,V*1B
[11:14:43] $GPGGA,151443.280,4020.8230873,N,08007.7298914,W,5,27,0.6,-100.098,M,-33.185,M,,0000*4D
[11:14:43] $GNRMC,151443.280,A,4020.8230873,N,08007.7298914,W,000.1,000.0,260425,,,F,V*11
[11:14:43] $GPGGA,151443.320,4020.8230872,N,08007.7298914,W,5,27,0.6,-100.097,M,-33.185,M,,0000*48
[11:14:43] $GNRMC,151443.320,A,4020.8230872,N,08007.7298914,W,000.1,000.0,260425,,,F,V*1B
[11:14:43] $GPGGA,151443.360,4020.8230870,N,08007.7298913,W,5,27,0.6,-100.095,M,-33.185,M,,0000*4B
[11:14:43] $GNRMC,151443.360,A,4020.8230870,N,08007.7298913,W,000.1,000.0,260425,,,F,V*1A
[11:14:43] $GPGGA,151443.400,4020.8230869,N,08007.7298913,W,5,27,0.6,-100.094,M,-33.185,M,,0000*43
[11:14:43] $GNRMC,151443.400,A,4020.8230869,N,08007.7298913,W,000.1,000.0,260425,,,F,V*13
[11:14:43] $GPGGA,151443.440,4020.8230867,N,08007.7298913,W,5,27,0.6,-100.093,M,-33.185,M,,0000*4E
[11:14:43] $GNRMC,151443.440,A,4020.8230867,N,08007.7298913,W,000.1,000.0,260425,,,F,V*19
[11:14:43] $GPGGA,151443.480,4020.8230866,N,08007.7298912,W,5,27,0.6,-100.092,M,-33.185,M,,0000*43
[11:14:43] $GNRMC,151443.480,A,4020.8230866,N,08007.7298912,W,000.1,000.0,260425,,,F,V*15
[11:14:43] $GPGGA,151443.520,4020.8230864,N,08007.7298912,W,5,27,0.6,-100.090,M,-33.185,M,,0000*48
[11:14:43] $GNRMC,151443.520,A,4020.8230864,N,08007.7298912,W,000.1,000.0,260425,,,F,V*1C
[11:14:43] $GPGGA,151443.560,4020.8230863,N,08007.7298912,W,5,27,0.6,-100.089,M,-33.185,M,,0000*43
[11:14:43] $GNRMC,151443.560,A,4020.8230863,N,08007.7298912,W,000.1,000.0,260425,,,F,V*1F
[11:14:43] $GPGGA,151443.600,4020.8230861,N,08007.7298911,W,5,27,0.6,-100.088,M,-33.185,M,,0000*46
[11:14:43] $GNRMC,151443.600,A,4020.8230861,N,08007.7298911,W,000.1,000.0,260425,,,F,V*1B
[11:14:43] $GPGGA,151443.640,4020.8230860,N,08007.7298911,W,5,27,0.6,-100.086,M,-33.185,M,,0000*4D
[11:14:43] $GNRMC,151443.640,A,4020.8230860,N,08007.7298911,W,000.1,000.0,260425,,,F,V*1E
[11:14:43] $GPGGA,151443.680,4020.8230858,N,08007.7298911,W,5,27,0.6,-100.085,M,-33.185,M,,0000*49
[11:14:43] $GNRMC,151443.680,A,4020.8230858,N,08007.7298911,W,000.1,000.0,260425,,,F,V*19
[11:14:43] $GPGGA,151443.720,4020.8230857,N,08007.7298910,W,5,27,0.6,-100.084,M,-33.185,M,,0000*4D
[11:14:43] $GNRMC,151443.720,A,4020.8230857,N,08007.7298910,W,000.1,000.0,260425,,,F,V*1C
[11:14:43] $GPGGA,151443.760,4020.8230855,N,08007.7298910,W,5,27,0.6,-100.082,M,-33.185,M,,0000*4D
[11:14:43] $GNRMC,151443.760,A,4020.8230855,N,08007.7298910,W,000.1,000.0,260425,,,F,V*1A
[11:14:43] $GPGGA,151443.800,4020.8230854,N,08007.7298910,W,5,27,0.6,-100.081,M,-33.185,M,,0000*46
[11:14:43] $GNRMC,151443.800,A,4020.8230854,N,08007.7298910,W,000.1,000.0,260425,,,F,V*12
[11:14:43] $GPGGA,151443.840,4020.8230852,N,08007.7298909,W,5,27,0.6,-100.080,M,-33.185,M,,0000*4D
[11:14:43] $GNRMC,151443.840,A,4020.8230852,N,08007.7298909,W,000.1,000.0,260425,,,F,V*18
[11:14:43] $GPGGA,151443.880,4020.8230851,N,08007.7298909,W,5,27,0.6,-100.078,M,-33.185,M,,0000*45
[11:14:43] $GNRMC,151443.880,A,4020.8230851,N,08007.7298909,W,000.1,000.0,260425,,,F,V*17
[11:14:43] $GPGGA,151443.920,4020.8230849,N,08007.7298908,W,5,27,0.6,-100.077,M,-33.185,M,,0000*49
[11:14:43] $GNRMC,151443.920,A,4020.8230849,N,08007.7298908,W,000.1,000.0,260425,,,F,V*14
[11:14:44] $GPGGA,151443.960,4020.8230848,N,08007.7298908,W,5,27,0.6,-100.076,M,-33.185,M,,0000*4D
[11:14:44] $GNRMC,151443.960,A,4020.8230848,N,08007.7298908,W,000.1,000.0,260425,,,F,V*11
[11:14:44] $GNRMC,151444.000,A,4020.8230834,N,08007.7298961,W,000.0,000.0,260425,,,F,V*1C
[11:14:44] $GPGGA,151444.040,4020.8230832,N,08007.7298961,W,5,27,0.6,-100.098,M,-33.185,M,,0000*43
[11:14:44] $GNRMC,151444.040,A,4020.8230832,N,08007.7298961,W,000.1,000.0,260425,,,F,V*1F
[11:14:44] $GPGGA,151444.080,4020.8230831,N,08007.7298962,W,5,27,0.6,-100.097,M,-33.185,M,,0000*40
[11:14:44] $GNRMC,151444.080,A,4020.8230831,N,08007.7298962,W,000.1,000.0,260425,,,F,V*13
[11:14:44] $GPGGA,151444.120,4020.8230829,N,08007.7298962,W,5,27,0.6,-100.095,M,-33.185,M,,0000*40
[11:14:44] $GNRMC,151444.120,A,4020.8230829,N,08007.7298962,W,000.1,000.0,260425,,,F,V*11
[11:14:44] $GPGGA,151444.160,4020.8230828,N,08007.7298962,W,5,27,0.6,-100.094,M,-33.185,M,,0000*44
[11:14:44] $GNRMC,151444.160,A,4020.8230828,N,08007.7298962,W,000.1,000.0,260425,,,F,V*14
[11:14:44] $GPGGA,151444.200,4020.8230826,N,08007.7298963,W,5,27,0.6,-100.093,M,-33.185,M,,0000*49
[11:14:44] $GNRMC,151444.200,A,4020.8230826,N,08007.7298963,W,000.1,000.0,260425,,,F,V*1E
[11:14:44] $GPGGA,151444.240,4020.8230825,N,08007.7298963,W,5,27,0.6,-100.092,M,-33.185,M,,0000*4F
[11:14:44] $GNRMC,151444.240,A,4020.8230825,N,08007.7298963,W,000.1,000.0,260425,,,F,V*19
[11:14:44] $GPGGA,151444.280,4020.8230823,N,08007.7298963,W,5,27,0.6,-100.091,M,-33.185,M,,0000*46
[11:14:44] $GNRMC,151444.280,A,4020.8230823,N,08007.7298963,W,000.1,000.0,260425,,,F,V*13
[11:14:44] $GPGGA,151444.320,4020.8230821,N,08007.7298963,W,5,27,0.6,-100.090,M,-33.185,M,,0000*4E
[11:14:44] $GNRMC,151444.320,A,4020.8230821,N,08007.7298963,W,000.1,000.0,260425,,,F,V*1A
[11:14:44] $GPGGA,151444.360,4020.8230820,N,08007.7298964,W,5,27,0.6,-100.088,M,-33.185,M,,0000*45
[11:14:44] $GNRMC,151444.360,A,4020.8230820,N,08007.7298964,W,000.1,000.0,260425,,,F,V*18
[11:14:44] $GPGGA,151444.400,4020.8230818,N,08007.7298964,W,5,27,0.6,-100.087,M,-33.185,M,,0000*40
[11:14:44] $GNRMC,151444.400,A,4020.8230818,N,08007.7298964,W,000.1,000.0,260425,,,F,V*12
[11:14:44] $GPGGA,151444.440,4020.8230817,N,08007.7298964,W,5,27,0.6,-100.086,M,-33.185,M,,0000*4A
[11:14:44] $GNRMC,151444.440,A,4020.8230817,N,08007.7298964,W,000.1,000.0,260425,,,F,V*19
[11:14:44] $GPGGA,151444.480,4020.8230815,N,08007.7298965,W,5,27,0.6,-100.085,M,-33.185,M,,0000*46
[11:14:44] $GNRMC,151444.480,A,4020.8230815,N,08007.7298965,W,000.1,000.0,260425,,,F,V*16
[11:14:44] $GPGGA,151444.520,4020.8230814,N,08007.7298965,W,5,27,0.6,-100.084,M,-33.185,M,,0000*4D
[11:14:44] $GNRMC,151444.520,A,4020.8230814,N,08007.7298965,W,000.1,000.0,260425,,,F,V*1C
[11:14:44] $GPGGA,151444.560,4020.8230812,N,08007.7298965,W,5,27,0.6,-100.083,M,-33.185,M,,0000*48
[11:14:44] $GNRMC,151444.560,A,4020.8230812,N,08007.7298965,W,000.1,000.0,260425,,,F,V*1E
[11:14:44] $GPGGA,151444.600,4020.8230810,N,08007.7298965,W,5,27,0.6,-100.081,M,-33.185,M,,0000*4D
[11:14:44] $GNRMC,151444.600,A,4020.8230810,N,08007.7298965,W,000.1,000.0,260425,,,F,V*19
[11:14:44] $GPGGA,151444.640,4020.8230809,N,08007.7298966,W,5,27,0.6,-100.080,M,-33.185,M,,0000*43
[11:14:44] $GNRMC,151444.640,A,4020.8230809,N,08007.7298966,W,000.1,000.0,260425,,,F,V*16
[11:14:44] $GPGGA,151444.680,4020.8230807,N,08007.7298966,W,5,27,0.6,-100.079,M,-33.185,M,,0000*47
[11:14:44] $GNRMC,151444.680,A,4020.8230807,N,08007.7298966,W,000.1,000.0,260425,,,F,V*14
[11:14:44] $GPGGA,151444.720,4020.8230806,N,08007.7298966,W,5,27,0.6,-100.078,M,-33.185,M,,0000*4C
[11:14:44] $GNRMC,151444.720,A,4020.8230806,N,08007.7298966,W,000.1,000.0,260425,,,F,V*1E
[11:14:44] $GPGGA,151444.760,4020.8230804,N,08007.7298966,W,5,27,0.6,-100.077,M,-33.185,M,,0000*45
[11:14:44] $GNRMC,151444.760,A,4020.8230804,N,08007.7298966,W,000.1,000.0,260425,,,F,V*18
[11:14:44] $GPGGA,151444.800,4020.8230803,N,08007.7298967,W,5,27,0.6,-100.076,M,-33.185,M,,0000*4B
[11:14:44] $GNRMC,151444.800,A,4020.8230803,N,08007.7298967,W,000.1,000.0,260425,,,F,V*17
[11:14:44] $GPGGA,151444.840,4020.8230801,N,08007.7298967,W,5,27,0.6,-100.075,M,-33.185,M,,0000*4E
[11:14:44] $GNRMC,151444.840,A,4020.8230801,N,08007.7298967,W,000.1,000.0,260425,,,F,V*11
[11:14:44] $GPGGA,151444.880,4020.8230799,N,08007.7298967,W,5,27,0.6,-100.073,M,-33.185,M,,0000*4A
[11:14:44] $GNRMC,151444.880,A,4020.8230799,N,08007.7298967,W,000.1,000.0,260425,,,F,V*13
[11:14:44] $GPGGA,151444.920,4020.8230798,N,08007.7298968,W,5,27,0.6,-100.072,M,-33.185,M,,0000*4E
[11:14:44] $GNRMC,151444.920,A,4020.8230798,N,08007.7298968,W,000.1,000.0,260425,,,F,V*16
[11:14:45] $GPGGA,151444.960,4020.8230796,N,08007.7298968,W,5,27,0.6,-100.071,M,-33.185,M,,0000*47
[11:14:45] $GNRMC,151444.960,A,4020.8230796,N,08007.7298968,W,000.1,000.0,260425,,,F,V*1C
[11:14:45] $GNRMC,151445.000,A,4020.8230828,N,08007.7298903,W,000.0,000.0,260425,,,F,V*14
[11:14:45] $GPGGA,151445.040,4020.8230827,N,08007.7298904,W,5,27,0.6,-100.069,M,-33.185,M,,0000*4B
[11:14:45] $GNRMC,151445.040,A,4020.8230827,N,08007.7298904,W,000.1,000.0,260425,,,F,V*19
[11:14:45] $GPGGA,151445.080,4020.8230825,N,08007.7298904,W,5,27,0.6,-100.068,M,-33.185,M,,0000*44
[11:14:45] $GNRMC,151445.080,A,4020.8230825,N,08007.7298904,W,000.1,000.0,260425,,,F,V*17
[11:14:45] $GPGGA,151445.120,4020.8230824,N,08007.7298905,W,5,27,0.6,-100.067,M,-33.185,M,,0000*40
[11:14:45] $GNRMC,151445.120,A,4020.8230824,N,08007.7298905,W,000.1,000.0,260425,,,F,V*1C
[11:14:45] $GPGGA,151445.160,4020.8230823,N,08007.7298905,W,5,27,0.6,-100.065,M,-33.185,M,,0000*41
[11:14:45] $GNRMC,151445.160,A,4020.8230823,N,08007.7298905,W,000.1,000.0,260425,,,F,V*1F
[11:14:45] $GPGGA,151445.200,4020.8230822,N,08007.7298906,W,5,27,0.6,-100.064,M,-33.185,M,,0000*47
[11:14:45] $GNRMC,151445.200,A,4020.8230822,N,08007.7298906,W,000.1,000.0,260425,,,F,V*18
[11:14:45] $GPGGA,151445.240,4020.8230821,N,08007.7298907,W,5,27,0.6,-100.063,M,-33.185,M,,0000*46
[11:14:45] $GNRMC,151445.240,A,4020.8230821,N,08007.7298907,W,000.1,000.0,260425,,,F,V*1E
[11:14:45] $GPGGA,151445.280,4020.8230820,N,08007.7298907,W,5,27,0.6,-100.061,M,-33.185,M,,0000*49
[11:14:45] $GNRMC,151445.280,A,4020.8230820,N,08007.7298907,W,000.1,000.0,260425,,,F,V*13
[11:14:45] $GPGGA,151445.320,4020.8230818,N,08007.7298908,W,5,27,0.6,-100.060,M,-33.185,M,,0000*47
[11:14:45] $GNRMC,151445.320,A,4020.8230818,N,08007.7298908,W,000.1,000.0,260425,,,F,V*1C
[11:14:45] $GPGGA,151445.360,4020.8230817,N,08007.7298909,W,5,27,0.6,-100.059,M,-33.185,M,,0000*47
[11:14:45] $GNRMC,151445.360,A,4020.8230817,N,08007.7298909,W,000.1,000.0,260425,,,F,V*16
[11:14:45] $GPGGA,151445.400,4020.8230816,N,08007.7298909,W,5,27,0.6,-100.057,M,-33.185,M,,0000*49
[11:14:45] $GNRMC,151445.400,A,4020.8230816,N,08007.7298909,W,000.1,000.0,260425,,,F,V*16
[11:14:45] $GPGGA,151445.440,4020.8230815,N,08007.7298910,W,5,27,0.6,-100.056,M,-33.185,M,,0000*47
[11:14:45] $GNRMC,151445.440,A,4020.8230815,N,08007.7298910,W,000.1,000.0,260425,,,F,V*19
[11:14:45] $GPGGA,151445.480,4020.8230814,N,08007.7298911,W,5,27,0.6,-100.055,M,-33.185,M,,0000*48
[11:14:45] $GNRMC,151445.480,A,4020.8230814,N,08007.7298911,W,000.1,000.0,260425,,,F,V*15
[11:14:45] $GPGGA,151445.520,4020.8230812,N,08007.7298911,W,5,27,0.6,-100.053,M,-33.185,M,,0000*43
[11:14:45] $GNRMC,151445.520,A,4020.8230812,N,08007.7298911,W,000.1,000.0,260425,,,F,V*18
[11:14:45] $GPGGA,151445.560,4020.8230811,N,08007.7298912,W,5,27,0.6,-100.052,M,-33.185,M,,0000*46
[11:14:45] $GNRMC,151445.560,A,4020.8230811,N,08007.7298912,W,000.1,000.0,260425,,,F,V*1C
[11:14:45] $GPGGA,151445.600,4020.8230810,N,08007.7298912,W,5,27,0.6,-100.051,M,-33.185,M,,0000*41
[11:14:45] $GNRMC,151445.600,A,4020.8230810,N,08007.7298912,W,000.1,000.0,260425,,,F,V*18
[11:14:45] $GPGGA,151445.640,4020.8230809,N,08007.7298913,W,5,27,0.6,-100.049,M,-33.185,M,,0000*45
[11:14:45] $GNRMC,151445.640,A,4020.8230809,N,08007.7298913,W,000.1,000.0,260425,,,F,V*15
[11:14:45] $GPGGA,151445.680,4020.8230808,N,08007.7298914,W,5,27,0.6,-100.048,M,-33.185,M,,0000*4E
[11:14:45] $GNRMC,151445.680,A,4020.8230808,N,08007.7298914,W,000.1,000.0,260425,,,F,V*1F
[11:14:45] $GPGGA,151445.720,4020.8230806,N,08007.7298914,W,5,27,0.6,-100.047,M,-33.185,M,,0000*44
[11:14:45] $GNRMC,151445.720,A,4020.8230806,N,08007.7298914,W,000.1,000.0,260425,,,F,V*1A
[11:14:45] $GPGGA,151445.760,4020.8230805,N,08007.7298915,W,5,27,0.6,-100.046,M,-33.185,M,,0000*43
[11:14:45] $GNRMC,151445.760,A,4020.8230805,N,08007.7298915,W,000.1,000.0,260425,,,F,V*1C
[11:14:45] $GPGGA,151445.800,4020.8230804,N,08007.7298916,W,5,27,0.6,-100.044,M,-33.185,M,,0000*4A
[11:14:45] $GNRMC,151445.800,A,4020.8230804,N,08007.7298916,W,000.1,000.0,260425,,,F,V*17
[11:14:45] $GPGGA,151445.840,4020.8230803,N,08007.7298916,W,5,27,0.6,-100.043,M,-33.185,M,,0000*4E
[11:14:45] $GNRMC,151445.840,A,4020.8230803,N,08007.7298916,W,000.1,000.0,260425,,,F,V*14
[11:14:45] $GPGGA,151445.880,4020.8230802,N,08007.7298917,W,5,27,0.6,-100.042,M,-33.185,M,,0000*43
[11:14:45] $GNRMC,151445.880,A,4020.8230802,N,08007.7298917,W,000.1,000.0,260425,,,F,V*18
[11:14:45] $GPGGA,151445.920,4020.8230801,N,08007.7298918,W,5,27,0.6,-100.040,M,-33.185,M,,0000*46
[11:14:45] $GNRMC,151445.920,A,4020.8230801,N,08007.7298918,W,000.1,000.0,260425,,,F,V*1F
[11:14:46] $GPGGA,151445.960,4020.8230799,N,08007.7298918,W,5,27,0.6,-100.039,M,-33.185,M,,0000*42
[11:14:46] $GNRMC,151445.960,A,4020.8230799,N,08007.7298918,W,000.1,000.0,260425,,,F,V*15
[11:14:46] $GNRMC,151446.000,A,4020.8230865,N,08007.7298901,W,000.0,000.0,260425,,,F,V*1C
[11:14:46] $GPGGA,151446.040,4020.8230864,N,08007.7298902,W,5,27,0.6,-100.048,M,-33.185,M,,0000*4A
[11:14:46] $GNRMC,151446.040,A,4020.8230864,N,08007.7298902,W,000.1,000.0,260425,,,F,V*1B
[11:14:46] $GPGGA,151446.080,4020.8230863,N,08007.7298902,W,5,27,0.6,-100.047,M,-33.185,M,,0000*4E
[11:14:46] $GNRMC,151446.080,A,4020.8230863,N,08007.7298902,W,000.1,000.0,260425,,,F,V*10
[11:14:46] $GPGGA,151446.120,4020.8230862,N,08007.7298903,W,5,27,0.6,-100.046,M,-33.185,M,,0000*44
[11:14:46] $GNRMC,151446.120,A,4020.8230862,N,08007.7298903,W,000.1,000.0,260425,,,F,V*1B
[11:14:46] $GPGGA,151446.160,4020.8230861,N,08007.7298904,W,5,27,0.6,-100.044,M,-33.185,M,,0000*46
[11:14:46] $GNRMC,151446.160,A,4020.8230861,N,08007.7298904,W,000.1,000.0,260425,,,F,V*1B
[11:14:46] $GPGGA,151446.200,4020.8230860,N,08007.7298905,W,5,27,0.6,-100.043,M,-33.185,M,,0000*44
[11:14:46] $GNRMC,151446.200,A,4020.8230860,N,08007.7298905,W,000.1,000.0,260425,,,F,V*1E
[11:14:46] $GPGGA,151446.240,4020.8230859,N,08007.7298906,W,5,27,0.6,-100.042,M,-33.185,M,,0000*48
[11:14:46] $GNRMC,151446.240,A,4020.8230859,N,08007.7298906,W,000.1,000.0,260425,,,F,V*13
[11:14:46] $GPGGA,151446.280,4020.8230858,N,08007.7298907,W,5,27,0.6,-100.041,M,-33.185,M,,0000*47
[11:14:46] $GNRMC,151446.280,A,4020.8230858,N,08007.7298907,W,000.1,000.0,260425,,,F,V*1F
[11:14:46] $GPGGA,151446.320,4020.8230857,N,08007.7298907,W,5,27,0.6,-100.039,M,-33.185,M,,0000*4C
[11:14:46] $GNRMC,151446.320,A,4020.8230857,N,08007.7298907,W,000.1,000.0,260425,,,F,V*1B
[11:14:46] $GPGGA,151446.360,4020.8230855,N,08007.7298908,W,5,27,0.6,-100.038,M,-33.185,M,,0000*44
[11:14:46] $GNRMC,151446.360,A,4020.8230855,N,08007.7298908,W,000.1,000.0,260425,,,F,V*12
[11:14:46] $GPGGA,151446.400,4020.8230854,N,08007.7298909,W,5,27,0.6,-100.037,M,-33.185,M,,0000*4A
[11:14:46] $GNRMC,151446.400,A,4020.8230854,N,08007.7298909,W,000.1,000.0,260425,,,F,V*13
[11:14:46] $GPGGA,151446.440,4020.8230853,N,08007.7298910,W,5,27,0.6,-100.036,M,-33.185,M,,0000*40
[11:14:46] $GNRMC,151446.440,A,4020.8230853,N,08007.7298910,W,000.1,000.0,260425,,,F,V*18
[11:14:46] $GPGGA,151446.480,4020.8230852,N,08007.7298911,W,5,27,0.6,-100.034,M,-33.185,M,,0000*4E
[11:14:46] $GNRMC,151446.480,A,4020.8230852,N,08007.7298911,W,000.1,000.0,260425,,,F,V*14
[11:14:46] $GPGGA,151446.520,4020.8230851,N,08007.7298911,W,5,27,0.6,-100.033,M,-33.185,M,,0000*41
[11:14:46] $GNRMC,151446.520,A,4020.8230851,N,08007.7298911,W,000.1,000.0,260425,,,F,V*1C
[11:14:46] $GPGGA,151446.560,4020.8230850,N,08007.7298912,W,5,27,0.6,-100.032,M,-33.185,M,,0000*46
[11:14:46] $GNRMC,151446.560,A,4020.8230850,N,08007.7298912,W,000.1,000.0,260425,,,F,V*1A
[11:14:46] $GPGGA,151446.600,4020.8230849,N,08007.7298913,W,5,27,0.6,-100.030,M,-33.185,M,,0000*48
[11:14:46] $GNRMC,151446.600,A,4020.8230849,N,08007.7298913,W,000.1,000.0,260425,,,F,V*16
[11:14:46] $GPGGA,151446.640,4020.8230848,N,08007.7298914,W,5,27,0.6,-100.029,M,-33.185,M,,0000*42
[11:14:46] $GNRMC,151446.640,A,4020.8230848,N,08007.7298914,W,000.1,000.0,260425,,,F,V*14
[11:14:46] $GPGGA,151446.680,4020.8230847,N,08007.7298915,W,5,27,0.6,-100.028,M,-33.185,M,,0000*41
[11:14:46] $GNRMC,151446.680,A,4020.8230847,N,08007.7298915,W,000.1,000.0,260425,,,F,V*16
[11:14:46] $GPGGA,151446.720,4020.8230846,N,08007.7298916,W,5,27,0.6,-100.027,M,-33.185,M,,0000*47
[11:14:46] $GNRMC,151446.720,A,4020.8230846,N,08007.7298916,W,000.1,000.0,260425,,,F,V*1F
[11:14:46] $GPGGA,151446.760,4020.8230845,N,08007.7298916,W,5,27,0.6,-100.025,M,-33.185,M,,0000*42
[11:14:46] $GNRMC,151446.760,A,4020.8230845,N,08007.7298916,W,000.1,000.0,260425,,,F,V*18
[11:14:46] $GPGGA,151446.800,4020.8230844,N,08007.7298917,W,5,27,0.6,-100.024,M,-33.185,M,,0000*4A
[11:14:46] $GNRMC,151446.800,A,4020.8230844,N,08007.7298917,W,000.1,000.0,260425,,,F,V*11
[11:14:46] $GPGGA,151446.840,4020.8230843,N,08007.7298918,W,5,27,0.6,-100.023,M,-33.185,M,,0000*41
[11:14:46] $GNRMC,151446.840,A,4020.8230843,N,08007.7298918,W,000.1,000.0,260425,,,F,V*1D
[11:14:46] $GPGGA,151446.880,4020.8230842,N,08007.7298919,W,5,27,0.6,-100.022,M,-33.185,M,,0000*4C
[11:14:46] $GNRMC,151446.880,A,4020.8230842,N,08007.7298919,W,000.1,000.0,260425,,,F,V*11
[11:14:46] $GPGGA,151446.920,4020.8230841,N,08007.7298920,W,5,27,0.6,-100.020,M,-33.185,M,,0000*4C
[11:14:46] $GNRMC,151446.920,A,4020.8230841,N,08007.7298920,W,000.1,000.0,260425,,,F,V*13
[11:14:47] $GPGGA,151446.960,4020.8230840,N,08007.7298921,W,5,27,0.6,-100.019,M,-33.185,M,,0000*42
[11:14:47] $GNRMC,151446.960,A,4020.8230840,N,08007.7298921,W,000.1,000.0,260425,,,F,V*17
[11:14:47] $GNRMC,151447.000,A,4020.8230858,N,08007.7298903,W,000.0,000.0,260425,,,F,V*11
[11:14:47] $GPGGA,151447.040,4020.8230856,N,08007.7298904,W,5,27,0.6,-100.047,M,-33.185,M,,0000*43
[11:14:47] $GNRMC,151447.040,A,4020.8230856,N,08007.7298904,W,000.1,000.0,260425,,,F,V*1D
[11:14:47] $GPGGA,151447.080,4020.8230855,N,08007.7298905,W,5,27,0.6,-100.046,M,-33.185,M,,0000*4C
[11:14:47] $GNRMC,151447.080,A,4020.8230855,N,08007.7298905,W,000.1,000.0,260425,,,F,V*13
[11:14:47] $GPGGA,151447.120,4020.8230854,N,08007.7298905,W,5,27,0.6,-100.045,M,-33.185,M,,0000*45
[11:14:47] $GNRMC,151447.120,A,4020.8230854,N,08007.7298905,W,000.1,000.0,260425,,,F,V*19
[11:14:47] $GPGGA,151447.160,4020.8230853,N,08007.7298906,W,5,27,0.6,-100.043,M,-33.185,M,,0000*43
[11:14:47] $GNRMC,151447.160,A,4020.8230853,N,08007.7298906,W,000.1,000.0,260425,,,F,V*19
[11:14:47] $GPGGA,151447.200,4020.8230852,N,08007.7298906,W,5,27,0.6,-100.042,M,-33.185,M,,0000*46
[11:14:47] $GNRMC,151447.200,A,4020.8230852,N,08007.7298906,W,000.1,000.0,260425,,,F,V*1D
[11:14:47] $GPGGA,151447.240,4020.8230851,N,08007.7298907,W,5,27,0.6,-100.041,M,-33.185,M,,0000*43
[11:14:47] $GNRMC,151447.240,A,4020.8230851,N,08007.7298907,W,000.1,000.0,260425,,,F,V*1B
[11:14:47] $GPGGA,151447.280,4020.8230850,N,08007.7298907,W,5,27,0.6,-100.040,M,-33.185,M,,0000*4F
[11:14:47] $GNRMC,151447.280,A,4020.8230850,N,08007.7298907,W,000.1,000.0,260425,,,F,V*16
[11:14:47] $GPGGA,151447.320,4020.8230849,N,08007.7298908,W,5,27,0.6,-100.039,M,-33.185,M,,0000*4D
[11:14:47] $GNRMC,151447.320,A,4020.8230849,N,08007.7298908,W,000.1,000.0,260425,,,F,V*1A
[11:14:47] $GPGGA,151447.360,4020.8230847,N,08007.7298908,W,5,27,0.6,-100.038,M,-33.185,M,,0000*46
[11:14:47] $GNRMC,151447.360,A,4020.8230847,N,08007.7298908,W,000.1,000.0,260425,,,F,V*10
[11:14:47] $GPGGA,151447.400,4020.8230846,N,08007.7298909,W,5,27,0.6,-100.037,M,-33.185,M,,0000*48
[11:14:47] $GNRMC,151447.400,A,4020.8230846,N,08007.7298909,W,000.1,000.0,260425,,,F,V*11
[11:14:47] $GPGGA,151447.440,4020.8230845,N,08007.7298909,W,5,27,0.6,-100.035,M,-33.185,M,,0000*4D
[11:14:47] $GNRMC,151447.440,A,4020.8230845,N,08007.7298909,W,000.1,000.0,260425,,,F,V*16
[11:14:47] $GPGGA,151447.480,4020.8230844,N,08007.7298910,W,5,27,0.6,-100.034,M,-33.185,M,,0000*49
[11:14:47] $GNRMC,151447.480,A,4020.8230844,N,08007.7298910,W,000.1,000.0,260425,,,F,V*13
[11:14:47] $GPGGA,151447.520,4020.8230843,N,08007.7298910,W,5,27,0.6,-100.033,M,-33.185,M,,0000*42
[11:14:47] $GNRMC,151447.520,A,4020.8230843,N,08007.7298910,W,000.1,000.0,260425,,,F,V*1F
[11:14:47] $GPGGA,151447.560,4020.8230842,N,08007.7298911,W,5,27,0.6,-100.032,M,-33.185,M,,0000*47
[11:14:47] $GNRMC,151447.560,A,4020.8230842,N,08007.7298911,W,000.1,000.0,260425,,,F,V*1B
[11:14:47] $GPGGA,151447.600,4020.8230841,N,08007.7298912,W,5,27,0.6,-100.031,M,-33.185,M,,0000*41
[11:14:47] $GNRMC,151447.600,A,4020.8230841,N,08007.7298912,W,000.1,000.0,260425,,,F,V*1E
[11:14:47] $GPGGA,151447.640,4020.8230840,N,08007.7298912,W,5,27,0.6,-100.030,M,-33.185,M,,0000*45
[11:14:47] $GNRMC,151447.640,A,4020.8230840,N,08007.7298912,W,000.1,000.0,260425,,,F,V*1B
[11:14:47] $GPGGA,151447.680,4020.8230838,N,08007.7298913,W,5,27,0.6,-100.028,M,-33.185,M,,0000*4E
[11:14:47] $GNRMC,151447.680,A,4020.8230838,N,08007.7298913,W,000.1,000.0,260425,,,F,V*19
[11:14:47] $GPGGA,151447.720,4020.8230837,N,08007.7298913,W,5,27,0.6,-100.027,M,-33.185,M,,0000*45
[11:14:47] $GNRMC,151447.720,A,4020.8230837,N,08007.7298913,W,000.1,000.0,260425,,,F,V*1D
[11:14:47] $GPGGA,151447.760,4020.8230836,N,08007.7298914,W,5,27,0.6,-100.026,M,-33.185,M,,0000*46
[11:14:47] $GNRMC,151447.760,A,4020.8230836,N,08007.7298914,W,000.1,000.0,260425,,,F,V*1F
[11:14:47] $GPGGA,151447.800,4020.8230835,N,08007.7298914,W,5,27,0.6,-100.025,M,-33.185,M,,0000*4F
[11:14:47] $GNRMC,151447.800,A,4020.8230835,N,08007.7298914,W,000.1,000.0,260425,,,F,V*15
[11:14:47] $GPGGA,151447.840,4020.8230834,N,08007.7298915,W,5,27,0.6,-100.024,M,-33.185,M,,0000*4A
[11:14:47] $GNRMC,151447.840,A,4020.8230834,N,08007.7298915,W,000.1,000.0,260425,,,F,V*11
[11:14:47] $GPGGA,151447.880,4020.8230833,N,08007.7298915,W,5,27,0.6,-100.023,M,-33.185,M,,0000*46
[11:14:47] $GNRMC,151447.880,A,4020.8230833,N,08007.7298915,W,000.1,000.0,260425,,,F,V*1A
[11:14:47] $GPGGA,151447.920,4020.8230832,N,08007.7298916,W,5,27,0.6,-100.021,M,-33.185,M,,0000*4D
[11:14:47] $GNRMC,151447.920,A,4020.8230832,N,08007.7298916,W,000.1,000.0,260425,,,F,V*13
[11:14:48] $GPGGA,151447.960,4020.8230831,N,08007.7298916,W,5,27,0.6,-100.020,M,-33.185,M,,0000*4B
[11:14:48] $GNRMC,151447.960,A,4020.8230831,N,08007.7298916,W,000.1,000.0,260425,,,F,V*14
[11:14:48] $GNRMC,151448.000,A,4020.8230838,N,08007.7298856,W,000.0,000.0,260425,,,F,V*19
[11:14:48] $GPGGA,151448.040,4020.8230836,N,08007.7298856,W,5,27,0.6,-100.029,M,-33.185,M,,0000*44
[11:14:48] $GNRMC,151448.040,A,4020.8230836,N,08007.7298856,W,000.1,000.0,260425,,,F,V*12
[11:14:48] $GPGGA,151448.080,4020.8230834,N,08007.7298856,W,5,27,0.6,-100.028,M,-33.185,M,,0000*4B
[11:14:48] $GNRMC,151448.080,A,4020.8230834,N,08007.7298856,W,000.1,000.0,260425,,,F,V*1C
[11:14:48] $GPGGA,151448.120,4020.8230831,N,08007.7298855,W,5,27,0.6,-100.026,M,-33.185,M,,0000*48
[11:14:48] $GNRMC,151448.120,A,4020.8230831,N,08007.7298855,W,000.1,000.0,260425,,,F,V*11
[11:14:48] $GPGGA,151448.160,4020.8230829,N,08007.7298855,W,5,27,0.6,-100.025,M,-33.185,M,,0000*46
[11:14:48] $GNRMC,151448.160,A,4020.8230829,N,08007.7298855,W,000.1,000.0,260425,,,F,V*1C
[11:14:48] $GPGGA,151448.200,4020.8230827,N,08007.7298855,W,5,27,0.6,-100.024,M,-33.185,M,,0000*4C
[11:14:48] $GNRMC,151448.200,A,4020.8230827,N,08007.7298855,W,000.1,000.0,260425,,,F,V*17
[11:14:48] $GPGGA,151448.240,4020.8230825,N,08007.7298855,W,5,27,0.6,-100.022,M,-33.185,M,,0000*4C
[11:14:48] $GNRMC,151448.240,A,4020.8230825,N,08007.7298855,W,000.1,000.0,260425,,,F,V*11
[11:14:48] $GPGGA,151448.280,4020.8230822,N,08007.7298855,W,5,27,0.6,-100.021,M,-33.185,M,,0000*44
[11:14:48] $GNRMC,151448.280,A,4020.8230822,N,08007.7298855,W,000.1,000.0,260425,,,F,V*1A
[11:14:48] $GPGGA,151448.320,4020.8230820,N,08007.7298855,W,5,27,0.6,-100.019,M,-33.185,M,,0000*46
[11:14:48] $GNRMC,151448.320,A,4020.8230820,N,08007.7298855,W,000.1,000.0,260425,,,F,V*13
[11:14:48] $GPGGA,151448.360,4020.8230818,N,08007.7298855,W,5,27,0.6,-100.018,M,-33.185,M,,0000*48
[11:14:48] $GNRMC,151448.360,A,4020.8230818,N,08007.7298855,W,000.1,000.0,260425,,,F,V*1C
[11:14:48] $GPGGA,151448.400,4020.8230815,N,08007.7298854,W,5,27,0.6,-100.017,M,-33.185,M,,0000*4A
[11:14:48] $GNRMC,151448.400,A,4020.8230815,N,08007.7298854,W,000.1,000.0,260425,,,F,V*11
[11:14:48] $GPGGA,151448.440,4020.8230813,N,08007.7298854,W,5,27,0.6,-100.015,M,-33.185,M,,0000*4A
[11:14:48] $GNRMC,151448.440,A,4020.8230813,N,08007.7298854,W,000.1,000.0,260425,,,F,V*13
[11:14:48] $GPGGA,151448.480,4020.8230811,N,08007.7298854,W,5,27,0.6,-100.014,M,-33.185,M,,0000*45
[11:14:48] $GNRMC,151448.480,A,4020.8230811,N,08007.7298854,W,000.1,000.0,260425,,,F,V*1D
[11:14:48] $GPGGA,151448.520,4020.8230808,N,08007.7298854,W,5,27,0.6,-100.013,M,-33.185,M,,0000*41
[11:14:48] $GNRMC,151448.520,A,4020.8230808,N,08007.7298854,W,000.1,000.0,260425,,,F,V*1E
[11:14:48] $GPGGA,151448.560,4020.8230806,N,08007.7298854,W,5,27,0.6,-100.011,M,-33.185,M,,0000*49
[11:14:48] $GNRMC,151448.560,A,4020.8230806,N,08007.7298854,W,000.1,000.0,260425,,,F,V*14
[11:14:48] $GPGGA,151448.600,4020.8230804,N,08007.7298854,W,5,27,0.6,-100.010,M,-33.185,M,,0000*4F
[11:14:48] $GNRMC,151448.600,A,4020.8230804,N,08007.7298854,W,000.1,000.0,260425,,,F,V*13
[11:14:48] $GPGGA,151448.640,4020.8230801,N,08007.7298854,W,5,27,0.6,-100.008,M,-33.185,M,,0000*47
[11:14:48] $GNRMC,151448.640,A,4020.8230801,N,08007.7298854,W,000.1,000.0,260425,,,F,V*12
[11:14:48] $GPGGA,151448.680,4020.8230799,N,08007.7298853,W,5,27,0.6,-100.007,M,-33.185,M,,0000*4D
[11:14:48] $GNRMC,151448.680,A,4020.8230799,N,08007.7298853,W,000.1,000.0,260425,,,F,V*17
[11:14:48] $GPGGA,151448.720,4020.8230797,N,08007.7298853,W,5,27,0.6,-100.006,M,-33.185,M,,0000*49
[11:14:48] $GNRMC,151448.720,A,4020.8230797,N,08007.7298853,W,000.1,000.0,260425,,,F,V*12
[11:14:48] $GPGGA,151448.760,4020.8230795,N,08007.7298853,W,5,27,0.6,-100.004,M,-33.185,M,,0000*4D
[11:14:48] $GNRMC,151448.760,A,4020.8230795,N,08007.7298853,W,000.1,000.0,260425,,,F,V*14
[11:14:48] $GPGGA,151448.800,4020.8230792,N,08007.7298853,W,5,27,0.6,-100.003,M,-33.185,M,,0000*44
[11:14:48] $GNRMC,151448.800,A,4020.8230792,N,08007.7298853,W,000.1,000.0,260425,,,F,V*1A
[11:14:48] $GPGGA,151448.840,4020.8230790,N,08007.7298853,W,5,27,0.6,-100.001,M,-33.185,M,,0000*40
[11:14:48] $GNRMC,151448.840,A,4020.8230790,N,08007.7298853,W,000.1,000.0,260425,,,F,V*1C
[11:14:48] $GPGGA,151448.880,4020.8230788,N,08007.7298853,W,5,27,0.6,-100.000,M,-33.185,M,,0000*44
[11:14:48] $GNRMC,151448.880,A,4020.8230788,N,08007.7298853,W,000.1,000.0,260425,,,F,V*19
[11:14:48] $GPGGA,151448.920,4020.8230785,N,08007.7298852,W,5,27,0.6,-99.999,M,-33.185,M,,0000*7B
[11:14:48] $GNRMC,151448.920,A,4020.8230785,N,08007.7298852,W,000.1,000.0,260425,,,F,V*1E
[11:14:49] $GPGGA,151448.960,4020.8230783,N,08007.7298852,W,5,27,0.6,-99.997,M,-33.185,M,,0000*77
[11:14:49] $GNRMC,151448.960,A,4020.8230783,N,08007.7298852,W,000.1,000.0,260425,,,F,V*1C
[11:14:49] $GNRMC,151449.000,A,4020.8230867,N,08007.7298905,W,000.0,000.0,260425,,,F,V*15
[11:14:49] $GPGGA,151449.040,4020.8230866,N,08007.7298906,W,5,27,0.6,-100.025,M,-33.185,M,,0000*48
[11:14:49] $GNRMC,151449.040,A,4020.8230866,N,08007.7298906,W,000.0,000.0,260425,,,F,V*13
[11:14:49] $GPGGA,151449.080,4020.8230864,N,08007.7298907,W,5,27,0.6,-100.024,M,-33.185,M,,0000*46
[11:14:49] $GNRMC,151449.080,A,4020.8230864,N,08007.7298907,W,000.0,000.0,260425,,,F,V*1C
[11:14:49] $GPGGA,151449.120,4020.8230863,N,08007.7298908,W,5,27,0.6,-100.023,M,-33.185,M,,0000*42
[11:14:49] $GNRMC,151449.120,A,4020.8230863,N,08007.7298908,W,000.0,000.0,260425,,,F,V*1F
[11:14:49] $GPGGA,151449.160,4020.8230861,N,08007.7298909,W,5,27,0.6,-100.022,M,-33.185,M,,0000*44
[11:14:49] $GNRMC,151449.160,A,4020.8230861,N,08007.7298909,W,000.0,000.0,260425,,,F,V*18
[11:14:49] $GPGGA,151449.200,4020.8230860,N,08007.7298911,W,5,27,0.6,-100.021,M,-33.185,M,,0000*4A
[11:14:49] $GNRMC,151449.200,A,4020.8230860,N,08007.7298911,W,000.0,000.0,260425,,,F,V*15
[11:14:49] $GPGGA,151449.240,4020.8230858,N,08007.7298912,W,5,27,0.6,-100.020,M,-33.185,M,,0000*47
[11:14:49] $GNRMC,151449.240,A,4020.8230858,N,08007.7298912,W,000.0,000.0,260425,,,F,V*19
[11:14:49] $GPGGA,151449.280,4020.8230857,N,08007.7298913,W,5,27,0.6,-100.019,M,-33.185,M,,0000*4F
[11:14:49] $GNRMC,151449.280,A,4020.8230857,N,08007.7298913,W,000.0,000.0,260425,,,F,V*1B
[11:14:49] $GPGGA,151449.320,4020.8230855,N,08007.7298914,W,5,27,0.6,-100.018,M,-33.185,M,,0000*40
[11:14:49] $GNRMC,151449.320,A,4020.8230855,N,08007.7298914,W,000.0,000.0,260425,,,F,V*15
[11:14:49] $GPGGA,151449.360,4020.8230854,N,08007.7298915,W,5,27,0.6,-100.018,M,-33.185,M,,0000*44
[11:14:49] $GNRMC,151449.360,A,4020.8230854,N,08007.7298915,W,000.0,000.0,260425,,,F,V*11
[11:14:49] $GPGGA,151449.400,4020.8230852,N,08007.7298916,W,5,27,0.6,-100.017,M,-33.185,M,,0000*4F
[11:14:49] $GNRMC,151449.400,A,4020.8230852,N,08007.7298916,W,000.0,000.0,260425,,,F,V*15
[11:14:49] $GPGGA,151449.440,4020.8230851,N,08007.7298917,W,5,27,0.6,-100.016,M,-33.185,M,,0000*48
[11:14:49] $GNRMC,151449.440,A,4020.8230851,N,08007.7298917,W,000.0,000.0,260425,,,F,V*13
[11:14:49] $GPGGA,151449.480,4020.8230849,N,08007.7298918,W,5,27,0.6,-100.015,M,-33.185,M,,0000*41
[11:14:49] $GNRMC,151449.480,A,4020.8230849,N,08007.7298918,W,000.0,000.0,260425,,,F,V*19
[11:14:49] $GPGGA,151449.520,4020.8230848,N,08007.7298919,W,5,27,0.6,-100.014,M,-33.185,M,,0000*4B
[11:14:49] $GNRMC,151449.520,A,4020.8230848,N,08007.7298919,W,000.0,000.0,260425,,,F,V*12
[11:14:49] $GPGGA,151449.560,4020.8230846,N,08007.7298920,W,5,27,0.6,-100.013,M,-33.185,M,,0000*4C
[11:14:49] $GNRMC,151449.560,A,4020.8230846,N,08007.7298920,W,000.0,000.0,260425,,,F,V*12
[11:14:49] $GPGGA,151449.600,4020.8230845,N,08007.7298921,W,5,27,0.6,-100.012,M,-33.185,M,,0000*4A
[11:14:49] $GNRMC,151449.600,A,4020.8230845,N,08007.7298921,W,000.0,000.0,260425,,,F,V*15
[11:14:49] $GPGGA,151449.640,4020.8230843,N,08007.7298922,W,5,27,0.6,-100.011,M,-33.185,M,,0000*48
[11:14:49] $GNRMC,151449.640,A,4020.8230843,N,08007.7298922,W,000.0,000.0,260425,,,F,V*14
[11:14:49] $GPGGA,151449.680,4020.8230842,N,08007.7298923,W,5,27,0.6,-100.010,M,-33.185,M,,0000*45
[11:14:49] $GNRMC,151449.680,A,4020.8230842,N,08007.7298923,W,000.0,000.0,260425,,,F,V*18
[11:14:49] $GPGGA,151449.720,4020.8230840,N,08007.7298924,W,5,27,0.6,-100.009,M,-33.185,M,,0000*43
[11:14:49] $GNRMC,151449.720,A,4020.8230840,N,08007.7298924,W,000.0,000.0,260425,,,F,V*16
[11:14:49] $GPGGA,151449.760,4020.8230839,N,08007.7298925,W,5,27,0.6,-100.008,M,-33.185,M,,0000*49
[11:14:49] $GNRMC,151449.760,A,4020.8230839,N,08007.7298925,W,000.0,000.0,260425,,,F,V*1D
[11:14:49] $GPGGA,151449.800,4020.8230837,N,08007.7298927,W,5,27,0.6,-100.007,M,-33.185,M,,0000*43
[11:14:49] $GNRMC,151449.800,A,4020.8230837,N,08007.7298927,W,000.0,000.0,260425,,,F,V*18
[11:14:49] $GPGGA,151449.840,4020.8230836,N,08007.7298928,W,5,27,0.6,-100.006,M,-33.185,M,,0000*48
[11:14:49] $GNRMC,151449.840,A,4020.8230836,N,08007.7298928,W,000.0,000.0,260425,,,F,V*12
[11:14:49] $GPGGA,151449.880,4020.8230834,N,08007.7298929,W,5,27,0.6,-100.005,M,-33.185,M,,0000*44
[11:14:49] $GNRMC,151449.880,A,4020.8230834,N,08007.7298929,W,000.0,000.0,260425,,,F,V*1D
[11:14:49] $GPGGA,151449.920,4020.8230833,N,08007.7298930,W,5,27,0.6,-100.004,M,-33.185,M,,0000*41
[11:14:49] $GNRMC,151449.920,A,4020.8230833,N,08007.7298930,W,000.0,000.0,260425,,,F,V*19
[11:14:50] $GPGGA,151449.960,4020.8230831,N,08007.7298931,W,5,27,0.6,-100.003,M,-33.185,M,,0000*41
[11:14:50] $GNRMC,151449.960,A,4020.8230831,N,08007.7298931,W,000.0,000.0,260425,,,F,V*1E
[11:14:50] $GPGGA,151450.000,4020.8230871,N,08007.7298914,W,5,27,0.6,-100.111,M,-33.100,M,1.000,0000*65
[11:14:50] $GNRMC,151450.000,A,4020.8230871,N,08007.7298914,W,000.0,000.0,260425,,,F,V*1A
[11:14:50] $GPGGA,151450.040,4020.8230870,N,08007.7298915,W,5,27,0.6,-100.025,M,-33.185,M,,0000*45
[11:14:50] $GNRMC,151450.040,A,4020.8230870,N,08007.7298915,W,000.0,000.0,260425,,,F,V*1E
[11:14:50] $GPGGA,151450.080,4020.8230868,N,08007.7298916,W,5,27,0.6,-100.024,M,-33.185,M,,0000*42
[11:14:50] $GNRMC,151450.080,A,4020.8230868,N,08007.7298916,W,000.0,000.0,260425,,,F,V*18
[11:14:50] $GPGGA,151450.120,4020.8230867,N,08007.7298918,W,5,27,0.6,-100.023,M,-33.185,M,,0000*4F
[11:14:50] $GNRMC,151450.120,A,4020.8230867,N,08007.7298918,W,000.0,000.0,260425,,,F,V*12
[11:14:50] $GPGGA,151450.160,4020.8230866,N,08007.7298919,W,5,27,0.6,-100.022,M,-33.185,M,,0000*4A
[11:14:50] $GNRMC,151450.160,A,4020.8230866,N,08007.7298919,W,000.0,000.0,260425,,,F,V*16
[11:14:50] $GPGGA,151450.200,4020.8230864,N,08007.7298921,W,5,27,0.6,-100.022,M,-33.185,M,,0000*46
[11:14:50] $GNRMC,151450.200,A,4020.8230864,N,08007.7298921,W,000.0,000.0,260425,,,F,V*1A
[11:14:50] $GPGGA,151450.240,4020.8230863,N,08007.7298922,W,5,27,0.6,-100.021,M,-33.185,M,,0000*45
[11:14:50] $GNRMC,151450.240,A,4020.8230863,N,08007.7298922,W,000.0,000.0,260425,,,F,V*1A
[11:14:50] $GPGGA,151450.280,4020.8230862,N,08007.7298924,W,5,27,0.6,-100.020,M,-33.185,M,,0000*4F
[11:14:50] $GNRMC,151450.280,A,4020.8230862,N,08007.7298924,W,000.0,000.0,260425,,,F,V*11
[11:14:50] $GPGGA,151450.320,4020.8230860,N,08007.7298925,W,5,27,0.6,-100.019,M,-33.185,M,,0000*4D
[11:14:50] $GNRMC,151450.320,A,4020.8230860,N,08007.7298925,W,000.0,000.0,260425,,,F,V*19
[11:14:50] $GPGGA,151450.360,4020.8230859,N,08007.7298926,W,5,27,0.6,-100.019,M,-33.185,M,,0000*40
[11:14:50] $GNRMC,151450.360,A,4020.8230859,N,08007.7298926,W,000.0,000.0,260425,,,F,V*14
[11:14:50] $GPGGA,151450.400,4020.8230858,N,08007.7298928,W,5,27,0.6,-100.018,M,-33.185,M,,0000*4F
[11:14:50] $GNRMC,151450.400,A,4020.8230858,N,08007.7298928,W,000.0,000.0,260425,,,F,V*1A
[11:14:50] $GPGGA,151450.440,4020.8230856,N,08007.7298929,W,5,27,0.6,-100.017,M,-33.185,M,,0000*4B
[11:14:50] $GNRMC,151450.440,A,4020.8230856,N,08007.7298929,W,000.0,000.0,260425,,,F,V*11
[11:14:50] $GPGGA,151450.480,4020.8230855,N,08007.7298931,W,5,27,0.6,-100.016,M,-33.185,M,,0000*4C
[11:14:50] $GNRMC,151450.480,A,4020.8230855,N,08007.7298931,W,000.0,000.0,260425,,,F,V*17
[11:14:50] $GPGGA,151450.520,4020.8230853,N,08007.7298932,W,5,27,0.6,-100.015,M,-33.185,M,,0000*41
[11:14:50] $GNRMC,151450.520,A,4020.8230853,N,08007.7298932,W,000.0,000.0,260425,,,F,V*19
[11:14:50] $GPGGA,151450.560,4020.8230852,N,08007.7298933,W,5,27,0.6,-100.015,M,-33.185,M,,0000*45
[11:14:50] $GNRMC,151450.560,A,4020.8230852,N,08007.7298933,W,000.0,000.0,260425,,,F,V*1D
