[16:29:59] $GPGGA,202959.360,4020.7223417,N,08007.7269701,W,1,27,0.5,326.185,M,-33.184,M,,0000*66
[16:30:00] $GNRMC,202959.360,A,4020.7223417,N,08007.7269701,W,000.0,331.4,260425,,,A,V*19
[16:30:01] $GPGGA,202959.400,4020.7223418,N,08007.7269698,W,1,27,0.5,326.186,M,-33.184,M,,0000*6A
[16:30:02] $GNRMC,202959.400,A,4020.7223418,N,08007.7269698,W,000.0,331.4,260425,,,A,V*16
[16:30:04] $GPGGA,202959.440,4020.7223418,N,08007.7269696,W,1,27,0.5,326.187,M,-33.184,M,,0000*61
[16:30:05] $GNRMC,202959.440,A,4020.7223418,N,08007.7269696,W,000.0,331.4,260425,,,A,V*1C
[16:30:06] $GPGGA,202959.480,4020.7223419,N,08007.7269694,W,1,27,0.5,326.187,M,-33.184,M,,0000*6E
[16:30:07] $GNRMC,202959.480,A,4020.7223419,N,08007.7269694,W,000.0,331.4,260425,,,A,V*13
[16:30:08] $GPGGA,202959.520,4020.7223419,N,08007.7269691,W,1,27,0.5,326.188,M,-33.184,M,,0000*6F
[16:30:09] $GNRMC,202959.520,A,4020.7223419,N,08007.7269691,W,000.0,331.4,260425,,,A,V*1D
[16:30:10] $GPGGA,202959.560,4020.7223419,N,08007.7269689,W,1,27,0.5,326.189,M,-33.184,M,,0000*63
[16:30:11] $GNRMC,202959.560,A,4020.7223419,N,08007.7269689,W,000.0,331.4,260425,,,A,V*10
[16:30:12] $GPGGA,202959.600,4020.7223420,N,08007.7269686,W,1,27,0.5,326.190,M,-33.184,M,,0000*6B
[16:30:13] $GNRMC,202959.600,A,4020.7223420,N,08007.7269686,W,000.0,331.4,260425,,,A,V*10
[16:30:14] $GPGGA,202959.640,4020.7223420,N,08007.7269684,W,1,27,0.5,326.191,M,-33.184,M,,0000*6C
[16:30:15] $GNRMC,202959.640,A,4020.7223420,N,08007.7269684,W,000.0,331.4,260425,,,A,V*16
[16:30:16] $GPGGA,202959.680,4020.7223421,N,08007.7269682,W,1,27,0.5,326.192,M,-33.184,M,,0000*64
[16:30:17] $GNRMC,202959.680,A,4020.7223421,N,08007.7269682,W,000.0,331.4,260425,,,A,V*1D
[16:30:18] $GPGGA,202959.720,4020.7223421,N,08007.7269679,W,1,27,0.5,326.193,M,-33.184,M,,0000*6A
[16:30:19] $GNRMC,202959.720,A,4020.7223421,N,08007.7269679,W,000.0,331.4,260425,,,A,V*12
[16:30:20] $GPGGA,202959.760,4020.7223421,N,08007.7269677,W,1,27,0.5,326.194,M,-33.184,M,,0000*67
[16:30:21] $GNRMC,202959.760,A,4020.7223421,N,08007.7269677,W,000.0,331.4,260425,,,A,V*18
[16:30:22] $GPGGA,202959.800,4020.7223422,N,08007.7269675,W,1,27,0.5,326.195,M,-33.184,M,,0000*6E
[16:30:23] $GNRMC,202959.800,A,4020.7223422,N,08007.7269675,W,000.0,331.4,260425,,,A,V*10
[16:30:24] $GPGGA,202959.840,4020.7223422,N,08007.7269672,W,1,27,0.5,326.196,M,-33.184,M,,0000*6E
[16:30:25] $GNRMC,202959.840,A,4020.7223422,N,08007.7269672,W,000.0,331.4,260425,,,A,V*13
[16:30:26] $GPGGA,202959.880,4020.7223423,N,08007.7269670,W,1,27,0.5,326.197,M,-33.184,M,,0000*60
[16:30:28] $GNRMC,202959.880,A,4020.7223423,N,08007.7269670,W,000.0,331.4,260425,,,A,V*1C
[16:30:29] $GPGGA,202959.920,4020.7223423,N,08007.7269668,W,1,27,0.5,326.198,M,-33.184,M,,0000*6D
[16:30:30] $GNRMC,202959.920,A,4020.7223423,N,08007.7269668,W,000.0,331.4,260425,,,A,V*1E
[16:30:31] $GNRMC,203000.000,A,4020.7223378,N,08007.7269699,W,000.0,331.4,260425,,,A,V*16
[16:30:33] $GPGGA,133247.240,4020.7223378,N,08007.7269699,W,1,27,0.5,326.179,M,-33.184,M,,0000*6D
[16:30:34] $GNRMC,133247.240,A,4020.7223378,N,08007.7269699,W,000.0,331.4,150625,,,A,V*13
[16:30:35] $GPGGA,203000.040,4020.7223380,N,08007.7269698,W,1,27,0.5,326.180,M,-33.184,M,,0000*6E
[16:30:37] $GNRMC,203000.040,A,4020.7223380,N,08007.7269698,W,000.0,331.4,260425,,,A,V*14
[16:30:38] $GPGGA,203000.080,4020.7223381,N,08007.7269697,W,1,27,0.5,326.181,M,-33.184,M,,0000*6D
[16:30:40] $GNRMC,203000.080,A,4020.7223381,N,08007.7269697,W,000.0,331.4,260425,,,A,V*16
[16:30:42] $GPGGA,203000.120,4020.7223383,N,08007.7269695,W,1,27,0.5,326.182,M,-33.184,M,,0000*65
[16:30:43] $GNRMC,203000.120,A,4020.7223383,N,08007.7269695,W,000.0,331.4,260425,,,A,V*1D
[16:30:45] $GPGGA,203000.160,4020.7223385,N,08007.7269694,W,1,27,0.5,326.183,M,-33.184,M,,0000*67
[16:30:47] $GNRMC,203000.160,A,4020.7223385,N,08007.7269694,W,000.0,331.4,260425,,,A,V*1E
[16:30:49] $GPGGA,203000.200,4020.7223387,N,08007.7269693,W,1,27,0.5,326.184,M,-33.184,M,,0000*60
[16:30:51] $GNRMC,203000.200,A,4020.7223387,N,08007.7269693,W,000.0,331.4,260425,,,A,V*1E
[16:30:53] $GPGGA,203000.240,4020.7223388,N,08007.7269691,W,1,27,0.5,326.185,M,-33.184,M,,0000*68
